[
  {
    "area_id": 2186,
    "area_name": "Armagh",
    "county_name": "Armagh",
    "county_id": 28,
    "address_components": [
      {
        "long_name": "Armagh",
        "short_name": "Armagh",
        "types": [
          "locality",
          "political"
        ]
      },
      {
        "long_name": "Armagh",
        "short_name": "Armagh",
        "types": [
          "postal_town"
        ]
      },
      {
        "long_name": "Armagh City, Banbridge and Craigavon",
        "short_name": "Armagh City, Banbridge and Craigavon",
        "types": [
          "administrative_area_level_2",
          "political"
        ]
      },
      {
        "long_name": "Northern Ireland",
        "short_name": "Northern Ireland",
        "types": [
          "administrative_area_level_1",
          "political"
        ]
      },
      {
        "long_name": "United Kingdom",
        "short_name": "GB",
        "types": [
          "country",
          "political"
        ]
      }
    ],
    "formatted_address": "Armagh, UK",
    "geometry": {
      "bounds": {
        "northeast": {
          "lat": 54.36631999999999,
          "lng": -6.62102
        },
        "southwest": {
          "lat": 54.32772000000001,
          "lng": -6.6760899
        }
      },
      "location": {
        "lat": 54.3502798,
        "lng": -6.652792
      },
      "location_type": "APPROXIMATE",
      "viewport": {
        "northeast": {
          "lat": 54.36631999999999,
          "lng": -6.62102
        },
        "southwest": {
          "lat": 54.32772000000001,
          "lng": -6.6760899
        }
      }
    },
    "place_id": "ChIJjRbLfVWNYEgRSBjJzX1jLrk",
    "types": [
      "locality",
      "political"
    ]
  },
  {
    "area_id": 2085,
    "area_name": "Allistragh",
    "county_name": "Armagh",
    "county_id": 28,
    "address_components": [
      {
        "long_name": "Allistragh",
        "short_name": "Allistragh",
        "types": [
          "locality",
          "political"
        ]
      },
      {
        "long_name": "Armagh",
        "short_name": "Armagh",
        "types": [
          "postal_town"
        ]
      },
      {
        "long_name": "Armagh City, Banbridge and Craigavon",
        "short_name": "Armagh City, Banbridge and Craigavon",
        "types": [
          "administrative_area_level_2",
          "political"
        ]
      },
      {
        "long_name": "Northern Ireland",
        "short_name": "Northern Ireland",
        "types": [
          "administrative_area_level_1",
          "political"
        ]
      },
      {
        "long_name": "United Kingdom",
        "short_name": "GB",
        "types": [
          "country",
          "political"
        ]
      },
      {
        "long_name": "BT61 8DX",
        "short_name": "BT61 8DX",
        "types": [
          "postal_code"
        ]
      }
    ],
    "formatted_address": "Allistragh, Armagh BT61 8DX, UK",
    "geometry": {
      "location": {
        "lat": 54.38197,
        "lng": -6.67085
      },
      "location_type": "APPROXIMATE",
      "viewport": {
        "northeast": {
          "lat": 54.3833189802915,
          "lng": -6.669501019708497
        },
        "southwest": {
          "lat": 54.3806210197085,
          "lng": -6.672198980291502
        }
      }
    },
    "place_id": "ChIJ2w_9-uKSYEgRMfI1vLM_DyY",
    "types": [
      "locality",
      "political"
    ]
  },
  {
    "area_id": 3450,
    "area_name": "Clare",
    "county_name": "Armagh",
    "county_id": 28,
    "address_components": [
      {
        "long_name": "Armagh",
        "short_name": "Armagh",
        "types": [
          "locality",
          "political"
        ]
      },
      {
        "long_name": "Armagh",
        "short_name": "Armagh",
        "types": [
          "postal_town"
        ]
      },
      {
        "long_name": "Armagh City, Banbridge and Craigavon",
        "short_name": "Armagh City, Banbridge and Craigavon",
        "types": [
          "administrative_area_level_2",
          "political"
        ]
      },
      {
        "long_name": "Northern Ireland",
        "short_name": "Northern Ireland",
        "types": [
          "administrative_area_level_1",
          "political"
        ]
      },
      {
        "long_name": "United Kingdom",
        "short_name": "GB",
        "types": [
          "country",
          "political"
        ]
      }
    ],
    "formatted_address": "Armagh, UK",
    "geometry": {
      "bounds": {
        "northeast": {
          "lat": 54.36631999999999,
          "lng": -6.62102
        },
        "southwest": {
          "lat": 54.32772000000001,
          "lng": -6.6760899
        }
      },
      "location": {
        "lat": 54.3502798,
        "lng": -6.652792
      },
      "location_type": "APPROXIMATE",
      "viewport": {
        "northeast": {
          "lat": 54.36631999999999,
          "lng": -6.62102
        },
        "southwest": {
          "lat": 54.32772000000001,
          "lng": -6.6760899
        }
      }
    },
    "partial_match": true,
    "place_id": "ChIJjRbLfVWNYEgRSBjJzX1jLrk",
    "types": [
      "locality",
      "political"
    ]
  },
  {
    "area_id": 4169,
    "area_name": "Brownlow",
    "county_name": "Armagh",
    "county_id": 28,
    "address_components": [
      {
        "long_name": "Armagh",
        "short_name": "Armagh",
        "types": [
          "locality",
          "political"
        ]
      },
      {
        "long_name": "Armagh",
        "short_name": "Armagh",
        "types": [
          "postal_town"
        ]
      },
      {
        "long_name": "Armagh City, Banbridge and Craigavon",
        "short_name": "Armagh City, Banbridge and Craigavon",
        "types": [
          "administrative_area_level_2",
          "political"
        ]
      },
      {
        "long_name": "Northern Ireland",
        "short_name": "Northern Ireland",
        "types": [
          "administrative_area_level_1",
          "political"
        ]
      },
      {
        "long_name": "United Kingdom",
        "short_name": "GB",
        "types": [
          "country",
          "political"
        ]
      }
    ],
    "formatted_address": "Armagh, UK",
    "geometry": {
      "bounds": {
        "northeast": {
          "lat": 54.36631999999999,
          "lng": -6.62102
        },
        "southwest": {
          "lat": 54.32772000000001,
          "lng": -6.6760899
        }
      },
      "location": {
        "lat": 54.3502798,
        "lng": -6.652792
      },
      "location_type": "APPROXIMATE",
      "viewport": {
        "northeast": {
          "lat": 54.36631999999999,
          "lng": -6.62102
        },
        "southwest": {
          "lat": 54.32772000000001,
          "lng": -6.6760899
        }
      }
    },
    "partial_match": true,
    "place_id": "ChIJjRbLfVWNYEgRSBjJzX1jLrk",
    "types": [
      "locality",
      "political"
    ]
  },
  {
    "area_id": 3455,
    "area_name": "Bessbrook",
    "county_name": "Armagh",
    "county_id": 28,
    "address_components": [
      {
        "long_name": "Bessbrook",
        "short_name": "Bessbrook",
        "types": [
          "locality",
          "political"
        ]
      },
      {
        "long_name": "Newry",
        "short_name": "Newry",
        "types": [
          "postal_town"
        ]
      },
      {
        "long_name": "Newry, Mourne and Down",
        "short_name": "Newry, Mourne and Down",
        "types": [
          "administrative_area_level_2",
          "political"
        ]
      },
      {
        "long_name": "Northern Ireland",
        "short_name": "Northern Ireland",
        "types": [
          "administrative_area_level_1",
          "political"
        ]
      },
      {
        "long_name": "United Kingdom",
        "short_name": "GB",
        "types": [
          "country",
          "political"
        ]
      },
      {
        "long_name": "BT35",
        "short_name": "BT35",
        "types": [
          "postal_code",
          "postal_code_prefix"
        ]
      }
    ],
    "formatted_address": "Bessbrook, Newry BT35, UK",
    "geometry": {
      "bounds": {
        "northeast": {
          "lat": 54.2047365,
          "lng": -6.3834019
        },
        "southwest": {
          "lat": 54.1819459,
          "lng": -6.409676699999999
        }
      },
      "location": {
        "lat": 54.1956601,
        "lng": -6.394229999999999
      },
      "location_type": "APPROXIMATE",
      "viewport": {
        "northeast": {
          "lat": 54.2047365,
          "lng": -6.3834019
        },
        "southwest": {
          "lat": 54.1819459,
          "lng": -6.409676699999999
        }
      }
    },
    "place_id": "ChIJ6WP6Zg3DYEgR2yboSmwyjbQ",
    "types": [
      "locality",
      "political"
    ]
  },
  {
    "area_id": 3429,
    "area_name": "Derrynoose",
    "county_name": "Armagh",
    "county_id": 28,
    "address_components": [
      {
        "long_name": "Derrynoose",
        "short_name": "Derrynoose",
        "types": [
          "locality",
          "political"
        ]
      },
      {
        "long_name": "Armagh",
        "short_name": "Armagh",
        "types": [
          "postal_town"
        ]
      },
      {
        "long_name": "Armagh City, Banbridge and Craigavon",
        "short_name": "Armagh City, Banbridge and Craigavon",
        "types": [
          "administrative_area_level_2",
          "political"
        ]
      },
      {
        "long_name": "Northern Ireland",
        "short_name": "Northern Ireland",
        "types": [
          "administrative_area_level_1",
          "political"
        ]
      },
      {
        "long_name": "United Kingdom",
        "short_name": "GB",
        "types": [
          "country",
          "political"
        ]
      },
      {
        "long_name": "BT60 3DW",
        "short_name": "BT60 3DW",
        "types": [
          "postal_code"
        ]
      }
    ],
    "formatted_address": "Derrynoose, Armagh BT60 3DW, UK",
    "geometry": {
      "location": {
        "lat": 54.2373741,
        "lng": -6.794734099999999
      },
      "location_type": "APPROXIMATE",
      "viewport": {
        "northeast": {
          "lat": 54.2387230802915,
          "lng": -6.793385119708497
        },
        "southwest": {
          "lat": 54.2360251197085,
          "lng": -6.796083080291502
        }
      }
    },
    "place_id": "ChIJPWUnl3m9YEgRvLNy2hjGWHY",
    "types": [
      "locality",
      "political"
    ]
  },
  {
    "area_id": 2088,
    "area_name": "Blackwatertown",
    "county_name": "Armagh",
    "county_id": 28,
    "address_components": [
      {
        "long_name": "Blackwatertown",
        "short_name": "Blackwatertown",
        "types": [
          "locality",
          "political"
        ]
      },
      {
        "long_name": "Dungannon",
        "short_name": "Dungannon",
        "types": [
          "postal_town"
        ]
      },
      {
        "long_name": "Armagh City, Banbridge and Craigavon",
        "short_name": "Armagh City, Banbridge and Craigavon",
        "types": [
          "administrative_area_level_2",
          "political"
        ]
      },
      {
        "long_name": "Northern Ireland",
        "short_name": "Northern Ireland",
        "types": [
          "administrative_area_level_1",
          "political"
        ]
      },
      {
        "long_name": "United Kingdom",
        "short_name": "GB",
        "types": [
          "country",
          "political"
        ]
      },
      {
        "long_name": "BT71",
        "short_name": "BT71",
        "types": [
          "postal_code",
          "postal_code_prefix"
        ]
      }
    ],
    "formatted_address": "Blackwatertown, Dungannon BT71, UK",
    "geometry": {
      "bounds": {
        "northeast": {
          "lat": 54.41714140000001,
          "lng": -6.6962952
        },
        "southwest": {
          "lat": 54.4073042,
          "lng": -6.713146099999999
        }
      },
      "location": {
        "lat": 54.4129301,
        "lng": -6.7027601
      },
      "location_type": "APPROXIMATE",
      "viewport": {
        "northeast": {
          "lat": 54.41714140000001,
          "lng": -6.6962952
        },
        "southwest": {
          "lat": 54.4073042,
          "lng": -6.713146099999999
        }
      }
    },
    "place_id": "ChIJ86x4uXySYEgRQCKuObU_Dwo",
    "types": [
      "locality",
      "political"
    ]
  },
  {
    "area_id": 2171,
    "area_name": "Charlestown",
    "county_name": "Armagh",
    "county_id": 28,
    "address_components": [
      {
        "long_name": "Bannfoot",
        "short_name": "Bannfoot",
        "types": [
          "locality",
          "political"
        ]
      },
      {
        "long_name": "Craigavon",
        "short_name": "Craigavon",
        "types": [
          "postal_town"
        ]
      },
      {
        "long_name": "Armagh City, Banbridge and Craigavon",
        "short_name": "Armagh City, Banbridge and Craigavon",
        "types": [
          "administrative_area_level_2",
          "political"
        ]
      },
      {
        "long_name": "Northern Ireland",
        "short_name": "Northern Ireland",
        "types": [
          "administrative_area_level_1",
          "political"
        ]
      },
      {
        "long_name": "United Kingdom",
        "short_name": "GB",
        "types": [
          "country",
          "political"
        ]
      },
      {
        "long_name": "BT66 6UA",
        "short_name": "BT66 6UA",
        "types": [
          "postal_code"
        ]
      }
    ],
    "formatted_address": "Bannfoot, Craigavon BT66 6UA, UK",
    "geometry": {
      "location": {
        "lat": 54.50604,
        "lng": -6.5108
      },
      "location_type": "APPROXIMATE",
      "viewport": {
        "northeast": {
          "lat": 54.50738898029149,
          "lng": -6.509451019708497
        },
        "southwest": {
          "lat": 54.5046910197085,
          "lng": -6.512148980291502
        }
      }
    },
    "place_id": "ChIJWQoKJDnxYEgREC6uObU_Dwo",
    "types": [
      "locality",
      "political"
    ]
  },
  {
    "area_id": 2177,
    "area_name": "Aghinlig",
    "county_name": "Armagh",
    "county_id": 28,
    "address_components": [
      {
        "long_name": "Aghinlig Road",
        "short_name": "Aghinlig Rd",
        "types": [
          "route"
        ]
      },
      {
        "long_name": "Dungannon",
        "short_name": "Dungannon",
        "types": [
          "postal_town"
        ]
      },
      {
        "long_name": "Armagh City, Banbridge and Craigavon",
        "short_name": "Armagh City, Banbridge and Craigavon",
        "types": [
          "administrative_area_level_2",
          "political"
        ]
      },
      {
        "long_name": "Northern Ireland",
        "short_name": "Northern Ireland",
        "types": [
          "administrative_area_level_1",
          "political"
        ]
      },
      {
        "long_name": "United Kingdom",
        "short_name": "GB",
        "types": [
          "country",
          "political"
        ]
      },
      {
        "long_name": "BT71",
        "short_name": "BT71",
        "types": [
          "postal_code",
          "postal_code_prefix"
        ]
      }
    ],
    "formatted_address": "Aghinlig Rd, Dungannon BT71, UK",
    "geometry": {
      "bounds": {
        "northeast": {
          "lat": 54.4314951,
          "lng": -6.6619911
        },
        "southwest": {
          "lat": 54.41990149999999,
          "lng": -6.673550800000001
        }
      },
      "location": {
        "lat": 54.4245289,
        "lng": -6.6647485
      },
      "location_type": "GEOMETRIC_CENTER",
      "viewport": {
        "northeast": {
          "lat": 54.4314951,
          "lng": -6.6619911
        },
        "southwest": {
          "lat": 54.41990149999999,
          "lng": -6.673550800000001
        }
      }
    },
    "place_id": "ChIJXwOOCqCSYEgR5xXJSsTnxCY",
    "types": [
      "route"
    ]
  },
  {
    "area_id": 2185,
    "area_name": "Hamiltonsbawn",
    "county_name": "Armagh",
    "county_id": 28,
    "address_components": [
      {
        "long_name": "Hamiltonsbawn",
        "short_name": "Hamiltonsbawn",
        "types": [
          "locality",
          "political"
        ]
      },
      {
        "long_name": "Armagh",
        "short_name": "Armagh",
        "types": [
          "postal_town"
        ]
      },
      {
        "long_name": "Armagh City, Banbridge and Craigavon",
        "short_name": "Armagh City, Banbridge and Craigavon",
        "types": [
          "administrative_area_level_2",
          "political"
        ]
      },
      {
        "long_name": "Northern Ireland",
        "short_name": "Northern Ireland",
        "types": [
          "administrative_area_level_1",
          "political"
        ]
      },
      {
        "long_name": "United Kingdom",
        "short_name": "GB",
        "types": [
          "country",
          "political"
        ]
      }
    ],
    "formatted_address": "Hamiltonsbawn, Armagh, UK",
    "geometry": {
      "bounds": {
        "northeast": {
          "lat": 54.3446247,
          "lng": -6.5262604
        },
        "southwest": {
          "lat": 54.334238,
          "lng": -6.5592502
        }
      },
      "location": {
        "lat": 54.3416724,
        "lng": -6.5421167
      },
      "location_type": "APPROXIMATE",
      "viewport": {
        "northeast": {
          "lat": 54.3446247,
          "lng": -6.5262604
        },
        "southwest": {
          "lat": 54.334238,
          "lng": -6.5592502
        }
      }
    },
    "place_id": "ChIJ85kPlobrYEgR3q7uknDcTww",
    "types": [
      "locality",
      "political"
    ]
  },
  {
    "area_id": 3442,
    "area_name": "Killeen",
    "county_name": "Armagh",
    "county_id": 28,
    "address_components": [
      {
        "long_name": "Killeen",
        "short_name": "Killeen",
        "types": [
          "locality",
          "political"
        ]
      },
      {
        "long_name": "Newry",
        "short_name": "Newry",
        "types": [
          "postal_town"
        ]
      },
      {
        "long_name": "Newry, Mourne and Down",
        "short_name": "Newry, Mourne and Down",
        "types": [
          "administrative_area_level_2",
          "political"
        ]
      },
      {
        "long_name": "Northern Ireland",
        "short_name": "Northern Ireland",
        "types": [
          "administrative_area_level_1",
          "political"
        ]
      },
      {
        "long_name": "United Kingdom",
        "short_name": "GB",
        "types": [
          "country",
          "political"
        ]
      },
      {
        "long_name": "BT35 8RL",
        "short_name": "BT35 8RL",
        "types": [
          "postal_code"
        ]
      }
    ],
    "formatted_address": "Killeen, Newry BT35 8RL, UK",
    "geometry": {
      "location": {
        "lat": 54.117997,
        "lng": -6.354004
      },
      "location_type": "APPROXIMATE",
      "viewport": {
        "northeast": {
          "lat": 54.1193459802915,
          "lng": -6.352655019708497
        },
        "southwest": {
          "lat": 54.1166480197085,
          "lng": -6.355352980291502
        }
      }
    },
    "place_id": "ChIJNdCZSDnFYEgRGl8Ewnu1i7o",
    "types": [
      "locality",
      "political"
    ]
  },
  {
    "area_id": 3479,
    "area_name": "Jonesborough",
    "county_name": "Armagh",
    "county_id": 28,
    "address_components": [
      {
        "long_name": "Jonesborough",
        "short_name": "Jonesborough",
        "types": [
          "locality",
          "political"
        ]
      },
      {
        "long_name": "Newry",
        "short_name": "Newry",
        "types": [
          "postal_town"
        ]
      },
      {
        "long_name": "Newry, Mourne and Down",
        "short_name": "Newry, Mourne and Down",
        "types": [
          "administrative_area_level_2",
          "political"
        ]
      },
      {
        "long_name": "Northern Ireland",
        "short_name": "Northern Ireland",
        "types": [
          "administrative_area_level_1",
          "political"
        ]
      },
      {
        "long_name": "United Kingdom",
        "short_name": "GB",
        "types": [
          "country",
          "political"
        ]
      },
      {
        "long_name": "BT35 8HP",
        "short_name": "BT35 8HP",
        "types": [
          "postal_code"
        ]
      }
    ],
    "formatted_address": "Jonesborough, Newry BT35 8HP, UK",
    "geometry": {
      "location": {
        "lat": 54.09059,
        "lng": -6.36973
      },
      "location_type": "APPROXIMATE",
      "viewport": {
        "northeast": {
          "lat": 54.09193898029149,
          "lng": -6.368381019708498
        },
        "southwest": {
          "lat": 54.0892410197085,
          "lng": -6.371078980291502
        }
      }
    },
    "place_id": "ChIJ3ZuLgfXPYEgRblw3UFLcFv4",
    "types": [
      "locality",
      "political"
    ]
  },
  {
    "area_id": 3456,
    "area_name": "Camlough",
    "county_name": "Armagh",
    "county_id": 28,
    "address_components": [
      {
        "long_name": "Camlough",
        "short_name": "Camlough",
        "types": [
          "locality",
          "political"
        ]
      },
      {
        "long_name": "Newry",
        "short_name": "Newry",
        "types": [
          "postal_town"
        ]
      },
      {
        "long_name": "Newry, Mourne and Down",
        "short_name": "Newry, Mourne and Down",
        "types": [
          "administrative_area_level_2",
          "political"
        ]
      },
      {
        "long_name": "Northern Ireland",
        "short_name": "Northern Ireland",
        "types": [
          "administrative_area_level_1",
          "political"
        ]
      },
      {
        "long_name": "United Kingdom",
        "short_name": "GB",
        "types": [
          "country",
          "political"
        ]
      },
      {
        "long_name": "BT35",
        "short_name": "BT35",
        "types": [
          "postal_code",
          "postal_code_prefix"
        ]
      }
    ],
    "formatted_address": "Camlough, Newry BT35, UK",
    "geometry": {
      "bounds": {
        "northeast": {
          "lat": 54.18814399999999,
          "lng": -6.399849199999999
        },
        "southwest": {
          "lat": 54.172117,
          "lng": -6.4256481
        }
      },
      "location": {
        "lat": 54.18044,
        "lng": -6.4106901
      },
      "location_type": "APPROXIMATE",
      "viewport": {
        "northeast": {
          "lat": 54.18814399999999,
          "lng": -6.399849199999999
        },
        "southwest": {
          "lat": 54.172117,
          "lng": -6.4256481
        }
      }
    },
    "place_id": "ChIJ6R91CUPDYEgRJ--Hkv-jNYk",
    "types": [
      "locality",
      "political"
    ]
  },
  {
    "area_id": 3460,
    "area_name": "Cullyhanna",
    "county_name": "Armagh",
    "county_id": 28,
    "address_components": [
      {
        "long_name": "Cullyhanna",
        "short_name": "Cullyhanna",
        "types": [
          "locality",
          "political"
        ]
      },
      {
        "long_name": "Newry",
        "short_name": "Newry",
        "types": [
          "postal_town"
        ]
      },
      {
        "long_name": "Newry, Mourne and Down",
        "short_name": "Newry, Mourne and Down",
        "types": [
          "administrative_area_level_2",
          "political"
        ]
      },
      {
        "long_name": "Northern Ireland",
        "short_name": "Northern Ireland",
        "types": [
          "administrative_area_level_1",
          "political"
        ]
      },
      {
        "long_name": "United Kingdom",
        "short_name": "GB",
        "types": [
          "country",
          "political"
        ]
      },
      {
        "long_name": "BT35",
        "short_name": "BT35",
        "types": [
          "postal_code",
          "postal_code_prefix"
        ]
      }
    ],
    "formatted_address": "Cullyhanna, Newry BT35, UK",
    "geometry": {
      "bounds": {
        "northeast": {
          "lat": 54.1363165,
          "lng": -6.577156
        },
        "southwest": {
          "lat": 54.124123,
          "lng": -6.597992199999999
        }
      },
      "location": {
        "lat": 54.13077000000001,
        "lng": -6.587259899999999
      },
      "location_type": "APPROXIMATE",
      "viewport": {
        "northeast": {
          "lat": 54.1363165,
          "lng": -6.577156
        },
        "southwest": {
          "lat": 54.124123,
          "lng": -6.597992199999999
        }
      }
    },
    "place_id": "ChIJ2cHvtYu4YEgRy8cqCJOOoY8",
    "types": [
      "locality",
      "political"
    ]
  },
  {
    "area_id": 3454,
    "area_name": "Belleek",
    "county_name": "Armagh",
    "county_id": 28,
    "address_components": [
      {
        "long_name": "Belleeks",
        "short_name": "Belleeks",
        "types": [
          "locality",
          "political"
        ]
      },
      {
        "long_name": "Newry",
        "short_name": "Newry",
        "types": [
          "postal_town"
        ]
      },
      {
        "long_name": "Newry, Mourne and Down",
        "short_name": "Newry, Mourne and Down",
        "types": [
          "administrative_area_level_2",
          "political"
        ]
      },
      {
        "long_name": "Northern Ireland",
        "short_name": "Northern Ireland",
        "types": [
          "administrative_area_level_1",
          "political"
        ]
      },
      {
        "long_name": "United Kingdom",
        "short_name": "GB",
        "types": [
          "country",
          "political"
        ]
      },
      {
        "long_name": "BT35",
        "short_name": "BT35",
        "types": [
          "postal_code",
          "postal_code_prefix"
        ]
      }
    ],
    "formatted_address": "Belleeks, Newry BT35, UK",
    "geometry": {
      "bounds": {
        "northeast": {
          "lat": 54.1884041,
          "lng": -6.4736883
        },
        "southwest": {
          "lat": 54.17898839999999,
          "lng": -6.4932535
        }
      },
      "location": {
        "lat": 54.18432,
        "lng": -6.4856501
      },
      "location_type": "APPROXIMATE",
      "viewport": {
        "northeast": {
          "lat": 54.1884041,
          "lng": -6.4736883
        },
        "southwest": {
          "lat": 54.17898839999999,
          "lng": -6.4932535
        }
      }
    },
    "place_id": "ChIJf5Jw5kXBYEgRKzDO0ZfY0Ns",
    "types": [
      "locality",
      "political"
    ]
  },
  {
    "area_id": 3477,
    "area_name": "Cloghoge",
    "county_name": "Armagh",
    "county_id": 28,
    "address_components": [
      {
        "long_name": "Cloughoge",
        "short_name": "Cloughoge",
        "types": [
          "locality",
          "political"
        ]
      },
      {
        "long_name": "Newry",
        "short_name": "Newry",
        "types": [
          "postal_town"
        ]
      },
      {
        "long_name": "Newry, Mourne and Down",
        "short_name": "Newry, Mourne and Down",
        "types": [
          "administrative_area_level_2",
          "political"
        ]
      },
      {
        "long_name": "Northern Ireland",
        "short_name": "Northern Ireland",
        "types": [
          "administrative_area_level_1",
          "political"
        ]
      },
      {
        "long_name": "United Kingdom",
        "short_name": "GB",
        "types": [
          "country",
          "political"
        ]
      },
      {
        "long_name": "BT35",
        "short_name": "BT35",
        "types": [
          "postal_code",
          "postal_code_prefix"
        ]
      }
    ],
    "formatted_address": "Cloughoge, Newry BT35, UK",
    "geometry": {
      "bounds": {
        "northeast": {
          "lat": 54.14859329999999,
          "lng": -6.347525500000001
        },
        "southwest": {
          "lat": 54.13759090000001,
          "lng": -6.3637478
        }
      },
      "location": {
        "lat": 54.1412105,
        "lng": -6.3568583
      },
      "location_type": "APPROXIMATE",
      "viewport": {
        "northeast": {
          "lat": 54.14859329999999,
          "lng": -6.347525500000001
        },
        "southwest": {
          "lat": 54.13759090000001,
          "lng": -6.3637478
        }
      }
    },
    "place_id": "ChIJhx7nfNnEYEgRAE-uObU_Dwo",
    "types": [
      "locality",
      "political"
    ]
  },
  {
    "area_id": 2196,
    "area_name": "Lurgan",
    "county_name": "Armagh",
    "county_id": 28,
    "address_components": [
      {
        "long_name": "Lurgan",
        "short_name": "Lurgan",
        "types": [
          "locality",
          "political"
        ]
      },
      {
        "long_name": "Craigavon",
        "short_name": "Craigavon",
        "types": [
          "postal_town"
        ]
      },
      {
        "long_name": "Armagh City, Banbridge and Craigavon",
        "short_name": "Armagh City, Banbridge and Craigavon",
        "types": [
          "administrative_area_level_2",
          "political"
        ]
      },
      {
        "long_name": "Northern Ireland",
        "short_name": "Northern Ireland",
        "types": [
          "administrative_area_level_1",
          "political"
        ]
      },
      {
        "long_name": "United Kingdom",
        "short_name": "GB",
        "types": [
          "country",
          "political"
        ]
      }
    ],
    "formatted_address": "Lurgan, Craigavon, UK",
    "geometry": {
      "bounds": {
        "northeast": {
          "lat": 54.48033150000001,
          "lng": -6.3048696
        },
        "southwest": {
          "lat": 54.4405862,
          "lng": -6.3563284
        }
      },
      "location": {
        "lat": 54.4635261,
        "lng": -6.3345506
      },
      "location_type": "APPROXIMATE",
      "viewport": {
        "northeast": {
          "lat": 54.48033150000001,
          "lng": -6.3048696
        },
        "southwest": {
          "lat": 54.4405862,
          "lng": -6.3563284
        }
      }
    },
    "place_id": "ChIJo-HUB6TkYEgRwCvKIgqek1g",
    "types": [
      "locality",
      "political"
    ]
  },
  {
    "area_id": 3426,
    "area_name": "Madden",
    "county_name": "Armagh",
    "county_id": 28,
    "address_components": [
      {
        "long_name": "Madden",
        "short_name": "Madden",
        "types": [
          "locality",
          "political"
        ]
      },
      {
        "long_name": "Armagh",
        "short_name": "Armagh",
        "types": [
          "postal_town"
        ]
      },
      {
        "long_name": "Armagh City, Banbridge and Craigavon",
        "short_name": "Armagh City, Banbridge and Craigavon",
        "types": [
          "administrative_area_level_2",
          "political"
        ]
      },
      {
        "long_name": "Northern Ireland",
        "short_name": "Northern Ireland",
        "types": [
          "administrative_area_level_1",
          "political"
        ]
      },
      {
        "long_name": "United Kingdom",
        "short_name": "GB",
        "types": [
          "country",
          "political"
        ]
      },
      {
        "long_name": "BT60 3LS",
        "short_name": "BT60 3LS",
        "types": [
          "postal_code"
        ]
      }
    ],
    "formatted_address": "Madden, Armagh BT60 3LS, UK",
    "geometry": {
      "location": {
        "lat": 54.28341,
        "lng": -6.74752
      },
      "location_type": "APPROXIMATE",
      "viewport": {
        "northeast": {
          "lat": 54.2847589802915,
          "lng": -6.746171019708497
        },
        "southwest": {
          "lat": 54.2820610197085,
          "lng": -6.748868980291502
        }
      }
    },
    "place_id": "ChIJc2-en2aWYEgRwmo6vLM_DyY",
    "types": [
      "locality",
      "political"
    ]
  },
  {
    "area_id": 3465,
    "area_name": "Cullaville",
    "county_name": "Armagh",
    "county_id": 28,
    "address_components": [
      {
        "long_name": "Cullaville",
        "short_name": "Cullaville",
        "types": [
          "locality",
          "political"
        ]
      },
      {
        "long_name": "Newry",
        "short_name": "Newry",
        "types": [
          "postal_town"
        ]
      },
      {
        "long_name": "Newry, Mourne and Down",
        "short_name": "Newry, Mourne and Down",
        "types": [
          "administrative_area_level_2",
          "political"
        ]
      },
      {
        "long_name": "Northern Ireland",
        "short_name": "Northern Ireland",
        "types": [
          "administrative_area_level_1",
          "political"
        ]
      },
      {
        "long_name": "United Kingdom",
        "short_name": "GB",
        "types": [
          "country",
          "political"
        ]
      },
      {
        "long_name": "BT35 9AP",
        "short_name": "BT35 9AP",
        "types": [
          "postal_code"
        ]
      }
    ],
    "formatted_address": "Cullaville, Newry BT35 9AP, UK",
    "geometry": {
      "location": {
        "lat": 54.06142,
        "lng": -6.642580000000001
      },
      "location_type": "APPROXIMATE",
      "viewport": {
        "northeast": {
          "lat": 54.0627689802915,
          "lng": -6.641231019708498
        },
        "southwest": {
          "lat": 54.0600710197085,
          "lng": -6.643928980291503
        }
      }
    },
    "place_id": "ChIJryTQ-EG3YEgRU43Kr6EHNL0",
    "types": [
      "locality",
      "political"
    ]
  },
  {
    "area_id": 2197,
    "area_name": "Craigavon",
    "county_name": "Armagh",
    "county_id": 28,
    "address_components": [
      {
        "long_name": "Craigavon",
        "short_name": "Craigavon",
        "types": [
          "colloquial_area",
          "political"
        ]
      },
      {
        "long_name": "Armagh City, Banbridge and Craigavon",
        "short_name": "Armagh City, Banbridge and Craigavon",
        "types": [
          "administrative_area_level_2",
          "political"
        ]
      },
      {
        "long_name": "Northern Ireland",
        "short_name": "Northern Ireland",
        "types": [
          "administrative_area_level_1",
          "political"
        ]
      },
      {
        "long_name": "United Kingdom",
        "short_name": "GB",
        "types": [
          "country",
          "political"
        ]
      }
    ],
    "formatted_address": "Craigavon, UK",
    "geometry": {
      "bounds": {
        "northeast": {
          "lat": 54.5912501,
          "lng": -6.2092601
        },
        "southwest": {
          "lat": 54.3749899,
          "lng": -6.5883
        }
      },
      "location": {
        "lat": 54.450852,
        "lng": -6.3938712
      },
      "location_type": "APPROXIMATE",
      "viewport": {
        "northeast": {
          "lat": 54.5912501,
          "lng": -6.2092601
        },
        "southwest": {
          "lat": 54.3749899,
          "lng": -6.5883
        }
      }
    },
    "place_id": "ChIJZ5s2k4n6YEgR0BotirI_DwM",
    "types": [
      "colloquial_area",
      "political"
    ]
  },
  {
    "area_id": 3476,
    "area_name": "Drumintee",
    "county_name": "Armagh",
    "county_id": 28,
    "address_components": [
      {
        "long_name": "Drumintee",
        "short_name": "Drumintee",
        "types": [
          "locality",
          "political"
        ]
      },
      {
        "long_name": "Newry",
        "short_name": "Newry",
        "types": [
          "postal_town"
        ]
      },
      {
        "long_name": "Newry, Mourne and Down",
        "short_name": "Newry, Mourne and Down",
        "types": [
          "administrative_area_level_2",
          "political"
        ]
      },
      {
        "long_name": "Northern Ireland",
        "short_name": "Northern Ireland",
        "types": [
          "administrative_area_level_1",
          "political"
        ]
      },
      {
        "long_name": "United Kingdom",
        "short_name": "GB",
        "types": [
          "country",
          "political"
        ]
      },
      {
        "long_name": "BT35",
        "short_name": "BT35",
        "types": [
          "postal_code",
          "postal_code_prefix"
        ]
      }
    ],
    "formatted_address": "Drumintee, Newry BT35, UK",
    "geometry": {
      "bounds": {
        "northeast": {
          "lat": 54.10691079999999,
          "lng": -6.408747699999999
        },
        "southwest": {
          "lat": 54.09403529999999,
          "lng": -6.4240963
        }
      },
      "location": {
        "lat": 54.0982499,
        "lng": -6.415649999999999
      },
      "location_type": "APPROXIMATE",
      "viewport": {
        "northeast": {
          "lat": 54.10691079999999,
          "lng": -6.408747699999999
        },
        "southwest": {
          "lat": 54.09403529999999,
          "lng": -6.4240963
        }
      }
    },
    "place_id": "ChIJ6ftSyPLFYEgREDCuObU_Dwo",
    "types": [
      "locality",
      "political"
    ]
  },
  {
    "area_id": 2189,
    "area_name": "Laurelvale",
    "county_name": "Armagh",
    "county_id": 28,
    "address_components": [
      {
        "long_name": "Laurelvale",
        "short_name": "Laurelvale",
        "types": [
          "locality",
          "political"
        ]
      },
      {
        "long_name": "Craigavon",
        "short_name": "Craigavon",
        "types": [
          "postal_town"
        ]
      },
      {
        "long_name": "Armagh City, Banbridge and Craigavon",
        "short_name": "Armagh City, Banbridge and Craigavon",
        "types": [
          "administrative_area_level_2",
          "political"
        ]
      },
      {
        "long_name": "Northern Ireland",
        "short_name": "Northern Ireland",
        "types": [
          "administrative_area_level_1",
          "political"
        ]
      },
      {
        "long_name": "United Kingdom",
        "short_name": "GB",
        "types": [
          "country",
          "political"
        ]
      },
      {
        "long_name": "BT62 2NR",
        "short_name": "BT62 2NR",
        "types": [
          "postal_code"
        ]
      }
    ],
    "formatted_address": "Laurelvale, Craigavon BT62 2NR, UK",
    "geometry": {
      "location": {
        "lat": 54.36904999999999,
        "lng": -6.45241
      },
      "location_type": "APPROXIMATE",
      "viewport": {
        "northeast": {
          "lat": 54.37039898029149,
          "lng": -6.451061019708497
        },
        "southwest": {
          "lat": 54.36770101970849,
          "lng": -6.453758980291502
        }
      }
    },
    "place_id": "ChIJAWIkgiDvYEgR3Km-eDoBOkM",
    "types": [
      "locality",
      "political"
    ]
  },
  {
    "area_id": 2090,
    "area_name": "Charlemont",
    "county_name": "Armagh",
    "county_id": 28,
    "address_components": [
      {
        "long_name": "Charlemont",
        "short_name": "Charlemont",
        "types": [
          "locality",
          "political"
        ]
      },
      {
        "long_name": "Dungannon",
        "short_name": "Dungannon",
        "types": [
          "postal_town"
        ]
      },
      {
        "long_name": "Armagh City, Banbridge and Craigavon",
        "short_name": "Armagh City, Banbridge and Craigavon",
        "types": [
          "administrative_area_level_2",
          "political"
        ]
      },
      {
        "long_name": "Northern Ireland",
        "short_name": "Northern Ireland",
        "types": [
          "administrative_area_level_1",
          "political"
        ]
      },
      {
        "long_name": "United Kingdom",
        "short_name": "GB",
        "types": [
          "country",
          "political"
        ]
      },
      {
        "long_name": "BT71 7SF",
        "short_name": "BT71 7SF",
        "types": [
          "postal_code"
        ]
      }
    ],
    "formatted_address": "Charlemont, Dungannon BT71 7SF, UK",
    "geometry": {
      "location": {
        "lat": 54.44224999999999,
        "lng": -6.68574
      },
      "location_type": "APPROXIMATE",
      "viewport": {
        "northeast": {
          "lat": 54.4435989802915,
          "lng": -6.684391019708498
        },
        "southwest": {
          "lat": 54.4409010197085,
          "lng": -6.687088980291502
        }
      }
    },
    "place_id": "ChIJCzQD32mNYEgRRz3wBicY2bw",
    "types": [
      "locality",
      "political"
    ]
  },
  {
    "area_id": 2194,
    "area_name": "Derrytrasna",
    "county_name": "Armagh",
    "county_id": 28,
    "address_components": [
      {
        "long_name": "Derrytrasna",
        "short_name": "Derrytrasna",
        "types": [
          "locality",
          "political"
        ]
      },
      {
        "long_name": "Craigavon",
        "short_name": "Craigavon",
        "types": [
          "postal_town"
        ]
      },
      {
        "long_name": "Armagh City, Banbridge and Craigavon",
        "short_name": "Armagh City, Banbridge and Craigavon",
        "types": [
          "administrative_area_level_2",
          "political"
        ]
      },
      {
        "long_name": "Northern Ireland",
        "short_name": "Northern Ireland",
        "types": [
          "administrative_area_level_1",
          "political"
        ]
      },
      {
        "long_name": "United Kingdom",
        "short_name": "GB",
        "types": [
          "country",
          "political"
        ]
      },
      {
        "long_name": "BT66 6QU",
        "short_name": "BT66 6QU",
        "types": [
          "postal_code"
        ]
      }
    ],
    "formatted_address": "Derrytrasna, Craigavon BT66 6QU, UK",
    "geometry": {
      "location": {
        "lat": 54.50264,
        "lng": -6.470829999999999
      },
      "location_type": "APPROXIMATE",
      "viewport": {
        "northeast": {
          "lat": 54.5039889802915,
          "lng": -6.469481019708497
        },
        "southwest": {
          "lat": 54.5012910197085,
          "lng": -6.472178980291502
        }
      }
    },
    "place_id": "ChIJy2DoSh7xYEgRQ7LA47HzQgQ",
    "types": [
      "locality",
      "political"
    ]
  },
  {
    "area_id": 3464,
    "area_name": "Crossmaglen",
    "county_name": "Armagh",
    "county_id": 28,
    "address_components": [
      {
        "long_name": "Crossmaglen",
        "short_name": "Crossmaglen",
        "types": [
          "locality",
          "political"
        ]
      },
      {
        "long_name": "Newry",
        "short_name": "Newry",
        "types": [
          "postal_town"
        ]
      },
      {
        "long_name": "Newry, Mourne and Down",
        "short_name": "Newry, Mourne and Down",
        "types": [
          "administrative_area_level_2",
          "political"
        ]
      },
      {
        "long_name": "Northern Ireland",
        "short_name": "Northern Ireland",
        "types": [
          "administrative_area_level_1",
          "political"
        ]
      },
      {
        "long_name": "United Kingdom",
        "short_name": "GB",
        "types": [
          "country",
          "political"
        ]
      },
      {
        "long_name": "BT35",
        "short_name": "BT35",
        "types": [
          "postal_code",
          "postal_code_prefix"
        ]
      }
    ],
    "formatted_address": "Crossmaglen, Newry BT35, UK",
    "geometry": {
      "bounds": {
        "northeast": {
          "lat": 54.0852438,
          "lng": -6.5924147
        },
        "southwest": {
          "lat": 54.0703283,
          "lng": -6.6179193
        }
      },
      "location": {
        "lat": 54.0774066,
        "lng": -6.6087567
      },
      "location_type": "APPROXIMATE",
      "viewport": {
        "northeast": {
          "lat": 54.0852438,
          "lng": -6.5924147
        },
        "southwest": {
          "lat": 54.0703283,
          "lng": -6.6179193
        }
      }
    },
    "place_id": "ChIJgw_QdQm3YEgR9OayMojGx3Y",
    "types": [
      "locality",
      "political"
    ]
  },
  {
    "area_id": 2179,
    "area_name": "Loughgall",
    "county_name": "Armagh",
    "county_id": 28,
    "address_components": [
      {
        "long_name": "Loughgall",
        "short_name": "Loughgall",
        "types": [
          "locality",
          "political"
        ]
      },
      {
        "long_name": "Armagh",
        "short_name": "Armagh",
        "types": [
          "postal_town"
        ]
      },
      {
        "long_name": "Armagh City, Banbridge and Craigavon",
        "short_name": "Armagh City, Banbridge and Craigavon",
        "types": [
          "administrative_area_level_2",
          "political"
        ]
      },
      {
        "long_name": "Northern Ireland",
        "short_name": "Northern Ireland",
        "types": [
          "administrative_area_level_1",
          "political"
        ]
      },
      {
        "long_name": "United Kingdom",
        "short_name": "GB",
        "types": [
          "country",
          "political"
        ]
      },
      {
        "long_name": "BT61",
        "short_name": "BT61",
        "types": [
          "postal_code",
          "postal_code_prefix"
        ]
      }
    ],
    "formatted_address": "Loughgall, Armagh BT61, UK",
    "geometry": {
      "bounds": {
        "northeast": {
          "lat": 54.4155253,
          "lng": -6.5963574
        },
        "southwest": {
          "lat": 54.40506329999999,
          "lng": -6.6150474
        }
      },
      "location": {
        "lat": 54.4093603,
        "lng": -6.6029059
      },
      "location_type": "APPROXIMATE",
      "viewport": {
        "northeast": {
          "lat": 54.4155253,
          "lng": -6.5963574
        },
        "southwest": {
          "lat": 54.40506329999999,
          "lng": -6.6150474
        }
      }
    },
    "place_id": "ChIJidYtVF3tYEgR1ydqfjF3-t4",
    "types": [
      "locality",
      "political"
    ]
  },
  {
    "area_id": 3427,
    "area_name": "Keady",
    "county_name": "Armagh",
    "county_id": 28,
    "address_components": [
      {
        "long_name": "Keady",
        "short_name": "Keady",
        "types": [
          "locality",
          "political"
        ]
      },
      {
        "long_name": "Armagh",
        "short_name": "Armagh",
        "types": [
          "postal_town"
        ]
      },
      {
        "long_name": "Armagh City, Banbridge and Craigavon",
        "short_name": "Armagh City, Banbridge and Craigavon",
        "types": [
          "administrative_area_level_2",
          "political"
        ]
      },
      {
        "long_name": "Northern Ireland",
        "short_name": "Northern Ireland",
        "types": [
          "administrative_area_level_1",
          "political"
        ]
      },
      {
        "long_name": "United Kingdom",
        "short_name": "GB",
        "types": [
          "country",
          "political"
        ]
      },
      {
        "long_name": "BT60",
        "short_name": "BT60",
        "types": [
          "postal_code",
          "postal_code_prefix"
        ]
      }
    ],
    "formatted_address": "Keady, Armagh BT60, UK",
    "geometry": {
      "bounds": {
        "northeast": {
          "lat": 54.2591367,
          "lng": -6.685079
        },
        "southwest": {
          "lat": 54.2415305,
          "lng": -6.7152753
        }
      },
      "location": {
        "lat": 54.2485059,
        "lng": -6.705043099999999
      },
      "location_type": "APPROXIMATE",
      "viewport": {
        "northeast": {
          "lat": 54.2591367,
          "lng": -6.685079
        },
        "southwest": {
          "lat": 54.2415305,
          "lng": -6.7152753
        }
      }
    },
    "place_id": "ChIJAV4RsOuVYEgRnQ059BtAjnI",
    "types": [
      "locality",
      "political"
    ]
  },
  {
    "area_id": 3463,
    "area_name": "Creggan",
    "county_name": "Armagh",
    "county_id": 28,
    "address_components": [
      {
        "long_name": "Creggan",
        "short_name": "Creggan",
        "types": [
          "locality",
          "political"
        ]
      },
      {
        "long_name": "Newry",
        "short_name": "Newry",
        "types": [
          "postal_town"
        ]
      },
      {
        "long_name": "Newry, Mourne and Down",
        "short_name": "Newry, Mourne and Down",
        "types": [
          "administrative_area_level_2",
          "political"
        ]
      },
      {
        "long_name": "Northern Ireland",
        "short_name": "Northern Ireland",
        "types": [
          "administrative_area_level_1",
          "political"
        ]
      },
      {
        "long_name": "United Kingdom",
        "short_name": "GB",
        "types": [
          "country",
          "political"
        ]
      },
      {
        "long_name": "BT35 9DR",
        "short_name": "BT35 9DR",
        "types": [
          "postal_code"
        ]
      }
    ],
    "formatted_address": "Creggan, Newry BT35 9DR, UK",
    "geometry": {
      "location": {
        "lat": 54.08600939999999,
        "lng": -6.5754306
      },
      "location_type": "APPROXIMATE",
      "viewport": {
        "northeast": {
          "lat": 54.08735838029149,
          "lng": -6.574081619708497
        },
        "southwest": {
          "lat": 54.08466041970849,
          "lng": -6.576779580291502
        }
      }
    },
    "place_id": "ChIJv0ATjAS4YEgRJp_1j_30rPQ",
    "types": [
      "locality",
      "political"
    ]
  },
  {
    "area_id": 1878,
    "area_name": "Helen's Bay",
    "county_name": "Armagh",
    "county_id": 28,
    "address_components": [
      {
        "long_name": "Armagh",
        "short_name": "Armagh",
        "types": [
          "locality",
          "political"
        ]
      },
      {
        "long_name": "Armagh",
        "short_name": "Armagh",
        "types": [
          "postal_town"
        ]
      },
      {
        "long_name": "Armagh City, Banbridge and Craigavon",
        "short_name": "Armagh City, Banbridge and Craigavon",
        "types": [
          "administrative_area_level_2",
          "political"
        ]
      },
      {
        "long_name": "Northern Ireland",
        "short_name": "Northern Ireland",
        "types": [
          "administrative_area_level_1",
          "political"
        ]
      },
      {
        "long_name": "United Kingdom",
        "short_name": "GB",
        "types": [
          "country",
          "political"
        ]
      }
    ],
    "formatted_address": "Armagh, UK",
    "geometry": {
      "bounds": {
        "northeast": {
          "lat": 54.36631999999999,
          "lng": -6.62102
        },
        "southwest": {
          "lat": 54.32772000000001,
          "lng": -6.6760899
        }
      },
      "location": {
        "lat": 54.3502798,
        "lng": -6.652792
      },
      "location_type": "APPROXIMATE",
      "viewport": {
        "northeast": {
          "lat": 54.36631999999999,
          "lng": -6.62102
        },
        "southwest": {
          "lat": 54.32772000000001,
          "lng": -6.6760899
        }
      }
    },
    "partial_match": true,
    "place_id": "ChIJjRbLfVWNYEgRSBjJzX1jLrk",
    "types": [
      "locality",
      "political"
    ]
  },
  {
    "area_id": 4171,
    "area_name": "Knocknashane",
    "county_name": "Armagh",
    "county_id": 28,
    "address_components": [
      {
        "long_name": "Knocknashane Meadows",
        "short_name": "Knocknashane Meadows",
        "types": [
          "route"
        ]
      },
      {
        "long_name": "Lurgan",
        "short_name": "Lurgan",
        "types": [
          "locality",
          "political"
        ]
      },
      {
        "long_name": "Craigavon",
        "short_name": "Craigavon",
        "types": [
          "postal_town"
        ]
      },
      {
        "long_name": "Armagh City, Banbridge and Craigavon",
        "short_name": "Armagh City, Banbridge and Craigavon",
        "types": [
          "administrative_area_level_2",
          "political"
        ]
      },
      {
        "long_name": "Northern Ireland",
        "short_name": "Northern Ireland",
        "types": [
          "administrative_area_level_1",
          "political"
        ]
      },
      {
        "long_name": "United Kingdom",
        "short_name": "GB",
        "types": [
          "country",
          "political"
        ]
      },
      {
        "long_name": "BT66",
        "short_name": "BT66",
        "types": [
          "postal_code",
          "postal_code_prefix"
        ]
      }
    ],
    "formatted_address": "Knocknashane Meadows, Lurgan, Craigavon BT66, UK",
    "geometry": {
      "bounds": {
        "northeast": {
          "lat": 54.449166,
          "lng": -6.3108204
        },
        "southwest": {
          "lat": 54.4478702,
          "lng": -6.3118143
        }
      },
      "location": {
        "lat": 54.4485138,
        "lng": -6.3115293
      },
      "location_type": "GEOMETRIC_CENTER",
      "viewport": {
        "northeast": {
          "lat": 54.4498670802915,
          "lng": -6.309968369708498
        },
        "southwest": {
          "lat": 54.4471691197085,
          "lng": -6.312666330291502
        }
      }
    },
    "place_id": "ChIJZyyiu037YEgR1D2ZnAx7gkA",
    "types": [
      "route"
    ]
  },
  {
    "area_id": 2183,
    "area_name": "Kilmore",
    "county_name": "Armagh",
    "county_id": 28,
    "address_components": [
      {
        "long_name": "Kilmore",
        "short_name": "Kilmore",
        "types": [
          "locality",
          "political"
        ]
      },
      {
        "long_name": "Armagh",
        "short_name": "Armagh",
        "types": [
          "postal_town"
        ]
      },
      {
        "long_name": "Armagh City, Banbridge and Craigavon",
        "short_name": "Armagh City, Banbridge and Craigavon",
        "types": [
          "administrative_area_level_2",
          "political"
        ]
      },
      {
        "long_name": "Northern Ireland",
        "short_name": "Northern Ireland",
        "types": [
          "administrative_area_level_1",
          "political"
        ]
      },
      {
        "long_name": "United Kingdom",
        "short_name": "GB",
        "types": [
          "country",
          "political"
        ]
      },
      {
        "long_name": "BT61 8PA",
        "short_name": "BT61 8PA",
        "types": [
          "postal_code"
        ]
      }
    ],
    "formatted_address": "Kilmore, Armagh BT61 8PA, UK",
    "geometry": {
      "location": {
        "lat": 54.39872,
        "lng": -6.5472
      },
      "location_type": "APPROXIMATE",
      "viewport": {
        "northeast": {
          "lat": 54.40006898029149,
          "lng": -6.545851019708498
        },
        "southwest": {
          "lat": 54.39737101970849,
          "lng": -6.548548980291502
        }
      }
    },
    "place_id": "ChIJ6X3m75TtYEgRZXe-sH9YDko",
    "types": [
      "locality",
      "political"
    ]
  },
  {
    "area_id": 3445,
    "area_name": "Clady Milltown",
    "county_name": "Armagh",
    "county_id": 28,
    "address_components": [
      {
        "long_name": "Clady Milltown",
        "short_name": "Clady Milltown",
        "types": [
          "locality",
          "political"
        ]
      },
      {
        "long_name": "Armagh",
        "short_name": "Armagh",
        "types": [
          "postal_town"
        ]
      },
      {
        "long_name": "Armagh City, Banbridge and Craigavon",
        "short_name": "Armagh City, Banbridge and Craigavon",
        "types": [
          "administrative_area_level_2",
          "political"
        ]
      },
      {
        "long_name": "Northern Ireland",
        "short_name": "Northern Ireland",
        "types": [
          "administrative_area_level_1",
          "political"
        ]
      },
      {
        "long_name": "United Kingdom",
        "short_name": "GB",
        "types": [
          "country",
          "political"
        ]
      },
      {
        "long_name": "BT60 2EF",
        "short_name": "BT60 2EF",
        "types": [
          "postal_code"
        ]
      }
    ],
    "formatted_address": "Clady Milltown, Armagh BT60 2EF, UK",
    "geometry": {
      "location": {
        "lat": 54.26361,
        "lng": -6.53071
      },
      "location_type": "APPROXIMATE",
      "viewport": {
        "northeast": {
          "lat": 54.2649589802915,
          "lng": -6.529361019708498
        },
        "southwest": {
          "lat": 54.2622610197085,
          "lng": -6.532058980291502
        }
      }
    },
    "place_id": "ChIJlZsOLXrqYEgRPFKZ5WrhoTM",
    "types": [
      "locality",
      "political"
    ]
  },
  {
    "area_id": 3475,
    "area_name": "Forkill",
    "county_name": "Armagh",
    "county_id": 28,
    "address_components": [
      {
        "long_name": "Forkhill",
        "short_name": "Forkhill",
        "types": [
          "locality",
          "political"
        ]
      },
      {
        "long_name": "Newry",
        "short_name": "Newry",
        "types": [
          "postal_town"
        ]
      },
      {
        "long_name": "Newry, Mourne and Down",
        "short_name": "Newry, Mourne and Down",
        "types": [
          "administrative_area_level_2",
          "political"
        ]
      },
      {
        "long_name": "Northern Ireland",
        "short_name": "Northern Ireland",
        "types": [
          "administrative_area_level_1",
          "political"
        ]
      },
      {
        "long_name": "United Kingdom",
        "short_name": "GB",
        "types": [
          "country",
          "political"
        ]
      },
      {
        "long_name": "BT35",
        "short_name": "BT35",
        "types": [
          "postal_code",
          "postal_code_prefix"
        ]
      }
    ],
    "formatted_address": "Forkhill, Newry BT35, UK",
    "geometry": {
      "bounds": {
        "northeast": {
          "lat": 54.087422,
          "lng": -6.4432672
        },
        "southwest": {
          "lat": 54.0747183,
          "lng": -6.4606952
        }
      },
      "location": {
        "lat": 54.08262,
        "lng": -6.448939999999999
      },
      "location_type": "APPROXIMATE",
      "viewport": {
        "northeast": {
          "lat": 54.087422,
          "lng": -6.4432672
        },
        "southwest": {
          "lat": 54.0747183,
          "lng": -6.4606952
        }
      }
    },
    "place_id": "ChIJXQeGJajIYEgR4AtLUsjdTzI",
    "types": [
      "locality",
      "political"
    ]
  },
  {
    "area_id": 2083,
    "area_name": "Killylea",
    "county_name": "Armagh",
    "county_id": 28,
    "address_components": [
      {
        "long_name": "Killylea",
        "short_name": "Killylea",
        "types": [
          "locality",
          "political"
        ]
      },
      {
        "long_name": "Armagh",
        "short_name": "Armagh",
        "types": [
          "postal_town"
        ]
      },
      {
        "long_name": "Armagh City, Banbridge and Craigavon",
        "short_name": "Armagh City, Banbridge and Craigavon",
        "types": [
          "administrative_area_level_2",
          "political"
        ]
      },
      {
        "long_name": "Northern Ireland",
        "short_name": "Northern Ireland",
        "types": [
          "administrative_area_level_1",
          "political"
        ]
      },
      {
        "long_name": "United Kingdom",
        "short_name": "GB",
        "types": [
          "country",
          "political"
        ]
      },
      {
        "long_name": "BT60",
        "short_name": "BT60",
        "types": [
          "postal_code",
          "postal_code_prefix"
        ]
      }
    ],
    "formatted_address": "Killylea, Armagh BT60, UK",
    "geometry": {
      "bounds": {
        "northeast": {
          "lat": 54.3490558,
          "lng": -6.7725677
        },
        "southwest": {
          "lat": 54.3427611,
          "lng": -6.7822246
        }
      },
      "location": {
        "lat": 54.34628,
        "lng": -6.7758099
      },
      "location_type": "APPROXIMATE",
      "viewport": {
        "northeast": {
          "lat": 54.3490558,
          "lng": -6.7725677
        },
        "southwest": {
          "lat": 54.3427611,
          "lng": -6.7822246
        }
      }
    },
    "place_id": "ChIJMyWhuTuRYEgRAEKuObU_Dwo",
    "types": [
      "locality",
      "political"
    ]
  },
  {
    "area_id": 3473,
    "area_name": "Lislea",
    "county_name": "Armagh",
    "county_id": 28,
    "address_components": [
      {
        "long_name": "Lislea",
        "short_name": "Lislea",
        "types": [
          "locality",
          "political"
        ]
      },
      {
        "long_name": "Newry",
        "short_name": "Newry",
        "types": [
          "postal_town"
        ]
      },
      {
        "long_name": "Newry, Mourne and Down",
        "short_name": "Newry, Mourne and Down",
        "types": [
          "administrative_area_level_2",
          "political"
        ]
      },
      {
        "long_name": "Northern Ireland",
        "short_name": "Northern Ireland",
        "types": [
          "administrative_area_level_1",
          "political"
        ]
      },
      {
        "long_name": "United Kingdom",
        "short_name": "GB",
        "types": [
          "country",
          "political"
        ]
      },
      {
        "long_name": "BT35 9JZ",
        "short_name": "BT35 9JZ",
        "types": [
          "postal_code"
        ]
      }
    ],
    "formatted_address": "Lislea, Newry BT35 9JZ, UK",
    "geometry": {
      "location": {
        "lat": 54.15611999999999,
        "lng": -6.45981
      },
      "location_type": "APPROXIMATE",
      "viewport": {
        "northeast": {
          "lat": 54.1574689802915,
          "lng": -6.458461019708498
        },
        "southwest": {
          "lat": 54.1547710197085,
          "lng": -6.461158980291502
        }
      }
    },
    "place_id": "ChIJww1d6x3EYEgRsE-uObU_Dwo",
    "types": [
      "locality",
      "political"
    ]
  },
  {
    "area_id": 3443,
    "area_name": "Markethill",
    "county_name": "Armagh",
    "county_id": 28,
    "address_components": [
      {
        "long_name": "Markethill",
        "short_name": "Markethill",
        "types": [
          "locality",
          "political"
        ]
      },
      {
        "long_name": "Armagh",
        "short_name": "Armagh",
        "types": [
          "postal_town"
        ]
      },
      {
        "long_name": "Armagh City, Banbridge and Craigavon",
        "short_name": "Armagh City, Banbridge and Craigavon",
        "types": [
          "administrative_area_level_2",
          "political"
        ]
      },
      {
        "long_name": "Northern Ireland",
        "short_name": "Northern Ireland",
        "types": [
          "administrative_area_level_1",
          "political"
        ]
      },
      {
        "long_name": "United Kingdom",
        "short_name": "GB",
        "types": [
          "country",
          "political"
        ]
      },
      {
        "long_name": "BT60",
        "short_name": "BT60",
        "types": [
          "postal_code",
          "postal_code_prefix"
        ]
      }
    ],
    "formatted_address": "Markethill, Armagh BT60, UK",
    "geometry": {
      "bounds": {
        "northeast": {
          "lat": 54.3025278,
          "lng": -6.5044785
        },
        "southwest": {
          "lat": 54.282328,
          "lng": -6.540752599999999
        }
      },
      "location": {
        "lat": 54.2969635,
        "lng": -6.5217383
      },
      "location_type": "APPROXIMATE",
      "viewport": {
        "northeast": {
          "lat": 54.3025278,
          "lng": -6.5044785
        },
        "southwest": {
          "lat": 54.282328,
          "lng": -6.540752599999999
        }
      }
    },
    "place_id": "ChIJh7BRTqeUYEgRESWQOCEOQ3Y",
    "types": [
      "locality",
      "political"
    ]
  },
  {
    "area_id": 3478,
    "area_name": "Killevy",
    "county_name": "Armagh",
    "county_id": 28,
    "address_components": [
      {
        "long_name": "Killeavy",
        "short_name": "Killeavy",
        "types": [
          "locality",
          "political"
        ]
      },
      {
        "long_name": "Newry",
        "short_name": "Newry",
        "types": [
          "postal_town"
        ]
      },
      {
        "long_name": "Newry, Mourne and Down",
        "short_name": "Newry, Mourne and Down",
        "types": [
          "administrative_area_level_2",
          "political"
        ]
      },
      {
        "long_name": "Northern Ireland",
        "short_name": "Northern Ireland",
        "types": [
          "administrative_area_level_1",
          "political"
        ]
      },
      {
        "long_name": "United Kingdom",
        "short_name": "GB",
        "types": [
          "country",
          "political"
        ]
      },
      {
        "long_name": "BT35 8SN",
        "short_name": "BT35 8SN",
        "types": [
          "postal_code"
        ]
      }
    ],
    "formatted_address": "Killeavy, Newry BT35 8SN, UK",
    "geometry": {
      "location": {
        "lat": 54.1142038,
        "lng": -6.4007798
      },
      "location_type": "APPROXIMATE",
      "viewport": {
        "northeast": {
          "lat": 54.11555278029149,
          "lng": -6.399430819708497
        },
        "southwest": {
          "lat": 54.1128548197085,
          "lng": -6.402128780291502
        }
      }
    },
    "place_id": "ChIJZWpiG6PFYEgRaXlJtd07rzI",
    "types": [
      "locality",
      "political"
    ]
  },
  {
    "area_id": 2200,
    "area_name": "Tandragee",
    "county_name": "Armagh",
    "county_id": 28,
    "address_components": [
      {
        "long_name": "Tandragee",
        "short_name": "Tandragee",
        "types": [
          "locality",
          "political"
        ]
      },
      {
        "long_name": "Craigavon",
        "short_name": "Craigavon",
        "types": [
          "postal_town"
        ]
      },
      {
        "long_name": "Armagh City, Banbridge and Craigavon",
        "short_name": "Armagh City, Banbridge and Craigavon",
        "types": [
          "administrative_area_level_2",
          "political"
        ]
      },
      {
        "long_name": "Northern Ireland",
        "short_name": "Northern Ireland",
        "types": [
          "administrative_area_level_1",
          "political"
        ]
      },
      {
        "long_name": "United Kingdom",
        "short_name": "GB",
        "types": [
          "country",
          "political"
        ]
      },
      {
        "long_name": "BT62",
        "short_name": "BT62",
        "types": [
          "postal_code",
          "postal_code_prefix"
        ]
      }
    ],
    "formatted_address": "Tandragee, Craigavon BT62, UK",
    "geometry": {
      "bounds": {
        "northeast": {
          "lat": 54.362689,
          "lng": -6.3982467
        },
        "southwest": {
          "lat": 54.3486953,
          "lng": -6.4240518
        }
      },
      "location": {
        "lat": 54.3561049,
        "lng": -6.4147568
      },
      "location_type": "APPROXIMATE",
      "viewport": {
        "northeast": {
          "lat": 54.362689,
          "lng": -6.3982467
        },
        "southwest": {
          "lat": 54.3486953,
          "lng": -6.4240518
        }
      }
    },
    "place_id": "ChIJPdb49_nlYEgRUy7bbRxGPks",
    "types": [
      "locality",
      "political"
    ]
  },
  {
    "area_id": 3461,
    "area_name": "Tullymacreeve",
    "county_name": "Armagh",
    "county_id": 28,
    "address_components": [
      {
        "long_name": "Tullymacreeve Road",
        "short_name": "Tullymacreeve Rd",
        "types": [
          "route"
        ]
      },
      {
        "long_name": "Newry",
        "short_name": "Newry",
        "types": [
          "postal_town"
        ]
      },
      {
        "long_name": "Newry, Mourne and Down",
        "short_name": "Newry, Mourne and Down",
        "types": [
          "administrative_area_level_2",
          "political"
        ]
      },
      {
        "long_name": "Northern Ireland",
        "short_name": "Northern Ireland",
        "types": [
          "administrative_area_level_1",
          "political"
        ]
      },
      {
        "long_name": "United Kingdom",
        "short_name": "GB",
        "types": [
          "country",
          "political"
        ]
      },
      {
        "long_name": "BT35",
        "short_name": "BT35",
        "types": [
          "postal_code",
          "postal_code_prefix"
        ]
      }
    ],
    "formatted_address": "Tullymacreeve Rd, Newry BT35, UK",
    "geometry": {
      "bounds": {
        "northeast": {
          "lat": 54.1305292,
          "lng": -6.481182599999999
        },
        "southwest": {
          "lat": 54.1094952,
          "lng": -6.5031748
        }
      },
      "location": {
        "lat": 54.1186134,
        "lng": -6.4938986
      },
      "location_type": "GEOMETRIC_CENTER",
      "viewport": {
        "northeast": {
          "lat": 54.1305292,
          "lng": -6.481182599999999
        },
        "southwest": {
          "lat": 54.1094952,
          "lng": -6.5031748
        }
      }
    },
    "place_id": "ChIJ8fsVklrGYEgRe_955piyhYM",
    "types": [
      "route"
    ]
  },
  {
    "area_id": 4176,
    "area_name": "Killycomain",
    "county_name": "Armagh",
    "county_id": 28,
    "address_components": [
      {
        "long_name": "Killycomain Drive",
        "short_name": "Killycomain Dr",
        "types": [
          "route"
        ]
      },
      {
        "long_name": "Craigavon",
        "short_name": "Craigavon",
        "types": [
          "postal_town"
        ]
      },
      {
        "long_name": "Armagh City, Banbridge and Craigavon",
        "short_name": "Armagh City, Banbridge and Craigavon",
        "types": [
          "administrative_area_level_2",
          "political"
        ]
      },
      {
        "long_name": "Northern Ireland",
        "short_name": "Northern Ireland",
        "types": [
          "administrative_area_level_1",
          "political"
        ]
      },
      {
        "long_name": "United Kingdom",
        "short_name": "GB",
        "types": [
          "country",
          "political"
        ]
      },
      {
        "long_name": "BT63",
        "short_name": "BT63",
        "types": [
          "postal_code",
          "postal_code_prefix"
        ]
      }
    ],
    "formatted_address": "Killycomain Dr, Craigavon BT63, UK",
    "geometry": {
      "bounds": {
        "northeast": {
          "lat": 54.4283052,
          "lng": -6.4136795
        },
        "southwest": {
          "lat": 54.422976,
          "lng": -6.418124499999999
        }
      },
      "location": {
        "lat": 54.4258814,
        "lng": -6.415636
      },
      "location_type": "GEOMETRIC_CENTER",
      "viewport": {
        "northeast": {
          "lat": 54.4283052,
          "lng": -6.4136795
        },
        "southwest": {
          "lat": 54.422976,
          "lng": -6.418124499999999
        }
      }
    },
    "place_id": "ChIJYa9__fDvYEgRp6C8nQKsPC4",
    "types": [
      "route"
    ]
  },
  {
    "area_id": 2168,
    "area_name": "Magher",
    "county_name": "Armagh",
    "county_id": 28,
    "address_components": [
      {
        "long_name": "Armagh",
        "short_name": "Armagh",
        "types": [
          "locality",
          "political"
        ]
      },
      {
        "long_name": "Armagh",
        "short_name": "Armagh",
        "types": [
          "postal_town"
        ]
      },
      {
        "long_name": "Armagh City, Banbridge and Craigavon",
        "short_name": "Armagh City, Banbridge and Craigavon",
        "types": [
          "administrative_area_level_2",
          "political"
        ]
      },
      {
        "long_name": "Northern Ireland",
        "short_name": "Northern Ireland",
        "types": [
          "administrative_area_level_1",
          "political"
        ]
      },
      {
        "long_name": "United Kingdom",
        "short_name": "GB",
        "types": [
          "country",
          "political"
        ]
      }
    ],
    "formatted_address": "Armagh, UK",
    "geometry": {
      "bounds": {
        "northeast": {
          "lat": 54.36631999999999,
          "lng": -6.62102
        },
        "southwest": {
          "lat": 54.32772000000001,
          "lng": -6.6760899
        }
      },
      "location": {
        "lat": 54.3502798,
        "lng": -6.652792
      },
      "location_type": "APPROXIMATE",
      "viewport": {
        "northeast": {
          "lat": 54.36631999999999,
          "lng": -6.62102
        },
        "southwest": {
          "lat": 54.32772000000001,
          "lng": -6.6760899
        }
      }
    },
    "partial_match": true,
    "place_id": "ChIJjRbLfVWNYEgRSBjJzX1jLrk",
    "types": [
      "locality",
      "political"
    ]
  },
  {
    "area_id": 3424,
    "area_name": "Milford",
    "county_name": "Armagh",
    "county_id": 28,
    "address_components": [
      {
        "long_name": "Milford",
        "short_name": "Milford",
        "types": [
          "locality",
          "political"
        ]
      },
      {
        "long_name": "Armagh",
        "short_name": "Armagh",
        "types": [
          "postal_town"
        ]
      },
      {
        "long_name": "Armagh City, Banbridge and Craigavon",
        "short_name": "Armagh City, Banbridge and Craigavon",
        "types": [
          "administrative_area_level_2",
          "political"
        ]
      },
      {
        "long_name": "Northern Ireland",
        "short_name": "Northern Ireland",
        "types": [
          "administrative_area_level_1",
          "political"
        ]
      },
      {
        "long_name": "United Kingdom",
        "short_name": "GB",
        "types": [
          "country",
          "political"
        ]
      },
      {
        "long_name": "BT60",
        "short_name": "BT60",
        "types": [
          "postal_code",
          "postal_code_prefix"
        ]
      }
    ],
    "formatted_address": "Milford, Armagh BT60, UK",
    "geometry": {
      "bounds": {
        "northeast": {
          "lat": 54.3355347,
          "lng": -6.677527599999999
        },
        "southwest": {
          "lat": 54.3262228,
          "lng": -6.691571799999999
        }
      },
      "location": {
        "lat": 54.33472,
        "lng": -6.681159999999999
      },
      "location_type": "APPROXIMATE",
      "viewport": {
        "northeast": {
          "lat": 54.3355347,
          "lng": -6.677527599999999
        },
        "southwest": {
          "lat": 54.3262228,
          "lng": -6.691571799999999
        }
      }
    },
    "place_id": "ChIJFzl9fgWUYEgRGOU8jio5hSg",
    "types": [
      "locality",
      "political"
    ]
  },
  {
    "area_id": 4202,
    "area_name": "Meigh",
    "county_name": "Armagh",
    "county_id": 28,
    "address_components": [
      {
        "long_name": "Meigh",
        "short_name": "Meigh",
        "types": [
          "locality",
          "political"
        ]
      },
      {
        "long_name": "Newry",
        "short_name": "Newry",
        "types": [
          "postal_town"
        ]
      },
      {
        "long_name": "Newry, Mourne and Down",
        "short_name": "Newry, Mourne and Down",
        "types": [
          "administrative_area_level_2",
          "political"
        ]
      },
      {
        "long_name": "Northern Ireland",
        "short_name": "Northern Ireland",
        "types": [
          "administrative_area_level_1",
          "political"
        ]
      },
      {
        "long_name": "United Kingdom",
        "short_name": "GB",
        "types": [
          "country",
          "political"
        ]
      },
      {
        "long_name": "BT35",
        "short_name": "BT35",
        "types": [
          "postal_code",
          "postal_code_prefix"
        ]
      }
    ],
    "formatted_address": "Meigh, Newry BT35, UK",
    "geometry": {
      "bounds": {
        "northeast": {
          "lat": 54.13017379999999,
          "lng": -6.3796763
        },
        "southwest": {
          "lat": 54.1158197,
          "lng": -6.3959931
        }
      },
      "location": {
        "lat": 54.122474,
        "lng": -6.3888735
      },
      "location_type": "APPROXIMATE",
      "viewport": {
        "northeast": {
          "lat": 54.13017379999999,
          "lng": -6.3796763
        },
        "southwest": {
          "lat": 54.1158197,
          "lng": -6.3959931
        }
      }
    },
    "place_id": "ChIJYxJvEAjFYEgRwCquObU_Dwo",
    "types": [
      "locality",
      "political"
    ]
  },
  {
    "area_id": 3474,
    "area_name": "Mullaghbane",
    "county_name": "Armagh",
    "county_id": 28,
    "address_components": [
      {
        "long_name": "Mullaghbawn",
        "short_name": "Mullaghbawn",
        "types": [
          "locality",
          "political"
        ]
      },
      {
        "long_name": "Newry",
        "short_name": "Newry",
        "types": [
          "postal_town"
        ]
      },
      {
        "long_name": "Newry, Mourne and Down",
        "short_name": "Newry, Mourne and Down",
        "types": [
          "administrative_area_level_2",
          "political"
        ]
      },
      {
        "long_name": "Northern Ireland",
        "short_name": "Northern Ireland",
        "types": [
          "administrative_area_level_1",
          "political"
        ]
      },
      {
        "long_name": "United Kingdom",
        "short_name": "GB",
        "types": [
          "country",
          "political"
        ]
      },
      {
        "long_name": "BT35",
        "short_name": "BT35",
        "types": [
          "postal_code",
          "postal_code_prefix"
        ]
      }
    ],
    "formatted_address": "Mullaghbawn, Newry BT35, UK",
    "geometry": {
      "bounds": {
        "northeast": {
          "lat": 54.1130648,
          "lng": -6.4703179
        },
        "southwest": {
          "lat": 54.101391,
          "lng": -6.4858094
        }
      },
      "location": {
        "lat": 54.10808,
        "lng": -6.4778601
      },
      "location_type": "APPROXIMATE",
      "viewport": {
        "northeast": {
          "lat": 54.1130648,
          "lng": -6.4703179
        },
        "southwest": {
          "lat": 54.101391,
          "lng": -6.4858094
        }
      }
    },
    "place_id": "ChIJe5ypPzfGYEgRwnY8vLM_DyY",
    "types": [
      "locality",
      "political"
    ]
  },
  {
    "area_id": 2184,
    "area_name": "Richhill",
    "county_name": "Armagh",
    "county_id": 28,
    "address_components": [
      {
        "long_name": "Richhill",
        "short_name": "Richhill",
        "types": [
          "locality",
          "political"
        ]
      },
      {
        "long_name": "Armagh",
        "short_name": "Armagh",
        "types": [
          "postal_town"
        ]
      },
      {
        "long_name": "Armagh City, Banbridge and Craigavon",
        "short_name": "Armagh City, Banbridge and Craigavon",
        "types": [
          "administrative_area_level_2",
          "political"
        ]
      },
      {
        "long_name": "Northern Ireland",
        "short_name": "Northern Ireland",
        "types": [
          "administrative_area_level_1",
          "political"
        ]
      },
      {
        "long_name": "United Kingdom",
        "short_name": "GB",
        "types": [
          "country",
          "political"
        ]
      },
      {
        "long_name": "BT61",
        "short_name": "BT61",
        "types": [
          "postal_code",
          "postal_code_prefix"
        ]
      }
    ],
    "formatted_address": "Richhill, Armagh BT61, UK",
    "geometry": {
      "bounds": {
        "northeast": {
          "lat": 54.3796083,
          "lng": -6.5411974
        },
        "southwest": {
          "lat": 54.3644347,
          "lng": -6.561648099999999
        }
      },
      "location": {
        "lat": 54.3718251,
        "lng": -6.5513049
      },
      "location_type": "APPROXIMATE",
      "viewport": {
        "northeast": {
          "lat": 54.3796083,
          "lng": -6.5411974
        },
        "southwest": {
          "lat": 54.3644347,
          "lng": -6.561648099999999
        }
      }
    },
    "place_id": "ChIJZzPpHEDsYEgRQy_yN311edk",
    "types": [
      "locality",
      "political"
    ]
  },
  {
    "area_id": 3428,
    "area_name": "Tassagh",
    "county_name": "Armagh",
    "county_id": 28,
    "address_components": [
      {
        "long_name": "Tassagh",
        "short_name": "Tassagh",
        "types": [
          "locality",
          "political"
        ]
      },
      {
        "long_name": "Armagh",
        "short_name": "Armagh",
        "types": [
          "postal_town"
        ]
      },
      {
        "long_name": "Armagh City, Banbridge and Craigavon",
        "short_name": "Armagh City, Banbridge and Craigavon",
        "types": [
          "administrative_area_level_2",
          "political"
        ]
      },
      {
        "long_name": "Northern Ireland",
        "short_name": "Northern Ireland",
        "types": [
          "administrative_area_level_1",
          "political"
        ]
      },
      {
        "long_name": "United Kingdom",
        "short_name": "GB",
        "types": [
          "country",
          "political"
        ]
      },
      {
        "long_name": "BT60 2QF",
        "short_name": "BT60 2QF",
        "types": [
          "postal_code"
        ]
      }
    ],
    "formatted_address": "Tassagh, Armagh BT60 2QF, UK",
    "geometry": {
      "location": {
        "lat": 54.2650175,
        "lng": -6.666250199999999
      },
      "location_type": "APPROXIMATE",
      "viewport": {
        "northeast": {
          "lat": 54.2663664802915,
          "lng": -6.664901219708497
        },
        "southwest": {
          "lat": 54.2636685197085,
          "lng": -6.667599180291502
        }
      }
    },
    "place_id": "ChIJBV-fpCe-YEgRT6MwwAC1qmQ",
    "types": [
      "locality",
      "political"
    ]
  },
  {
    "area_id": 3458,
    "area_name": "Poyntz pass",
    "county_name": "Armagh",
    "county_id": 28,
    "address_components": [
      {
        "long_name": "Poyntzpass",
        "short_name": "Poyntzpass",
        "types": [
          "locality",
          "political"
        ]
      },
      {
        "long_name": "Newry",
        "short_name": "Newry",
        "types": [
          "postal_town"
        ]
      },
      {
        "long_name": "Armagh City, Banbridge and Craigavon",
        "short_name": "Armagh City, Banbridge and Craigavon",
        "types": [
          "administrative_area_level_2",
          "political"
        ]
      },
      {
        "long_name": "Northern Ireland",
        "short_name": "Northern Ireland",
        "types": [
          "administrative_area_level_1",
          "political"
        ]
      },
      {
        "long_name": "United Kingdom",
        "short_name": "GB",
        "types": [
          "country",
          "political"
        ]
      },
      {
        "long_name": "BT35",
        "short_name": "BT35",
        "types": [
          "postal_code",
          "postal_code_prefix"
        ]
      }
    ],
    "formatted_address": "Poyntzpass, Newry BT35, UK",
    "geometry": {
      "bounds": {
        "northeast": {
          "lat": 54.297751,
          "lng": -6.3627936
        },
        "southwest": {
          "lat": 54.2887966,
          "lng": -6.3815781
        }
      },
      "location": {
        "lat": 54.29324339999999,
        "lng": -6.375139300000001
      },
      "location_type": "APPROXIMATE",
      "viewport": {
        "northeast": {
          "lat": 54.297751,
          "lng": -6.3627936
        },
        "southwest": {
          "lat": 54.2887966,
          "lng": -6.3815781
        }
      }
    },
    "place_id": "ChIJQ3dJ44LCYEgRunyXYt1nj7s",
    "types": [
      "locality",
      "political"
    ]
  },
  {
    "area_id": 3423,
    "area_name": "Tynan",
    "county_name": "Armagh",
    "county_id": 28,
    "address_components": [
      {
        "long_name": "Tynan",
        "short_name": "Tynan",
        "types": [
          "locality",
          "political"
        ]
      },
      {
        "long_name": "Armagh",
        "short_name": "Armagh",
        "types": [
          "postal_town"
        ]
      },
      {
        "long_name": "Armagh City, Banbridge and Craigavon",
        "short_name": "Armagh City, Banbridge and Craigavon",
        "types": [
          "administrative_area_level_2",
          "political"
        ]
      },
      {
        "long_name": "Northern Ireland",
        "short_name": "Northern Ireland",
        "types": [
          "administrative_area_level_1",
          "political"
        ]
      },
      {
        "long_name": "United Kingdom",
        "short_name": "GB",
        "types": [
          "country",
          "political"
        ]
      },
      {
        "long_name": "BT60 4QT",
        "short_name": "BT60 4QT",
        "types": [
          "postal_code"
        ]
      }
    ],
    "formatted_address": "Tynan, Armagh BT60 4QT, UK",
    "geometry": {
      "location": {
        "lat": 54.32999,
        "lng": -6.82263
      },
      "location_type": "APPROXIMATE",
      "viewport": {
        "northeast": {
          "lat": 54.3313389802915,
          "lng": -6.821281019708499
        },
        "southwest": {
          "lat": 54.3286410197085,
          "lng": -6.823978980291503
        }
      }
    },
    "place_id": "ChIJAUPBVjeXYEgRTeFBtZv0oHo",
    "types": [
      "locality",
      "political"
    ]
  },
  {
    "area_id": 4168,
    "area_name": "Parklake",
    "county_name": "Armagh",
    "county_id": 28,
    "address_components": [
      {
        "long_name": "Armagh",
        "short_name": "Armagh",
        "types": [
          "locality",
          "political"
        ]
      },
      {
        "long_name": "Armagh",
        "short_name": "Armagh",
        "types": [
          "postal_town"
        ]
      },
      {
        "long_name": "Armagh City, Banbridge and Craigavon",
        "short_name": "Armagh City, Banbridge and Craigavon",
        "types": [
          "administrative_area_level_2",
          "political"
        ]
      },
      {
        "long_name": "Northern Ireland",
        "short_name": "Northern Ireland",
        "types": [
          "administrative_area_level_1",
          "political"
        ]
      },
      {
        "long_name": "United Kingdom",
        "short_name": "GB",
        "types": [
          "country",
          "political"
        ]
      }
    ],
    "formatted_address": "Armagh, UK",
    "geometry": {
      "bounds": {
        "northeast": {
          "lat": 54.36631999999999,
          "lng": -6.62102
        },
        "southwest": {
          "lat": 54.32772000000001,
          "lng": -6.6760899
        }
      },
      "location": {
        "lat": 54.3502798,
        "lng": -6.652792
      },
      "location_type": "APPROXIMATE",
      "viewport": {
        "northeast": {
          "lat": 54.36631999999999,
          "lng": -6.62102
        },
        "southwest": {
          "lat": 54.32772000000001,
          "lng": -6.6760899
        }
      }
    },
    "partial_match": true,
    "place_id": "ChIJjRbLfVWNYEgRSBjJzX1jLrk",
    "types": [
      "locality",
      "political"
    ]
  },
  {
    "area_id": 3453,
    "area_name": "Whitecross",
    "county_name": "Armagh",
    "county_id": 28,
    "address_components": [
      {
        "long_name": "Whitecross",
        "short_name": "Whitecross",
        "types": [
          "locality",
          "political"
        ]
      },
      {
        "long_name": "Armagh",
        "short_name": "Armagh",
        "types": [
          "postal_town"
        ]
      },
      {
        "long_name": "Newry, Mourne and Down",
        "short_name": "Newry, Mourne and Down",
        "types": [
          "administrative_area_level_2",
          "political"
        ]
      },
      {
        "long_name": "Northern Ireland",
        "short_name": "Northern Ireland",
        "types": [
          "administrative_area_level_1",
          "political"
        ]
      },
      {
        "long_name": "United Kingdom",
        "short_name": "GB",
        "types": [
          "country",
          "political"
        ]
      },
      {
        "long_name": "BT60 2SW",
        "short_name": "BT60 2SW",
        "types": [
          "postal_code"
        ]
      }
    ],
    "formatted_address": "Whitecross, Armagh BT60 2SW, UK",
    "geometry": {
      "location": {
        "lat": 54.22129,
        "lng": -6.48616
      },
      "location_type": "APPROXIMATE",
      "viewport": {
        "northeast": {
          "lat": 54.2226389802915,
          "lng": -6.484811019708498
        },
        "southwest": {
          "lat": 54.2199410197085,
          "lng": -6.487508980291502
        }
      }
    },
    "place_id": "ChIJ1cNQJHnBYEgRRXdv4FM0bHc",
    "types": [
      "locality",
      "political"
    ]
  },
  {
    "area_id": 2169,
    "area_name": "Milltown",
    "county_name": "Armagh",
    "county_id": 28,
    "address_components": [
      {
        "long_name": "Milltown",
        "short_name": "Milltown",
        "types": [
          "locality",
          "political"
        ]
      },
      {
        "long_name": "Craigavon",
        "short_name": "Craigavon",
        "types": [
          "postal_town"
        ]
      },
      {
        "long_name": "Armagh City, Banbridge and Craigavon",
        "short_name": "Armagh City, Banbridge and Craigavon",
        "types": [
          "administrative_area_level_2",
          "political"
        ]
      },
      {
        "long_name": "Northern Ireland",
        "short_name": "Northern Ireland",
        "types": [
          "administrative_area_level_1",
          "political"
        ]
      },
      {
        "long_name": "United Kingdom",
        "short_name": "GB",
        "types": [
          "country",
          "political"
        ]
      },
      {
        "long_name": "BT62 3SY",
        "short_name": "BT62 3SY",
        "types": [
          "postal_code"
        ]
      }
    ],
    "formatted_address": "Milltown, Craigavon BT62 3SY, UK",
    "geometry": {
      "location": {
        "lat": 54.35698,
        "lng": -6.498069999999999
      },
      "location_type": "APPROXIMATE",
      "viewport": {
        "northeast": {
          "lat": 54.3583289802915,
          "lng": -6.496721019708497
        },
        "southwest": {
          "lat": 54.3556310197085,
          "lng": -6.499418980291502
        }
      }
    },
    "place_id": "ChIJnfIvsK_uYEgRmpRWZ8gndDs",
    "types": [
      "locality",
      "political"
    ]
  },
  {
    "area_id": 2187,
    "area_name": "Portadown",
    "county_name": "Armagh",
    "county_id": 28,
    "address_components": [
      {
        "long_name": "Portadown",
        "short_name": "Portadown",
        "types": [
          "locality",
          "political"
        ]
      },
      {
        "long_name": "Craigavon",
        "short_name": "Craigavon",
        "types": [
          "postal_town"
        ]
      },
      {
        "long_name": "Armagh City, Banbridge and Craigavon",
        "short_name": "Armagh City, Banbridge and Craigavon",
        "types": [
          "administrative_area_level_2",
          "political"
        ]
      },
      {
        "long_name": "Northern Ireland",
        "short_name": "Northern Ireland",
        "types": [
          "administrative_area_level_1",
          "political"
        ]
      },
      {
        "long_name": "United Kingdom",
        "short_name": "GB",
        "types": [
          "country",
          "political"
        ]
      },
      {
        "long_name": "BT62",
        "short_name": "BT62",
        "types": [
          "postal_code",
          "postal_code_prefix"
        ]
      }
    ],
    "formatted_address": "Portadown, Craigavon BT62, UK",
    "geometry": {
      "bounds": {
        "northeast": {
          "lat": 54.4395873,
          "lng": -6.4350723
        },
        "southwest": {
          "lat": 54.3928306,
          "lng": -6.4836113
        }
      },
      "location": {
        "lat": 54.4203331,
        "lng": -6.4548387
      },
      "location_type": "APPROXIMATE",
      "viewport": {
        "northeast": {
          "lat": 54.4395873,
          "lng": -6.4350723
        },
        "southwest": {
          "lat": 54.3928306,
          "lng": -6.4836113
        }
      }
    },
    "place_id": "ChIJHUbYId_kYEgRMGHTJ3Z0jG8",
    "types": [
      "locality",
      "political"
    ]
  },
  {
    "area_id": 3422,
    "area_name": "Middletown",
    "county_name": "Armagh",
    "county_id": 28,
    "address_components": [
      {
        "long_name": "Middletown",
        "short_name": "Middletown",
        "types": [
          "locality",
          "political"
        ]
      },
      {
        "long_name": "Armagh",
        "short_name": "Armagh",
        "types": [
          "postal_town"
        ]
      },
      {
        "long_name": "Armagh City, Banbridge and Craigavon",
        "short_name": "Armagh City, Banbridge and Craigavon",
        "types": [
          "administrative_area_level_2",
          "political"
        ]
      },
      {
        "long_name": "Northern Ireland",
        "short_name": "Northern Ireland",
        "types": [
          "administrative_area_level_1",
          "political"
        ]
      },
      {
        "long_name": "United Kingdom",
        "short_name": "GB",
        "types": [
          "country",
          "political"
        ]
      },
      {
        "long_name": "BT60",
        "short_name": "BT60",
        "types": [
          "postal_code",
          "postal_code_prefix"
        ]
      }
    ],
    "formatted_address": "Middletown, Armagh BT60, UK",
    "geometry": {
      "bounds": {
        "northeast": {
          "lat": 54.297394,
          "lng": -6.8374732
        },
        "southwest": {
          "lat": 54.28710110000001,
          "lng": -6.8505385
        }
      },
      "location": {
        "lat": 54.2927654,
        "lng": -6.843882499999999
      },
      "location_type": "APPROXIMATE",
      "viewport": {
        "northeast": {
          "lat": 54.297394,
          "lng": -6.8374732
        },
        "southwest": {
          "lat": 54.28710110000001,
          "lng": -6.8505385
        }
      }
    },
    "place_id": "ChIJv4ZNH46XYEgRWUdq8-toqZI",
    "types": [
      "locality",
      "political"
    ]
  },
  {
    "area_id": 3446,
    "area_name": "Mowhan",
    "county_name": "Armagh",
    "county_id": 28,
    "address_components": [
      {
        "long_name": "Mowhan",
        "short_name": "Mowhan",
        "types": [
          "locality",
          "political"
        ]
      },
      {
        "long_name": "Armagh",
        "short_name": "Armagh",
        "types": [
          "postal_town"
        ]
      },
      {
        "long_name": "Armagh City, Banbridge and Craigavon",
        "short_name": "Armagh City, Banbridge and Craigavon",
        "types": [
          "administrative_area_level_2",
          "political"
        ]
      },
      {
        "long_name": "Northern Ireland",
        "short_name": "Northern Ireland",
        "types": [
          "administrative_area_level_1",
          "political"
        ]
      },
      {
        "long_name": "United Kingdom",
        "short_name": "GB",
        "types": [
          "country",
          "political"
        ]
      },
      {
        "long_name": "BT60 2FF",
        "short_name": "BT60 2FF",
        "types": [
          "postal_code"
        ]
      }
    ],
    "formatted_address": "Mowhan, Armagh BT60 2FF, UK",
    "geometry": {
      "location": {
        "lat": 54.2584202,
        "lng": -6.562744599999999
      },
      "location_type": "APPROXIMATE",
      "viewport": {
        "northeast": {
          "lat": 54.2597691802915,
          "lng": -6.561395619708498
        },
        "southwest": {
          "lat": 54.2570712197085,
          "lng": -6.564093580291502
        }
      }
    },
    "place_id": "ChIJwdkgUW3qYEgR_o9gzjc8p-M",
    "types": [
      "locality",
      "political"
    ]
  },
  {
    "area_id": 3462,
    "area_name": "Silver Bridge",
    "county_name": "Armagh",
    "county_id": 28,
    "address_components": [
      {
        "long_name": "Silverbridge",
        "short_name": "Silverbridge",
        "types": [
          "locality",
          "political"
        ]
      },
      {
        "long_name": "Newry",
        "short_name": "Newry",
        "types": [
          "postal_town"
        ]
      },
      {
        "long_name": "Newry, Mourne and Down",
        "short_name": "Newry, Mourne and Down",
        "types": [
          "administrative_area_level_2",
          "political"
        ]
      },
      {
        "long_name": "Northern Ireland",
        "short_name": "Northern Ireland",
        "types": [
          "administrative_area_level_1",
          "political"
        ]
      },
      {
        "long_name": "United Kingdom",
        "short_name": "GB",
        "types": [
          "country",
          "political"
        ]
      },
      {
        "long_name": "BT35",
        "short_name": "BT35",
        "types": [
          "postal_code",
          "postal_code_prefix"
        ]
      }
    ],
    "formatted_address": "Silverbridge, Newry BT35, UK",
    "geometry": {
      "bounds": {
        "northeast": {
          "lat": 54.1064013,
          "lng": -6.5198735
        },
        "southwest": {
          "lat": 54.09892559999999,
          "lng": -6.537375
        }
      },
      "location": {
        "lat": 54.1017681,
        "lng": -6.527845
      },
      "location_type": "APPROXIMATE",
      "viewport": {
        "northeast": {
          "lat": 54.1064013,
          "lng": -6.5198735
        },
        "southwest": {
          "lat": 54.09892559999999,
          "lng": -6.537375
        }
      }
    },
    "place_id": "ChIJN7u_iMbHYEgRQntsbGMIjKA",
    "types": [
      "locality",
      "political"
    ]
  },
  {
    "area_id": 3448,
    "area_name": "Newtownhamilton",
    "county_name": "Armagh",
    "county_id": 28,
    "address_components": [
      {
        "long_name": "Newtownhamilton",
        "short_name": "Newtownhamilton",
        "types": [
          "locality",
          "political"
        ]
      },
      {
        "long_name": "Newry",
        "short_name": "Newry",
        "types": [
          "postal_town"
        ]
      },
      {
        "long_name": "Newry, Mourne and Down",
        "short_name": "Newry, Mourne and Down",
        "types": [
          "administrative_area_level_2",
          "political"
        ]
      },
      {
        "long_name": "Northern Ireland",
        "short_name": "Northern Ireland",
        "types": [
          "administrative_area_level_1",
          "political"
        ]
      },
      {
        "long_name": "United Kingdom",
        "short_name": "GB",
        "types": [
          "country",
          "political"
        ]
      },