[
  {
    "area_id": 1429,
    "area_name": "Ballintra",
    "county_name": "Donegal",
    "county_id": 24,
    "address_components": [
      {
        "long_name": "Ballintra",
        "short_name": "Ballintra",
        "types": [
          "locality",
          "political"
        ]
      },
      {
        "long_name": "Ballintra",
        "short_name": "Ballintra",
        "types": [
          "neighborhood",
          "political"
        ]
      },
      {
        "long_name": "County Donegal",
        "short_name": "DL",
        "types": [
          "administrative_area_level_1",
          "political"
        ]
      },
      {
        "long_name": "Ireland",
        "short_name": "IE",
        "types": [
          "country",
          "political"
        ]
      }
    ],
    "formatted_address": "Ballintra, Co. Donegal, Ireland",
    "geometry": {
      "location": {
        "lat": 54.57884989999999,
        "lng": -8.1243234
      },
      "location_type": "APPROXIMATE",
      "viewport": {
        "northeast": {
          "lat": 54.58019888029149,
          "lng": -8.122974419708497
        },
        "southwest": {
          "lat": 54.57750091970849,
          "lng": -8.125672380291501
        }
      }
    },
    "place_id": "ChIJJ_ySAZgAX0gRMNoxl6nHAAo",
    "types": [
      "locality",
      "political"
    ]
  },
  {
    "area_id": 1549,
    "area_name": "Aughagault",
    "county_name": "Donegal",
    "county_id": 24,
    "address_components": [
      {
        "long_name": "Aughagault",
        "short_name": "Aughagault",
        "types": [
          "neighborhood",
          "political"
        ]
      },
      {
        "long_name": "County Donegal",
        "short_name": "DL",
        "types": [
          "administrative_area_level_1",
          "political"
        ]
      },
      {
        "long_name": "Ireland",
        "short_name": "IE",
        "types": [
          "country",
          "political"
        ]
      }
    ],
    "formatted_address": "Aughagault, Co. Donegal, Ireland",
    "geometry": {
      "bounds": {
        "northeast": {
          "lat": 54.8756764,
          "lng": -7.717313999999999
        },
        "southwest": {
          "lat": 54.8618281,
          "lng": -7.742558300000001
        }
      },
      "location": {
        "lat": 54.8691332,
        "lng": -7.7278411
      },
      "location_type": "APPROXIMATE",
      "viewport": {
        "northeast": {
          "lat": 54.8756764,
          "lng": -7.717313999999999
        },
        "southwest": {
          "lat": 54.8618281,
          "lng": -7.742558300000001
        }
      }
    },
    "place_id": "ChIJuRXz05K_X0gRnCZy7fBNkec",
    "types": [
      "neighborhood",
      "political"
    ]
  },
  {
    "area_id": 1425,
    "area_name": "Malin More",
    "county_name": "Donegal",
    "county_id": 24,
    "address_components": [
      {
        "long_name": "Malin More",
        "short_name": "Malin More",
        "types": [
          "neighborhood",
          "political"
        ]
      },
      {
        "long_name": "Radhairc Na Mhuirlin",
        "short_name": "Radhairc Na Mhuirlin",
        "types": [
          "political",
          "sublocality",
          "sublocality_level_1"
        ]
      },
      {
        "long_name": "County Donegal",
        "short_name": "DL",
        "types": [
          "administrative_area_level_1",
          "political"
        ]
      },
      {
        "long_name": "Ireland",
        "short_name": "IE",
        "types": [
          "country",
          "political"
        ]
      }
    ],
    "formatted_address": "Malin More, Radhairc Na Mhuirlin, Co. Donegal, Ireland",
    "geometry": {
      "bounds": {
        "northeast": {
          "lat": 54.69678159999999,
          "lng": -8.7387111
        },
        "southwest": {
          "lat": 54.6733583,
          "lng": -8.8034239
        }
      },
      "location": {
        "lat": 54.6900924,
        "lng": -8.759230100000002
      },
      "location_type": "APPROXIMATE",
      "viewport": {
        "northeast": {
          "lat": 54.69678159999999,
          "lng": -8.7387111
        },
        "southwest": {
          "lat": 54.6733583,
          "lng": -8.8034239
        }
      }
    },
    "place_id": "ChIJ4UunPng7X0gRcqje2570I8M",
    "types": [
      "neighborhood",
      "political"
    ]
  },
  {
    "area_id": 1118,
    "area_name": "Ballyhillin",
    "county_name": "Donegal",
    "county_id": 24,
    "address_components": [
      {
        "long_name": "Ballyhillin",
        "short_name": "Ballyhillin",
        "types": [
          "locality",
          "political"
        ]
      },
      {
        "long_name": "Ardmalin",
        "short_name": "Ardmalin",
        "types": [
          "neighborhood",
          "political"
        ]
      },
      {
        "long_name": "County Donegal",
        "short_name": "DL",
        "types": [
          "administrative_area_level_1",
          "political"
        ]
      },
      {
        "long_name": "Ireland",
        "short_name": "IE",
        "types": [
          "country",
          "political"
        ]
      }
    ],
    "formatted_address": "Ardmalin, Ballyhillin, Co. Donegal, Ireland",
    "geometry": {
      "location": {
        "lat": 55.37687,
        "lng": -7.36956
      },
      "location_type": "APPROXIMATE",
      "viewport": {
        "northeast": {
          "lat": 55.3782189802915,
          "lng": -7.368211019708498
        },
        "southwest": {
          "lat": 55.3755210197085,
          "lng": -7.370908980291502
        }
      }
    },
    "place_id": "ChIJZ8wMPUtT9UgRzw0EsnDUtjM",
    "types": [
      "locality",
      "political"
    ]
  },
  {
    "area_id": 1528,
    "area_name": "Breenagh",
    "county_name": "Donegal",
    "county_id": 24,
    "address_components": [
      {
        "long_name": "Breenagh",
        "short_name": "Breenagh",
        "types": [
          "neighborhood",
          "political"
        ]
      },
      {
        "long_name": "County Donegal",
        "short_name": "DL",
        "types": [
          "administrative_area_level_1",
          "political"
        ]
      },
      {
        "long_name": "Ireland",
        "short_name": "IE",
        "types": [
          "country",
          "political"
        ]
      }
    ],
    "formatted_address": "Breenagh, Co. Donegal, Ireland",
    "geometry": {
      "bounds": {
        "northeast": {
          "lat": 54.9504338,
          "lng": -7.9164898
        },
        "southwest": {
          "lat": 54.9285665,
          "lng": -7.940462699999999
        }
      },
      "location": {
        "lat": 54.941854,
        "lng": -7.928929200000001
      },
      "location_type": "APPROXIMATE",
      "viewport": {
        "northeast": {
          "lat": 54.9504338,
          "lng": -7.9164898
        },
        "southwest": {
          "lat": 54.9285665,
          "lng": -7.940462699999999
        }
      }
    },
    "place_id": "ChIJT6jaf_6WX0gR8tVQu6fHACY",
    "types": [
      "neighborhood",
      "political"
    ]
  },
  {
    "area_id": 1920,
    "area_name": "Ballure",
    "county_name": "Donegal",
    "county_id": 24,
    "address_components": [
      {
        "long_name": "Ballure",
        "short_name": "Ballure",
        "types": [
          "locality",
          "political"
        ]
      },
      {
        "long_name": "Kilbarron",
        "short_name": "Kilbarron",
        "types": [
          "neighborhood",
          "political"
        ]
      },
      {
        "long_name": "County Donegal",
        "short_name": "DL",
        "types": [
          "administrative_area_level_1",
          "political"
        ]
      },
      {
        "long_name": "Ireland",
        "short_name": "IE",
        "types": [
          "country",
          "political"
        ]
      }
    ],
    "formatted_address": "Kilbarron, Ballure, Co. Donegal, Ireland",
    "geometry": {
      "location": {
        "lat": 54.52578,
        "lng": -8.23536
      },
      "location_type": "APPROXIMATE",
      "viewport": {
        "northeast": {
          "lat": 54.52712898029149,
          "lng": -8.234011019708499
        },
        "southwest": {
          "lat": 54.5244310197085,
          "lng": -8.236708980291501
        }
      }
    },
    "place_id": "ChIJC3pt2BcCX0gRUN0xl6nHAAo",
    "types": [
      "locality",
      "political"
    ]
  },
  {
    "area_id": 1925,
    "area_name": "Bridgetown",
    "county_name": "Donegal",
    "county_id": 24,
    "address_components": [
      {
        "long_name": "Bridgetown",
        "short_name": "Bridgetown",
        "types": [
          "locality",
          "political"
        ]
      },
      {
        "long_name": "Rafoarty",
        "short_name": "Rafoarty",
        "types": [
          "neighborhood",
          "political"
        ]
      },
      {
        "long_name": "County Donegal",
        "short_name": "DL",
        "types": [
          "administrative_area_level_1",
          "political"
        ]
      },
      {
        "long_name": "Ireland",
        "short_name": "IE",
        "types": [
          "country",
          "political"
        ]
      }
    ],
    "formatted_address": "Rafoarty, Bridgetown, Co. Donegal, Ireland",
    "geometry": {
      "location": {
        "lat": 54.5944114,
        "lng": -8.112303899999999
      },
      "location_type": "APPROXIMATE",
      "viewport": {
        "northeast": {
          "lat": 54.59576038029149,
          "lng": -8.110954919708497
        },
        "southwest": {
          "lat": 54.5930624197085,
          "lng": -8.113652880291502
        }
      }
    },
    "place_id": "ChIJmaJxLweqX0gREihQu6fHACY",
    "types": [
      "locality",
      "political"
    ]
  },
  {
    "area_id": 1936,
    "area_name": "Manger",
    "county_name": "Donegal",
    "county_id": 24,
    "address_components": [
      {
        "long_name": "Donegal",
        "short_name": "Donegal",
        "types": [
          "locality",
          "political"
        ]
      },
      {
        "long_name": "County Donegal",
        "short_name": "DL",
        "types": [
          "administrative_area_level_1",
          "political"
        ]
      },
      {
        "long_name": "Ireland",
        "short_name": "IE",
        "types": [
          "country",
          "political"
        ]
      }
    ],
    "formatted_address": "Donegal, Ireland",
    "geometry": {
      "bounds": {
        "northeast": {
          "lat": 54.66157159999999,
          "lng": -8.087926099999999
        },
        "southwest": {
          "lat": 54.6426687,
          "lng": -8.124109299999999
        }
      },
      "location": {
        "lat": 54.653827,
        "lng": -8.1096142
      },
      "location_type": "APPROXIMATE",
      "viewport": {
        "northeast": {
          "lat": 54.66157159999999,
          "lng": -8.087926099999999
        },
        "southwest": {
          "lat": 54.6426687,
          "lng": -8.124109299999999
        }
      }
    },
    "partial_match": true,
    "place_id": "ChIJFxz9FzOoX0gRsHQxl6nHAAo",
    "types": [
      "locality",
      "political"
    ]
  },
  {
    "area_id": 1238,
    "area_name": "Bridgend",
    "county_name": "Donegal",
    "county_id": 24,
    "address_components": [
      {
        "long_name": "Bridge End",
        "short_name": "Bridge End",
        "types": [
          "locality",
          "political"
        ]
      },
      {
        "long_name": "Elaghbeg",
        "short_name": "Elaghbeg",
        "types": [
          "neighborhood",
          "political"
        ]
      },
      {
        "long_name": "County Donegal",
        "short_name": "DL",
        "types": [
          "administrative_area_level_1",
          "political"
        ]
      },
      {
        "long_name": "Ireland",
        "short_name": "IE",
        "types": [
          "country",
          "political"
        ]
      }
    ],
    "formatted_address": "Elaghbeg, Bridge End, Co. Donegal, Ireland",
    "geometry": {
      "location": {
        "lat": 55.0422391,
        "lng": -7.3821884
      },
      "location_type": "APPROXIMATE",
      "viewport": {
        "northeast": {
          "lat": 55.04358808029149,
          "lng": -7.380839419708498
        },
        "southwest": {
          "lat": 55.04089011970849,
          "lng": -7.383537380291503
        }
      }
    },
    "place_id": "ChIJ--hYFITjX0gRIMExl6nHAAo",
    "types": [
      "locality",
      "political"
    ]
  },
  {
    "area_id": 1214,
    "area_name": "Lurganboy",
    "county_name": "Donegal",
    "county_id": 24,
    "address_components": [
      {
        "long_name": "Lurganboy",
        "short_name": "Lurganboy",
        "types": [
          "neighborhood",
          "political"
        ]
      },
      {
        "long_name": "Hillhead",
        "short_name": "Hillhead",
        "types": [
          "political",
          "sublocality",
          "sublocality_level_1"
        ]
      },
      {
        "long_name": "County Donegal",
        "short_name": "DL",
        "types": [
          "administrative_area_level_1",
          "political"
        ]
      },
      {
        "long_name": "Ireland",
        "short_name": "IE",
        "types": [
          "country",
          "political"
        ]
      }
    ],
    "formatted_address": "Lurganboy, Hillhead, Co. Donegal, Ireland",
    "geometry": {
      "bounds": {
        "northeast": {
          "lat": 54.7662541,
          "lng": -8.3920884
        },
        "southwest": {
          "lat": 54.75705689999999,
          "lng": -8.4093968
        }
      },
      "location": {
        "lat": 54.76066909999999,
        "lng": -8.4011592
      },
      "location_type": "APPROXIMATE",
      "viewport": {
        "northeast": {
          "lat": 54.7662541,
          "lng": -8.3920884
        },
        "southwest": {
          "lat": 54.75705689999999,
          "lng": -8.4093968
        }
      }
    },
    "place_id": "ChIJG0OfS_wNX0gReG5iDvOBqao",
    "types": [
      "neighborhood",
      "political"
    ]
  },
  {
    "area_id": 1450,
    "area_name": "Maghera",
    "county_name": "Donegal",
    "county_id": 24,
    "address_components": [
      {
        "long_name": "Maghera",
        "short_name": "Maghera",
        "types": [
          "neighborhood",
          "political"
        ]
      },
      {
        "long_name": "Lackaduff",
        "short_name": "Lackaduff",
        "types": [
          "political",
          "sublocality",
          "sublocality_level_1"
        ]
      },
      {
        "long_name": "County Donegal",
        "short_name": "DL",
        "types": [
          "administrative_area_level_1",
          "political"
        ]
      },
      {
        "long_name": "Ireland",
        "short_name": "IE",
        "types": [
          "country",
          "political"
        ]
      }
    ],
    "formatted_address": "Maghera, Lackaduff, Co. Donegal, Ireland",
    "geometry": {
      "bounds": {
        "northeast": {
          "lat": 54.7782134,
          "lng": -8.5349171
        },
        "southwest": {
          "lat": 54.7540357,
          "lng": -8.587991299999999
        }
      },
      "location": {
        "lat": 54.76586349999999,
        "lng": -8.561446
      },
      "location_type": "APPROXIMATE",
      "viewport": {
        "northeast": {
          "lat": 54.7782134,
          "lng": -8.5349171
        },
        "southwest": {
          "lat": 54.7540357,
          "lng": -8.587991299999999
        }
      }
    },
    "place_id": "ChIJAweW2A8UX0gRMlDBGajHACY",
    "types": [
      "neighborhood",
      "political"
    ]
  },
  {
    "area_id": 1128,
    "area_name": "Middletown",
    "county_name": "Donegal",
    "county_id": 24,
    "address_components": [
      {
        "long_name": "Middletown",
        "short_name": "Middletown",
        "types": [
          "political",
          "sublocality",
          "sublocality_level_1"
        ]
      },
      {
        "long_name": "Derrybeg",
        "short_name": "Derrybeg",
        "types": [
          "locality",
          "political"
        ]
      },
      {
        "long_name": "County Donegal",
        "short_name": "DL",
        "types": [
          "administrative_area_level_1",
          "political"
        ]
      },
      {
        "long_name": "Ireland",
        "short_name": "IE",
        "types": [
          "country",
          "political"
        ]
      }
    ],
    "formatted_address": "Middletown, Derrybeg, Co. Donegal, Ireland",
    "geometry": {
      "location": {
        "lat": 55.0728507,
        "lng": -8.2945265
      },
      "location_type": "APPROXIMATE",
      "viewport": {
        "northeast": {
          "lat": 55.0741996802915,
          "lng": -8.293177519708498
        },
        "southwest": {
          "lat": 55.0715017197085,
          "lng": -8.295875480291503
        }
      }
    },
    "place_id": "ChIJtYdRUl54X0gR4f4eu6fHACY",
    "types": [
      "political",
      "sublocality",
      "sublocality_level_1"
    ]
  },
  {
    "area_id": 1601,
    "area_name": "Ballindrait",
    "county_name": "Donegal",
    "county_id": 24,
    "address_components": [
      {
        "long_name": "Ballindrait",
        "short_name": "Ballindrait",
        "types": [
          "locality",
          "political"
        ]
      },
      {
        "long_name": "Ballindrait",
        "short_name": "Ballindrait",
        "types": [
          "neighborhood",
          "political"
        ]
      },
      {
        "long_name": "County Donegal",
        "short_name": "DL",
        "types": [
          "administrative_area_level_1",
          "political"
        ]
      },
      {
        "long_name": "Ireland",
        "short_name": "IE",
        "types": [
          "country",
          "political"
        ]
      }
    ],
    "formatted_address": "Ballindrait, Co. Donegal, Ireland",
    "geometry": {
      "location": {
        "lat": 54.8451594,
        "lng": -7.526530599999999
      },
      "location_type": "APPROXIMATE",
      "viewport": {
        "northeast": {
          "lat": 54.8465083802915,
          "lng": -7.525181619708497
        },
        "southwest": {
          "lat": 54.8438104197085,
          "lng": -7.527879580291502
        }
      }
    },
    "place_id": "ChIJL8K1IQrDX0gRMNkxl6nHAAo",
    "types": [
      "locality",
      "political"
    ]
  },
  {
    "area_id": 1476,
    "area_name": "Meencorwick",
    "county_name": "Donegal",
    "county_id": 24,
    "address_components": [
      {
        "long_name": "Meencorwick",
        "short_name": "Meencorwick",
        "types": [
          "neighborhood",
          "political"
        ]
      },
      {
        "long_name": "County Donegal",
        "short_name": "DL",
        "types": [
          "administrative_area_level_1",
          "political"
        ]
      },
      {
        "long_name": "Ireland",
        "short_name": "IE",
        "types": [
          "country",
          "political"
        ]
      }
    ],
    "formatted_address": "Meencorwick, Co. Donegal, Ireland",
    "geometry": {
      "bounds": {
        "northeast": {
          "lat": 55.0035385,
          "lng": -8.2245081
        },
        "southwest": {
          "lat": 54.9823939,
          "lng": -8.2716015
        }
      },
      "location": {
        "lat": 54.9936857,
        "lng": -8.2567576
      },
      "location_type": "APPROXIMATE",
      "viewport": {
        "northeast": {
          "lat": 55.0035385,
          "lng": -8.2245081
        },
        "southwest": {
          "lat": 54.9823939,
          "lng": -8.2716015
        }
      }
    },
    "place_id": "ChIJkXVa7dJ3X0gR7nObpF6uaPo",
    "types": [
      "neighborhood",
      "political"
    ]
  },
  {
    "area_id": 1482,
    "area_name": "Meenatotan",
    "county_name": "Donegal",
    "county_id": 24,
    "address_components": [
      {
        "long_name": "Donegal",
        "short_name": "Donegal",
        "types": [
          "locality",
          "political"
        ]
      },
      {
        "long_name": "County Donegal",
        "short_name": "DL",
        "types": [
          "administrative_area_level_1",
          "political"
        ]
      },
      {
        "long_name": "Ireland",
        "short_name": "IE",
        "types": [
          "country",
          "political"
        ]
      }
    ],
    "formatted_address": "Donegal, Ireland",
    "geometry": {
      "bounds": {
        "northeast": {
          "lat": 54.66157159999999,
          "lng": -8.087926099999999
        },
        "southwest": {
          "lat": 54.6426687,
          "lng": -8.124109299999999
        }
      },
      "location": {
        "lat": 54.653827,
        "lng": -8.1096142
      },
      "location_type": "APPROXIMATE",
      "viewport": {
        "northeast": {
          "lat": 54.66157159999999,
          "lng": -8.087926099999999
        },
        "southwest": {
          "lat": 54.6426687,
          "lng": -8.124109299999999
        }
      }
    },
    "partial_match": true,
    "place_id": "ChIJFxz9FzOoX0gRsHQxl6nHAAo",
    "types": [
      "locality",
      "political"
    ]
  },
  {
    "area_id": 1493,
    "area_name": "Meenanarwa",
    "county_name": "Donegal",
    "county_id": 24,
    "address_components": [
      {
        "long_name": "Meenanarwa",
        "short_name": "Meenanarwa",
        "types": [
          "neighborhood",
          "political"
        ]
      },
      {
        "long_name": "County Donegal",
        "short_name": "DL",
        "types": [
          "administrative_area_level_1",
          "political"
        ]
      },
      {
        "long_name": "Ireland",
        "short_name": "IE",
        "types": [
          "country",
          "political"
        ]
      }
    ],
    "formatted_address": "Meenanarwa, Co. Donegal, Ireland",
    "geometry": {
      "bounds": {
        "northeast": {
          "lat": 54.8355131,
          "lng": -8.0824208
        },
        "southwest": {
          "lat": 54.8184587,
          "lng": -8.1180296
        }
      },
      "location": {
        "lat": 54.83145349999999,
        "lng": -8.1018638
      },
      "location_type": "APPROXIMATE",
      "viewport": {
        "northeast": {
          "lat": 54.8355131,
          "lng": -8.0824208
        },
        "southwest": {
          "lat": 54.8184587,
          "lng": -8.1180296
        }
      }
    },
    "place_id": "ChIJy2A1g6GhX0gRV9PbvZer3FY",
    "types": [
      "neighborhood",
      "political"
    ]
  },
  {
    "area_id": 1605,
    "area_name": "Newtown Cunningham",
    "county_name": "Donegal",
    "county_id": 24,
    "address_components": [
      {
        "long_name": "Newtown Cunningham",
        "short_name": "Newtown Cunningham",
        "types": [
          "locality",
          "political"
        ]
      },
      {
        "long_name": "Colehill",
        "short_name": "Colehill",
        "types": [
          "neighborhood",
          "political"
        ]
      },
      {
        "long_name": "County Donegal",
        "short_name": "DL",
        "types": [
          "administrative_area_level_1",
          "political"
        ]
      },
      {
        "long_name": "Ireland",
        "short_name": "IE",
        "types": [
          "country",
          "political"
        ]
      }
    ],
    "formatted_address": "Colehill, Newtown Cunningham, Co. Donegal, Ireland",
    "geometry": {
      "location": {
        "lat": 54.99881749999999,
        "lng": -7.5127836
      },
      "location_type": "APPROXIMATE",
      "viewport": {
        "northeast": {
          "lat": 55.00016648029149,
          "lng": -7.511434619708497
        },
        "southwest": {
          "lat": 54.9974685197085,
          "lng": -7.514132580291502
        }
      }
    },
    "place_id": "ChIJ6f1K8FTvX0gRAMgxl6nHAAo",
    "types": [
      "locality",
      "political"
    ]
  },
  {
    "area_id": 1178,
    "area_name": "Milford",
    "county_name": "Donegal",
    "county_id": 24,
    "address_components": [
      {
        "long_name": "Milford",
        "short_name": "Milford",
        "types": [
          "locality",
          "political"
        ]
      },
      {
        "long_name": "Forquar",
        "short_name": "Forquar",
        "types": [
          "neighborhood",
          "political"
        ]
      },
      {
        "long_name": "County Donegal",
        "short_name": "DL",
        "types": [
          "administrative_area_level_1",
          "political"
        ]
      },
      {
        "long_name": "Ireland",
        "short_name": "IE",
        "types": [
          "country",
          "political"
        ]
      }
    ],
    "formatted_address": "Forquar, Milford, Co. Donegal, Ireland",
    "geometry": {
      "location": {
        "lat": 55.0883927,
        "lng": -7.698962099999999
      },
      "location_type": "APPROXIMATE",
      "viewport": {
        "northeast": {
          "lat": 55.0897416802915,
          "lng": -7.697613119708497
        },
        "southwest": {
          "lat": 55.0870437197085,
          "lng": -7.700311080291502
        }
      }
    },
    "place_id": "ChIJQ0VFqGjyX0gR0rEajTDY6dw",
    "types": [
      "locality",
      "political"
    ]
  },
  {
    "area_id": 1150,
    "area_name": "Ballyheerin",
    "county_name": "Donegal",
    "county_id": 24,
    "address_components": [
      {
        "long_name": "Ballyheerin",
        "short_name": "Ballyheerin",
        "types": [
          "neighborhood",
          "political"
        ]
      },
      {
        "long_name": "County Donegal",
        "short_name": "DL",
        "types": [
          "administrative_area_level_1",
          "political"
        ]
      },
      {
        "long_name": "Ireland",
        "short_name": "IE",
        "types": [
          "country",
          "political"
        ]
      }
    ],
    "formatted_address": "Ballyheerin, Co. Donegal, Ireland",
    "geometry": {
      "location": {
        "lat": 55.19609,
        "lng": -7.727691300000001
      },
      "location_type": "APPROXIMATE",
      "viewport": {
        "northeast": {
          "lat": 55.1974389802915,
          "lng": -7.726342319708499
        },
        "southwest": {
          "lat": 55.1947410197085,
          "lng": -7.729040280291503
        }
      }
    },
    "place_id": "ChIJCYPDAfz0X0gRQLLfN6nHABg",
    "types": [
      "neighborhood",
      "political"
    ]
  },
  {
    "area_id": 1143,
    "area_name": "Marble Hill",
    "county_name": "Donegal",
    "county_id": 24,
    "address_components": [
      {
        "long_name": "Marble Hill",
        "short_name": "Marble Hill",
        "types": [
          "locality",
          "political"
        ]
      },
      {
        "long_name": "Marblehill",
        "short_name": "Marblehill",
        "types": [
          "neighborhood",
          "political"
        ]
      },
      {
        "long_name": "County Donegal",
        "short_name": "DL",
        "types": [
          "administrative_area_level_1",
          "political"
        ]
      },
      {
        "long_name": "Ireland",
        "short_name": "IE",
        "types": [
          "country",
          "political"
        ]
      }
    ],
    "formatted_address": "Marblehill, Marble Hill, Co. Donegal, Ireland",
    "geometry": {
      "location": {
        "lat": 55.17712,
        "lng": -7.902469999999999
      },
      "location_type": "APPROXIMATE",
      "viewport": {
        "northeast": {
          "lat": 55.17846898029149,
          "lng": -7.901121019708497
        },
        "southwest": {
          "lat": 55.1757710197085,
          "lng": -7.903818980291502
        }
      }
    },
    "place_id": "ChIJA8P9M8SLX0gR8ipHgdasJjk",
    "types": [
      "locality",
      "political"
    ]
  },
  {
    "area_id": 1471,
    "area_name": "Meentullynagarn",
    "county_name": "Donegal",
    "county_id": 24,
    "address_components": [
      {
        "long_name": "Meentullynagarn",
        "short_name": "Meentullynagarn",
        "types": [
          "neighborhood",
          "political"
        ]
      },
      {
        "long_name": "County Donegal",
        "short_name": "DL",
        "types": [
          "administrative_area_level_1",
          "political"
        ]
      },
      {
        "long_name": "Ireland",
        "short_name": "IE",
        "types": [
          "country",
          "political"
        ]
      }
    ],
    "formatted_address": "Meentullynagarn, Co. Donegal, Ireland",
    "geometry": {
      "bounds": {
        "northeast": {
          "lat": 54.70918169999999,
          "lng": -8.4051885
        },
        "southwest": {
          "lat": 54.6922829,
          "lng": -8.4286588
        }
      },
      "location": {
        "lat": 54.7001535,
        "lng": -8.4163211
      },
      "location_type": "APPROXIMATE",
      "viewport": {
        "northeast": {
          "lat": 54.70918169999999,
          "lng": -8.4051885
        },
        "southwest": {
          "lat": 54.6922829,
          "lng": -8.4286588
        }
      }
    },
    "place_id": "ChIJQdHbqDwQX0gRUhxPu6fHACY",
    "types": [
      "neighborhood",
      "political"
    ]
  },
  {
    "area_id": 1213,
    "area_name": "Carrowkeel",
    "county_name": "Donegal",
    "county_id": 24,
    "address_components": [
      {
        "long_name": "Carrowkeel",
        "short_name": "Carrowkeel",
        "types": [
          "locality",
          "political"
        ]
      },
      {
        "long_name": "Carrowkeel",
        "short_name": "Carrowkeel",
        "types": [
          "neighborhood",
          "political"
        ]
      },
      {
        "long_name": "County Donegal",
        "short_name": "DL",
        "types": [
          "administrative_area_level_1",
          "political"
        ]
      },
      {
        "long_name": "Ireland",
        "short_name": "IE",
        "types": [
          "country",
          "political"
        ]
      }
    ],
    "formatted_address": "Carrowkeel, Co. Donegal, Ireland",
    "geometry": {
      "location": {
        "lat": 55.137713,
        "lng": -7.663875699999999
      },
      "location_type": "APPROXIMATE",
      "viewport": {
        "northeast": {
          "lat": 55.1390619802915,
          "lng": -7.662526719708497
        },
        "southwest": {
          "lat": 55.1363640197085,
          "lng": -7.665224680291502
        }
      }
    },
    "place_id": "ChIJ1RBOVmDxX0gR_nTajL6sBRQ",
    "types": [
      "locality",
      "political"
    ]
  },
  {
    "area_id": 1457,
    "area_name": "Meenaneary",
    "county_name": "Donegal",
    "county_id": 24,
    "address_components": [
      {
        "long_name": "Meenaneary",
        "short_name": "Meenaneary",
        "types": [
          "locality",
          "political"
        ]
      },
      {
        "long_name": "Stranakirk",
        "short_name": "Stranakirk",
        "types": [
          "neighborhood",
          "political"
        ]
      },
      {
        "long_name": "County Donegal",
        "short_name": "DL",
        "types": [
          "administrative_area_level_1",
          "political"
        ]
      },
      {
        "long_name": "Ireland",
        "short_name": "IE",
        "types": [
          "country",
          "political"
        ]
      }
    ],
    "formatted_address": "Stranakirk, Meenaneary, Co. Donegal, Ireland",
    "geometry": {
      "location": {
        "lat": 54.7011948,
        "lng": -8.6097699
      },
      "location_type": "APPROXIMATE",
      "viewport": {
        "northeast": {
          "lat": 54.7025437802915,
          "lng": -8.608420919708497
        },
        "southwest": {
          "lat": 54.6998458197085,
          "lng": -8.611118880291501
        }
      }
    },
    "place_id": "ChIJfS5I_8wXX0gRIBQyl6nHAAo",
    "types": [
      "locality",
      "political"
    ]
  },
  {
    "area_id": 1569,
    "area_name": "Meenglass",
    "county_name": "Donegal",
    "county_id": 24,
    "address_components": [
      {
        "long_name": "Meenglass",
        "short_name": "Meenglass",
        "types": [
          "locality",
          "political"
        ]
      },
      {
        "long_name": "Carrickmagrath",
        "short_name": "Carrickmagrath",
        "types": [
          "neighborhood",
          "political"
        ]
      },
      {
        "long_name": "County Donegal",
        "short_name": "DL",
        "types": [
          "administrative_area_level_1",
          "political"
        ]
      },
      {
        "long_name": "Ireland",
        "short_name": "IE",
        "types": [
          "country",
          "political"
        ]
      }
    ],
    "formatted_address": "Carrickmagrath, Meenglass, Co. Donegal, Ireland",
    "geometry": {
      "location": {
        "lat": 54.76777,
        "lng": -7.820679999999999
      },
      "location_type": "APPROXIMATE",
      "viewport": {
        "northeast": {
          "lat": 54.7691189802915,
          "lng": -7.819331019708497
        },
        "southwest": {
          "lat": 54.7664210197085,
          "lng": -7.822028980291502
        }
      }
    },
    "place_id": "ChIJiz7oZ8m7X0gRwhO7GajHACY",
    "types": [
      "locality",
      "political"
    ]
  },
  {
    "area_id": 3848,
    "area_name": "Moville",
    "county_name": "Donegal",
    "county_id": 24,
    "address_components": [
      {
        "long_name": "Moville",
        "short_name": "Moville",
        "types": [
          "locality",
          "political"
        ]
      },
      {
        "long_name": "Gort North",
        "short_name": "Gort North",
        "types": [
          "neighborhood",
          "political"
        ]
      },
      {
        "long_name": "County Donegal",
        "short_name": "DL",
        "types": [
          "administrative_area_level_1",
          "political"
        ]
      },
      {
        "long_name": "Ireland",
        "short_name": "IE",
        "types": [
          "country",
          "political"
        ]
      }
    ],
    "formatted_address": "Gort North, Moville, Co. Donegal, Ireland",
    "geometry": {
      "location": {
        "lat": 55.1890182,
        "lng": -7.040053299999999
      },
      "location_type": "APPROXIMATE",
      "viewport": {
        "northeast": {
          "lat": 55.1903671802915,
          "lng": -7.038704319708498
        },
        "southwest": {
          "lat": 55.1876692197085,
          "lng": -7.041402280291502
        }
      }
    },
    "place_id": "ChIJy4v0jWYbYEgRAOQxl6nHAAo",
    "types": [
      "locality",
      "political"
    ]
  },
  {
    "area_id": 1935,
    "area_name": "Bundoran",
    "county_name": "Donegal",
    "county_id": 24,
    "address_components": [
      {
        "long_name": "Bundoran",
        "short_name": "Bundoran",
        "types": [
          "locality",
          "political"
        ]
      },
      {
        "long_name": "Drumacrin",
        "short_name": "Drumacrin",
        "types": [
          "neighborhood",
          "political"
        ]
      },
      {
        "long_name": "County Donegal",
        "short_name": "DL",
        "types": [
          "administrative_area_level_1",
          "political"
        ]
      },
      {
        "long_name": "Ireland",
        "short_name": "IE",
        "types": [
          "country",
          "political"
        ]
      }
    ],
    "formatted_address": "Drumacrin, Bundoran, Co. Donegal, Ireland",
    "geometry": {
      "location": {
        "lat": 54.4791416,
        "lng": -8.2779341
      },
      "location_type": "APPROXIMATE",
      "viewport": {
        "northeast": {
          "lat": 54.4804905802915,
          "lng": -8.276585119708498
        },
        "southwest": {
          "lat": 54.4777926197085,
          "lng": -8.279283080291503
        }
      }
    },
    "place_id": "ChIJUU8UmRT9XkgR4OMxl6nHAAo",
    "types": [
      "locality",
      "political"
    ]
  },
  {
    "area_id": 1164,
    "area_name": "Ballymore",
    "county_name": "Donegal",
    "county_id": 24,
    "address_components": [
      {
        "long_name": "Ballymore",
        "short_name": "Ballymore",
        "types": [
          "political",
          "sublocality",
          "sublocality_level_1"
        ]
      },
      {
        "long_name": "Crockalaghta",
        "short_name": "Crockalaghta",
        "types": [
          "locality",
          "political"
        ]
      },
      {
        "long_name": "County Donegal",
        "short_name": "DL",
        "types": [
          "administrative_area_level_1",
          "political"
        ]
      },
      {
        "long_name": "Ireland",
        "short_name": "IE",
        "types": [
          "country",
          "political"
        ]
      }
    ],
    "formatted_address": "Ballymore, Crockalaghta, Co. Donegal, Ireland",
    "geometry": {
      "location": {
        "lat": 55.1641699,
        "lng": -7.918986500000001
      },
      "location_type": "APPROXIMATE",
      "viewport": {
        "northeast": {
          "lat": 55.1655188802915,
          "lng": -7.917637519708498
        },
        "southwest": {
          "lat": 55.1628209197085,
          "lng": -7.920335480291503
        }
      }
    },
    "place_id": "ChIJdc-Qw-GLX0gR3EtJeRvxLbA",
    "types": [
      "political",
      "sublocality",
      "sublocality_level_1"
    ]
  },
  {
    "area_id": 1470,
    "area_name": "Ardara",
    "county_name": "Donegal",
    "county_id": 24,
    "address_components": [
      {
        "long_name": "Ardara",
        "short_name": "Ardara",
        "types": [
          "locality",
          "political"
        ]
      },
      {
        "long_name": "Ardara",
        "short_name": "Ardara",
        "types": [
          "neighborhood",
          "political"
        ]
      },
      {
        "long_name": "County Donegal",
        "short_name": "DL",
        "types": [
          "administrative_area_level_1",
          "political"
        ]
      },
      {
        "long_name": "Ireland",
        "short_name": "IE",
        "types": [
          "country",
          "political"
        ]
      }
    ],
    "formatted_address": "Ardara, Co. Donegal, Ireland",
    "geometry": {
      "location": {
        "lat": 54.7671456,
        "lng": -8.4092864
      },
      "location_type": "APPROXIMATE",
      "viewport": {
        "northeast": {
          "lat": 54.7684945802915,
          "lng": -8.407937419708496
        },
        "southwest": {
          "lat": 54.7657966197085,
          "lng": -8.4106353802915
        }
      }
    },
    "place_id": "ChIJlWuCLAESX0gRYH8xl6nHAAo",
    "types": [
      "locality",
      "political"
    ]
  },
  {
    "area_id": 1564,
    "area_name": "Ballybofey",
    "county_name": "Donegal",
    "county_id": 24,
    "address_components": [
      {
        "long_name": "Ballybofey",
        "short_name": "Ballybofey",
        "types": [
          "locality",
          "political"
        ]
      },
      {
        "long_name": "Ballybofey",
        "short_name": "Ballybofey",
        "types": [
          "neighborhood",
          "political"
        ]
      },
      {
        "long_name": "County Donegal",
        "short_name": "DL",
        "types": [
          "administrative_area_level_1",
          "political"
        ]
      },
      {
        "long_name": "Ireland",
        "short_name": "IE",
        "types": [
          "country",
          "political"
        ]
      }
    ],
    "formatted_address": "Ballybofey, Co. Donegal, Ireland",
    "geometry": {
      "location": {
        "lat": 54.7968244,
        "lng": -7.787548099999999
      },
      "location_type": "APPROXIMATE",
      "viewport": {
        "northeast": {
          "lat": 54.79817338029149,
          "lng": -7.786199119708497
        },
        "southwest": {
          "lat": 54.7954754197085,
          "lng": -7.788897080291501
        }
      }
    },
    "place_id": "ChIJ28Xvzke5X0gR0OAxl6nHAAo",
    "types": [
      "locality",
      "political"
    ]
  },
  {
    "area_id": 1254,
    "area_name": "Ballymagaraghy",
    "county_name": "Donegal",
    "county_id": 24,
    "address_components": [
      {
        "long_name": "Ballymagaraghy",
        "short_name": "Ballymagaraghy",
        "types": [
          "neighborhood",
          "political"
        ]
      },
      {
        "long_name": "Falmore",
        "short_name": "Falmore",
        "types": [
          "political",
          "sublocality",
          "sublocality_level_1"
        ]
      },
      {
        "long_name": "County Donegal",
        "short_name": "DL",
        "types": [
          "administrative_area_level_1",
          "political"
        ]
      },
      {
        "long_name": "Ireland",
        "short_name": "IE",
        "types": [
          "country",
          "political"
        ]
      }
    ],
    "formatted_address": "Ballymagaraghy, Falmore, Co. Donegal, Ireland",
    "geometry": {
      "bounds": {
        "northeast": {
          "lat": 55.27605879999999,
          "lng": -7.0201819
        },
        "southwest": {
          "lat": 55.2593884,
          "lng": -7.0772835
        }
      },
      "location": {
        "lat": 55.2649819,
        "lng": -7.052410600000001
      },
      "location_type": "APPROXIMATE",
      "viewport": {
        "northeast": {
          "lat": 55.27605879999999,
          "lng": -7.0201819
        },
        "southwest": {
          "lat": 55.2593884,
          "lng": -7.0772835
        }
      }
    },
    "place_id": "ChIJc9gXiGwdYEgRssS6GajHACY",
    "types": [
      "neighborhood",
      "political"
    ]
  },
  {
    "area_id": 1561,
    "area_name": "Altnapaste",
    "county_name": "Donegal",
    "county_id": 24,
    "address_components": [
      {
        "long_name": "Altnapaste",
        "short_name": "Altnapaste",
        "types": [
          "locality",
          "political"
        ]
      },
      {
        "long_name": "Meenagrauv",
        "short_name": "Meenagrauv",
        "types": [
          "neighborhood",
          "political"
        ]
      },
      {
        "long_name": "County Donegal",
        "short_name": "DL",
        "types": [
          "administrative_area_level_1",
          "political"
        ]
      },
      {
        "long_name": "Ireland",
        "short_name": "IE",
        "types": [
          "country",
          "political"
        ]
      }
    ],
    "formatted_address": "Meenagrauv, Altnapaste, Co. Donegal, Ireland",
    "geometry": {
      "location": {
        "lat": 54.8135963,
        "lng": -7.8893534
      },
      "location_type": "APPROXIMATE",
      "viewport": {
        "northeast": {
          "lat": 54.8149452802915,
          "lng": -7.888004419708499
        },
        "southwest": {
          "lat": 54.8122473197085,
          "lng": -7.890702380291502
        }
      }
    },
    "place_id": "ChIJ0ZhQHo28X0gRrsPKFg3kMro",
    "types": [
      "locality",
      "political"
    ]
  },
  {
    "area_id": 1131,
    "area_name": "Loughanure",
    "county_name": "Donegal",
    "county_id": 24,
    "address_components": [
      {
        "long_name": "Loughanure",
        "short_name": "Loughanure",
        "types": [
          "locality",
          "political"
        ]
      },
      {
        "long_name": "Loughanure",
        "short_name": "Loughanure",
        "types": [
          "neighborhood",
          "political"
        ]
      },
      {
        "long_name": "County Donegal",
        "short_name": "DL",
        "types": [
          "administrative_area_level_1",
          "political"
        ]
      },
      {
        "long_name": "Ireland",
        "short_name": "IE",
        "types": [
          "country",
          "political"
        ]
      }
    ],
    "formatted_address": "Loughanure, Co. Donegal, Ireland",
    "geometry": {
      "location": {
        "lat": 54.9981527,
        "lng": -8.291505299999999
      },
      "location_type": "APPROXIMATE",
      "viewport": {
        "northeast": {
          "lat": 54.9995016802915,
          "lng": -8.290156319708498
        },
        "southwest": {
          "lat": 54.9968037197085,
          "lng": -8.292854280291502
        }
      }
    },
    "place_id": "ChIJb9pbpK53X0gRoBAyl6nHAAo",
    "types": [
      "locality",
      "political"
    ]
  },
  {
    "area_id": 1529,
    "area_name": "Cark",
    "county_name": "Donegal",
    "county_id": 24,
    "address_components": [
      {
        "long_name": "Cark",
        "short_name": "Cark",
        "types": [
          "neighborhood",
          "political"
        ]
      },
      {
        "long_name": "County Donegal",
        "short_name": "DL",
        "types": [
          "administrative_area_level_1",
          "political"
        ]
      },
      {
        "long_name": "Ireland",
        "short_name": "IE",
        "types": [
          "country",
          "political"
        ]
      }
    ],
    "formatted_address": "Cark, Co. Donegal, Ireland",
    "geometry": {
      "bounds": {
        "northeast": {
          "lat": 54.9031141,
          "lng": -7.853028399999999
        },
        "southwest": {
          "lat": 54.8760489,
          "lng": -7.907439699999999
        }
      },
      "location": {
        "lat": 54.88711,
        "lng": -7.878867100000001
      },
      "location_type": "APPROXIMATE",
      "viewport": {
        "northeast": {
          "lat": 54.9031141,
          "lng": -7.853028399999999
        },
        "southwest": {
          "lat": 54.8760489,
          "lng": -7.907439699999999
        }
      }
    },
    "place_id": "ChIJ6WzKQSSWX0gRKuDLEA95s_o",
    "types": [
      "neighborhood",
      "political"
    ]
  },
  {
    "area_id": 1126,
    "area_name": "Brinlack",
    "county_name": "Donegal",
    "county_id": 24,
    "address_components": [
      {
        "long_name": "Brinlack",
        "short_name": "Brinlack",
        "types": [
          "locality",
          "political"
        ]
      },
      {
        "long_name": "Brinlack",
        "short_name": "Brinlack",
        "types": [
          "neighborhood",
          "political"
        ]
      },
      {
        "long_name": "County Donegal",
        "short_name": "DL",
        "types": [
          "administrative_area_level_1",
          "political"
        ]
      },
      {
        "long_name": "Ireland",
        "short_name": "IE",
        "types": [
          "country",
          "political"
        ]
      }
    ],
    "formatted_address": "Brinlack, Co. Donegal, Ireland",
    "geometry": {
      "location": {
        "lat": 55.1297357,
        "lng": -8.2804066
      },
      "location_type": "APPROXIMATE",
      "viewport": {
        "northeast": {
          "lat": 55.1310846802915,
          "lng": -8.279057619708498
        },
        "southwest": {
          "lat": 55.1283867197085,
          "lng": -8.2817555802915
        }
      }
    },
    "place_id": "ChIJIcnaM1Z_X0gRNNcAazYDEvA",
    "types": [
      "locality",
      "political"
    ]
  },
  {
    "area_id": 1551,
    "area_name": "Aughkeely",
    "county_name": "Donegal",
    "county_id": 24,
    "address_components": [
      {
        "long_name": "Aughkeely",
        "short_name": "Aughkeely",
        "types": [
          "neighborhood",
          "political"
        ]
      },
      {
        "long_name": "County Donegal",
        "short_name": "DL",
        "types": [
          "administrative_area_level_1",
          "political"
        ]
      },
      {
        "long_name": "Ireland",
        "short_name": "IE",
        "types": [
          "country",
          "political"
        ]
      }
    ],
    "formatted_address": "Aughkeely, Co. Donegal, Ireland",
    "geometry": {
      "bounds": {
        "northeast": {
          "lat": 54.8760393,
          "lng": -7.7949053
        },
        "southwest": {
          "lat": 54.8600084,
          "lng": -7.829156199999999
        }
      },
      "location": {
        "lat": 54.8655808,
        "lng": -7.8106092
      },
      "location_type": "APPROXIMATE",
      "viewport": {
        "northeast": {
          "lat": 54.8760393,
          "lng": -7.7949053
        },
        "southwest": {
          "lat": 54.8600084,
          "lng": -7.829156199999999
        }
      }
    },
    "place_id": "ChIJlZFSnRO-X0gREPItIhArGrc",
    "types": [
      "neighborhood",
      "political"
    ]
  },
  {
    "area_id": 1119,
    "area_name": "Ballygorman",
    "county_name": "Donegal",
    "county_id": 24,
    "address_components": [
      {
        "long_name": "Ballygorman",
        "short_name": "Ballygorman",
        "types": [
          "locality",
          "political"
        ]
      },
      {
        "long_name": "Ballygorman",
        "short_name": "Ballygorman",
        "types": [
          "neighborhood",
          "political"
        ]
      },
      {
        "long_name": "County Donegal",
        "short_name": "DL",
        "types": [
          "administrative_area_level_1",
          "political"
        ]
      },
      {
        "long_name": "Ireland",
        "short_name": "IE",
        "types": [
          "country",
          "political"
        ]
      }
    ],
    "formatted_address": "Ballygorman, Co. Donegal, Ireland",
    "geometry": {
      "location": {
        "lat": 55.3622953,
        "lng": -7.336811
      },
      "location_type": "APPROXIMATE",
      "viewport": {
        "northeast": {
          "lat": 55.3636442802915,
          "lng": -7.335462019708498
        },
        "southwest": {
          "lat": 55.3609463197085,
          "lng": -7.338159980291502
        }
      }
    },
    "place_id": "ChIJc2AgWKCsikgRbPs2xZfUcVg",
    "types": [
      "locality",
      "political"
    ]
  },
  {
    "area_id": 1183,
    "area_name": "Arryheernabin",
    "county_name": "Donegal",
    "county_id": 24,
    "address_components": [
      {
        "long_name": "Arryheernabin",
        "short_name": "Arryheernabin",
        "types": [
          "neighborhood",
          "political"
        ]
      },
      {
        "long_name": "Shannagh",
        "short_name": "Shannagh",
        "types": [
          "political",
          "sublocality",
          "sublocality_level_1"
        ]
      },
      {
        "long_name": "County Donegal",
        "short_name": "DL",
        "types": [
          "administrative_area_level_1",
          "political"
        ]
      },
      {
        "long_name": "Ireland",
        "short_name": "IE",
        "types": [
          "country",
          "political"
        ]
      }
    ],
    "formatted_address": "Arryheernabin, Shannagh, Co. Donegal, Ireland",
    "geometry": {
      "bounds": {
        "northeast": {
          "lat": 55.2789543,
          "lng": -7.6255404
        },
        "southwest": {
          "lat": 55.2625271,
          "lng": -7.653128999999999
        }
      },
      "location": {
        "lat": 55.2687763,
        "lng": -7.6398009
      },
      "location_type": "APPROXIMATE",
      "viewport": {
        "northeast": {
          "lat": 55.2789543,
          "lng": -7.6255404
        },
        "southwest": {
          "lat": 55.2625271,
          "lng": -7.653128999999999
        }
      }
    },
    "place_id": "ChIJsbhXdWFY9UgRQqxgytBoC5g",
    "types": [
      "neighborhood",
      "political"
    ]
  },
  {
    "area_id": 1581,
    "area_name": "Manorcunningham",
    "county_name": "Donegal",
    "county_id": 24,
    "address_components": [
      {
        "long_name": "Manorcunningham",
        "short_name": "Manorcunningham",
        "types": [
          "locality",
          "political"
        ]
      },
      {
        "long_name": "Manorcunningham",
        "short_name": "Manorcunningham",
        "types": [
          "neighborhood",
          "political"
        ]
      },
      {
        "long_name": "County Donegal",
        "short_name": "DL",
        "types": [
          "administrative_area_level_1",
          "political"
        ]
      },
      {
        "long_name": "Ireland",
        "short_name": "IE",
        "types": [
          "country",
          "political"
        ]
      }
    ],
    "formatted_address": "Manorcunningham, Co. Donegal, Ireland",
    "geometry": {
      "location": {
        "lat": 54.9552585,
        "lng": -7.6233678
      },
      "location_type": "APPROXIMATE",
      "viewport": {
        "northeast": {
          "lat": 54.9566074802915,
          "lng": -7.622018819708497
        },
        "southwest": {
          "lat": 54.9539095197085,
          "lng": -7.624716780291502
        }
      }
    },
    "place_id": "ChIJBYEA-9nrX0gR4BIyl6nHAAo",
    "types": [
      "locality",
      "political"
    ]
  },
  {
    "area_id": 1435,
    "area_name": "Meenacross",
    "county_name": "Donegal",
    "county_id": 24,
    "address_components": [
      {
        "long_name": "Meenacross",
        "short_name": "Meenacross",
        "types": [
          "neighborhood",
          "political"
        ]
      },
      {
        "long_name": "County Donegal",
        "short_name": "DL",
        "types": [
          "administrative_area_level_1",
          "political"
        ]
      },
      {
        "long_name": "Ireland",
        "short_name": "IE",
        "types": [
          "country",
          "political"
        ]
      }
    ],
    "formatted_address": "Meenacross, Co. Donegal, Ireland",
    "geometry": {
      "bounds": {
        "northeast": {
          "lat": 54.9093577,
          "lng": -8.3743397
        },
        "southwest": {
          "lat": 54.8879396,
          "lng": -8.4039359
        }
      },
      "location": {
        "lat": 54.90178599999999,
        "lng": -8.3911647
      },
      "location_type": "APPROXIMATE",
      "viewport": {
        "northeast": {
          "lat": 54.9093577,
          "lng": -8.3743397
        },
        "southwest": {
          "lat": 54.8879396,
          "lng": -8.4039359
        }
      }
    },
    "place_id": "ChIJyTx_iVJyX0gRYSe7GajHACY",
    "types": [
      "neighborhood",
      "political"
    ]
  },
  {
    "area_id": 1201,
    "area_name": "Ballyliffin",
    "county_name": "Donegal",
    "county_id": 24,
    "address_components": [
      {
        "long_name": "Ballyliffin",
        "short_name": "Ballyliffin",
        "types": [
          "locality",
          "political"
        ]
      },
      {
        "long_name": "Ballyliffin",
        "short_name": "Ballyliffin",
        "types": [
          "neighborhood",
          "political"
        ]
      },
      {
        "long_name": "County Donegal",
        "short_name": "DL",
        "types": [
          "administrative_area_level_1",
          "political"
        ]
      },
      {
        "long_name": "Ireland",
        "short_name": "IE",
        "types": [
          "country",
          "political"
        ]
      }
    ],
    "formatted_address": "Ballyliffin, Co. Donegal, Ireland",
    "geometry": {
      "location": {
        "lat": 55.2784391,
        "lng": -7.3942123
      },
      "location_type": "APPROXIMATE",
      "viewport": {
        "northeast": {
          "lat": 55.2797880802915,
          "lng": -7.392863319708497
        },
        "southwest": {
          "lat": 55.2770901197085,
          "lng": -7.395561280291501
        }
      }
    },
    "place_id": "ChIJN6lksXBV9UgREMExl6nHAAo",
    "types": [
      "locality",
      "political"
    ]
  },
  {
    "area_id": 1125,
    "area_name": "Meenaclady",
    "county_name": "Donegal",
    "county_id": 24,
    "address_components": [
      {
        "long_name": "Meenaclady",
        "short_name": "Meenaclady",
        "types": [
          "neighborhood",
          "political"
        ]
      },
      {
        "long_name": "County Donegal",
        "short_name": "DL",
        "types": [
          "administrative_area_level_1",
          "political"
        ]
      },
      {
        "long_name": "Ireland",
        "short_name": "IE",
        "types": [
          "country",
          "political"
        ]
      }
    ],
    "formatted_address": "Meenaclady, Co. Donegal, Ireland",
    "geometry": {
      "bounds": {
        "northeast": {
          "lat": 55.1550114,
          "lng": -8.2290201
        },
        "southwest": {
          "lat": 55.1238943,
          "lng": -8.266753099999999
        }
      },
      "location": {
        "lat": 55.1391,
        "lng": -8.249252799999999
      },
      "location_type": "APPROXIMATE",
      "viewport": {
        "northeast": {
          "lat": 55.1550114,
          "lng": -8.2290201
        },
        "southwest": {
          "lat": 55.1238943,
          "lng": -8.266753099999999
        }
      }
    },
    "place_id": "ChIJbZYEnJOBX0gR4dCv3MbVxUQ",
    "types": [
      "neighborhood",
      "political"
    ]
  },
  {
    "area_id": 1427,
    "area_name": "Meenavean",
    "county_name": "Donegal",
    "county_id": 24,
    "address_components": [
      {
        "long_name": "Meenavean",
        "short_name": "Meenavean",
        "types": [
          "neighborhood",
          "political"
        ]
      },
      {
        "long_name": "County Donegal",
        "short_name": "DL",
        "types": [
          "administrative_area_level_1",
          "political"
        ]
      },
      {
        "long_name": "Ireland",
        "short_name": "IE",
        "types": [
          "country",
          "political"
        ]
      }
    ],
    "formatted_address": "Meenavean, Co. Donegal, Ireland",
    "geometry": {
      "bounds": {
        "northeast": {
          "lat": 54.686682,
          "lng": -8.6753906
        },
        "southwest": {
          "lat": 54.6676592,
          "lng": -8.7173055
        }
      },
      "location": {
        "lat": 54.6755143,
        "lng": -8.69765
      },
      "location_type": "APPROXIMATE",
      "viewport": {
        "northeast": {
          "lat": 54.686682,
          "lng": -8.6753906
        },
        "southwest": {
          "lat": 54.6676592,
          "lng": -8.7173055
        }
      }
    },
    "place_id": "ChIJAdRr6-A8X0gRAixOu6fHACY",
    "types": [
      "neighborhood",
      "political"
    ]
  },
  {
    "area_id": 1588,
    "area_name": "Ardagh",
    "county_name": "Donegal",
    "county_id": 24,
    "address_components": [
      {
        "long_name": "Ardagh",
        "short_name": "Ardagh",
        "types": [
          "neighborhood",
          "political"
        ]
      },
      {
        "long_name": "County Donegal",
        "short_name": "DL",
        "types": [
          "administrative_area_level_1",
          "political"
        ]
      },
      {
        "long_name": "Ireland",
        "short_name": "IE",
        "types": [
          "country",
          "political"
        ]
      }
    ],
    "formatted_address": "Ardagh, Co. Donegal, Ireland",
    "geometry": {
      "bounds": {
        "northeast": {
          "lat": 55.2931162,
          "lng": -7.3831371
        },
        "southwest": {
          "lat": 55.2791866,
          "lng": -7.424754999999999
        }
      },
      "location": {
        "lat": 55.2863967,
        "lng": -7.401362199999999
      },
      "location_type": "APPROXIMATE",
      "viewport": {
        "northeast": {
          "lat": 55.2931162,
          "lng": -7.3831371
        },
        "southwest": {
          "lat": 55.2791866,
          "lng": -7.424754999999999
        }
      }
    },
    "place_id": "ChIJoWXXvHVV9UgRECvpN6nHABg",
    "types": [
      "neighborhood",
      "political"
    ]
  },
  {
    "area_id": 3929,
    "area_name": "Arranmore",
    "county_name": "Donegal",
    "county_id": 24,
    "address_components": [
      {
        "long_name": "Arranmore",
        "short_name": "Arranmore",
        "types": [
          "establishment",
          "natural_feature"
        ]
      },
      {
        "long_name": "County Donegal",
        "short_name": "DL",
        "types": [
          "administrative_area_level_1",
          "political"
        ]
      },
      {
        "long_name": "Ireland",
        "short_name": "IE",
        "types": [
          "country",
          "political"
        ]
      }
    ],
    "formatted_address": "Arranmore, Co. Donegal, Ireland",
    "geometry": {
      "bounds": {
        "northeast": {
          "lat": 55.0227484,
          "lng": -8.4858973
        },
        "southwest": {
          "lat": 54.96850670000001,
          "lng": -8.569545
        }
      },
      "location": {
        "lat": 54.9874345,
        "lng": -8.5350585
      },
      "location_type": "APPROXIMATE",
      "viewport": {
        "northeast": {
          "lat": 55.0227484,
          "lng": -8.4858973
        },
        "southwest": {
          "lat": 54.96850670000001,
          "lng": -8.569545
        }
      }
    },
    "place_id": "ChIJc4c6o5dvX0gRfypB0_z_FQ0",
    "types": [
      "establishment",
      "natural_feature"
    ]
  },
  {
    "area_id": 1130,
    "area_name": "Annagry",
    "county_name": "Donegal",
    "county_id": 24,
    "address_components": [
      {
        "long_name": "Annagry",
        "short_name": "Annagry",
        "types": [
          "locality",
          "political"
        ]
      },
      {
        "long_name": "Illannavoree",
        "short_name": "Illannavoree",
        "types": [
          "neighborhood",
          "political"
        ]
      },
      {
        "long_name": "County Donegal",
        "short_name": "DL",
        "types": [
          "administrative_area_level_1",
          "political"
        ]
      },
      {
        "long_name": "Ireland",
        "short_name": "IE",
        "types": [
          "country",
          "political"
        ]
      }
    ],
    "formatted_address": "Illannavoree, Annagry, Co. Donegal, Ireland",
    "geometry": {
      "location": {
        "lat": 55.02044,
        "lng": -8.31366
      },
      "location_type": "APPROXIMATE",
      "viewport": {
        "northeast": {
          "lat": 55.0217889802915,
          "lng": -8.312311019708497
        },
        "southwest": {
          "lat": 55.0190910197085,
          "lng": -8.315008980291502
        }
      }
    },
    "place_id": "ChIJ-8OyvHB3X0gRENExl6nHAAo",
    "types": [
      "locality",
      "political"
    ]
  },
  {
    "area_id": 1434,
    "area_name": "Maghery",
    "county_name": "Donegal",
    "county_id": 24,
    "address_components": [
      {
        "long_name": "Maghery",
        "short_name": "Maghery",
        "types": [
          "locality",
          "political"
        ]
      },
      {
        "long_name": "Maghery Glebe",
        "short_name": "Maghery Glebe",
        "types": [
          "neighborhood",
          "political"
        ]
      },
      {
        "long_name": "County Donegal",
        "short_name": "DL",
        "types": [
          "administrative_area_level_1",
          "political"
        ]
      },
      {
        "long_name": "Ireland",
        "short_name": "IE",
        "types": [
          "country",
          "political"
        ]
      }
    ],
    "formatted_address": "Maghery Glebe, Maghery, Co. Donegal, Ireland",
    "geometry": {
      "location": {
        "lat": 54.92927049999999,
        "lng": -8.4417677
      },
      "location_type": "APPROXIMATE",
      "viewport": {
        "northeast": {
          "lat": 54.9306194802915,
          "lng": -8.440418719708498
        },
        "southwest": {
          "lat": 54.9279215197085,
          "lng": -8.443116680291501
        }
      }
    },
    "place_id": "ChIJD9buZxxyX0gRIM4xl6nHAAo",
    "types": [
      "locality",
      "political"
    ]
  },
  {
    "area_id": 1484,
    "area_name": "Ballynacarrick",
    "county_name": "Donegal",
    "county_id": 24,
    "address_components": [
      {
        "long_name": "Ballynacarrick",
        "short_name": "Ballynacarrick",
        "types": [
          "locality",
          "political"
        ]
      },
      {
        "long_name": "Boyoughter",
        "short_name": "Boyoughter",
        "types": [
          "neighborhood",
          "political"
        ]
      },
      {
        "long_name": "County Donegal",
        "short_name": "DL",
        "types": [
          "administrative_area_level_1",
          "political"
        ]
      },
      {
        "long_name": "Ireland",
        "short_name": "IE",
        "types": [
          "country",
          "political"
        ]
      }
    ],
    "formatted_address": "Boyoughter, Ballynacarrick, Co. Donegal, Ireland",
    "geometry": {
      "location": {
        "lat": 54.86659,
        "lng": -8.27778
      },
      "location_type": "APPROXIMATE",
      "viewport": {
        "northeast": {
          "lat": 54.86793898029151,
          "lng": -8.276431019708498
        },
        "southwest": {
          "lat": 54.86524101970851,
          "lng": -8.279128980291503
        }
      }
    },
    "place_id": "ChIJ_969TNB0X0gRMLffN6nHABg",
    "types": [
      "locality",
      "political"
    ]
  },
  {
    "area_id": 3849,
    "area_name": "Burt",
    "county_name": "Donegal",
    "county_id": 24,
    "address_components": [
      {
        "long_name": "Burt",
        "short_name": "Burt",
        "types": [
          "locality",
          "political"
        ]
      },
      {
        "long_name": "Carrownamaddy",
        "short_name": "Carrownamaddy",
        "types": [
          "neighborhood",
          "political"
        ]
      },
      {
        "long_name": "County Donegal",
        "short_name": "DL",
        "types": [
          "administrative_area_level_1",
          "political"
        ]
      },
      {
        "long_name": "Ireland",
        "short_name": "IE",
        "types": [
          "country",
          "political"
        ]
      }
    ],
    "formatted_address": "Carrownamaddy, Burt, Co. Donegal, Ireland",
    "geometry": {
      "location": {
        "lat": 55.04004,
        "lng": -7.42848
      },
      "location_type": "APPROXIMATE",
      "viewport": {
        "northeast": {
          "lat": 55.04138898029149,
          "lng": -7.427131019708498
        },
        "southwest": {
          "lat": 55.0386910197085,
          "lng": -7.429828980291503
        }
      }
    },
    "place_id": "ChIJCXrNLbflX0gR8MrfN6nHABg",
    "types": [
      "locality",
      "political"
    ]
  },
  {
    "area_id": 1540,
    "area_name": "Old Town",
    "county_name": "Donegal",
    "county_id": 24,
    "address_components": [
      {
        "long_name": "Old Town",
        "short_name": "Old Town",
        "types": [
          "locality",
          "political"
        ]
      },
      {
        "long_name": "Oldtown",
        "short_name": "Oldtown",
        "types": [
          "neighborhood",
          "political"
        ]
      },
      {
        "long_name": "County Donegal",
        "short_name": "DL",
        "types": [
          "administrative_area_level_1",
          "political"
        ]
      },
      {
        "long_name": "Ireland",
        "short_name": "IE",
        "types": [
          "country",
          "political"
        ]
      }
    ],
    "formatted_address": "Oldtown, Old Town, Co. Donegal, Ireland",
    "geometry": {
      "location": {
        "lat": 54.94287,
        "lng": -7.739389999999999
      },
      "location_type": "APPROXIMATE",
      "viewport": {
        "northeast": {
          "lat": 54.9442189802915,
          "lng": -7.738041019708497
        },
        "southwest": {
          "lat": 54.9415210197085,
          "lng": -7.740738980291502
        }
      }
    },
    "partial_match": true,
    "place_id": "ChIJQTKyxtOUX0gR-A73pU3l31Y",
    "types": [
      "locality",
      "political"
    ]
  },
  {
    "area_id": 1234,
    "area_name": "Burnfoot",
    "county_name": "Donegal",
    "county_id": 24,
    "address_components": [
      {
        "long_name": "Burnfoot",
        "short_name": "Burnfoot",
        "types": [
          "locality",
          "political"
        ]
      },
      {
        "long_name": "Ballyederowen",
        "short_name": "Ballyederowen",
        "types": [
          "neighborhood",
          "political"
        ]
      },
      {
        "long_name": "County Donegal",
        "short_name": "DL",
        "types": [
          "administrative_area_level_1",
          "political"
        ]
      },
      {
        "long_name": "Ireland",
        "short_name": "IE",
        "types": [
          "country",
          "political"
        ]
      }
    ],
    "formatted_address": "Ballyederowen, Burnfoot, Co. Donegal, Ireland",
    "geometry": {
      "location": {
        "lat": 55.0583056,
        "lng": -7.4049447
      },
      "location_type": "APPROXIMATE",
      "viewport": {
        "northeast": {
          "lat": 55.0596545802915,
          "lng": -7.403595719708497
        },
        "southwest": {
          "lat": 55.0569566197085,
          "lng": -7.406293680291502
        }
      }
    },
    "place_id": "ChIJ-XJTcp3kX0gRIOQxl6nHAAo",
    "types": [
      "locality",
      "political"
    ]
  },
  {
    "area_id": 1436,
    "area_name": "Derrydruel",
    "county_name": "Donegal",
    "county_id": 24,
    "address_components": [
      {
        "long_name": "Derrydruel",
        "short_name": "Derrydruel",
        "types": [
          "locality",
          "political"
        ]
      },
      {
        "long_name": "Derrydruel Upper",
        "short_name": "Derrydruel Upper",
        "types": [
          "neighborhood",
          "political"
        ]
      },
      {
        "long_name": "County Donegal",
        "short_name": "DL",
        "types": [
          "administrative_area_level_1",
          "political"
        ]
      },
      {
        "long_name": "Ireland",
        "short_name": "IE",
        "types": [
          "country",
          "political"
        ]
      }
    ],
    "formatted_address": "Derrydruel Upper, Derrydruel, Co. Donegal, Ireland",
    "geometry": {
      "location": {
        "lat": 54.90863,
        "lng": -8.350439999999999
      },
      "location_type": "APPROXIMATE",
      "viewport": {
        "northeast": {
          "lat": 54.9099789802915,
          "lng": -8.349091019708498
        },
        "southwest": {
          "lat": 54.9072810197085,
          "lng": -8.3517889802915
        }
      }
    },
    "place_id": "ChIJS_6qNZBzX0gRyZXxxIWHMGs",
    "types": [
      "locality",
      "political"
    ]
  },
  {
    "area_id": 1204,
    "area_name": "Glasmullan",
    "county_name": "Donegal",
    "county_id": 24,
    "address_components": [
      {
        "long_name": "Glassmullan",
        "short_name": "Glassmullan",
        "types": [
          "locality",
          "political"
        ]
      },
      {
        "long_name": "Ballintlieve",
        "short_name": "Ballintlieve",
        "types": [
          "neighborhood",
          "political"
        ]
      },
      {
        "long_name": "County Donegal",
        "short_name": "DL",
        "types": [
          "administrative_area_level_1",
          "political"
        ]
      },
      {
        "long_name": "Ireland",
        "short_name": "IE",
        "types": [
          "country",
          "political"
        ]
      }
    ],
    "formatted_address": "Ballintlieve, Glassmullan, Co. Donegal, Ireland",
    "geometry": {
      "location": {
        "lat": 55.21228,
        "lng": -7.40575
      },
      "location_type": "APPROXIMATE",
      "viewport": {
        "northeast": {
          "lat": 55.2136289802915,
          "lng": -7.404401019708498
        },
        "southwest": {
          "lat": 55.2109310197085,
          "lng": -7.407098980291503
        }
      }
    },
    "place_id": "ChIJhSSn5OX-X0gRSH8dQfyXsU4",
    "types": [
      "locality",
      "political"
    ]
  },
  {
    "area_id": 1885,
    "area_name": "Killybegs",
    "county_name": "Donegal",
    "county_id": 24,
    "address_components": [
      {
        "long_name": "Killybegs",
        "short_name": "Killybegs",
        "types": [
          "locality",
          "political"
        ]
      },
      {
        "long_name": "Killybegs",
        "short_name": "Killybegs",
        "types": [
          "neighborhood",
          "political"
        ]
      },
      {
        "long_name": "County Donegal",
        "short_name": "DL",
        "types": [
          "administrative_area_level_1",
          "political"
        ]
      },
      {
        "long_name": "Ireland",
        "short_name": "IE",
        "types": [
          "country",
          "political"
        ]
      }
    ],
    "formatted_address": "Killybegs, Co. Donegal, Ireland",
    "geometry": {
      "location": {
        "lat": 54.6347625,
        "lng": -8.4547084
      },
      "location_type": "APPROXIMATE",
      "viewport": {
        "northeast": {
          "lat": 54.6361114802915,
          "lng": -8.453359419708498
        },
        "southwest": {
          "lat": 54.6334135197085,
          "lng": -8.456057380291503
        }
      }
    },
    "place_id": "ChIJs4O_Bl0aX0gREBcyl6nHAAo",
    "types": [
      "locality",
      "political"
    ]
  },
  {
    "area_id": 1516,
    "area_name": "Graffy",
    "county_name": "Donegal",
    "county_id": 24,
    "address_components": [
      {
        "long_name": "Graffy",
        "short_name": "Graffy",
        "types": [
          "neighborhood",
          "political"
        ]
      },
      {
        "long_name": "County Donegal",
        "short_name": "DL",
        "types": [
          "administrative_area_level_1",
          "political"
        ]
      },
      {
        "long_name": "Ireland",
        "short_name": "IE",
        "types": [
          "country",
          "political"
        ]
      }
    ],
    "formatted_address": "Graffy, Co. Donegal, Ireland",
    "geometry": {
      "bounds": {
        "northeast": {
          "lat": 54.8194485,
          "lng": -8.157852
        },
        "southwest": {
          "lat": 54.80387349999999,
          "lng": -8.1812073
        }
      },
      "location": {
        "lat": 54.8121746,
        "lng": -8.1682749
      },
      "location_type": "APPROXIMATE",
      "viewport": {
        "northeast": {
          "lat": 54.8194485,
          "lng": -8.157852
        },
        "southwest": {
          "lat": 54.80387349999999,
          "lng": -8.1812073
        }
      }
    },
    "place_id": "ChIJ_eZMyoWgX0gRD3OvlJ8aSYo",
    "types": [
      "neighborhood",
      "political"
    ]
  },
  {
    "area_id": 1132,
    "area_name": "Crolly",
    "county_name": "Donegal",
    "county_id": 24,
    "address_components": [
      {
        "long_name": "Crolly",
        "short_name": "Crolly",
        "types": [
          "locality",
          "political"
        ]
      },
      {
        "long_name": "Killindarragh",
        "short_name": "Killindarragh",
        "types": [
          "neighborhood",
          "political"
        ]
      },
      {
        "long_name": "County Donegal",
        "short_name": "DL",
        "types": [
          "administrative_area_level_1",
          "political"
        ]
      },
      {
        "long_name": "Ireland",
        "short_name": "IE",
        "types": [
          "country",
          "political"
        ]
      }
    ],
    "formatted_address": "Killindarragh, Crolly, Co. Donegal, Ireland",
    "geometry": {
      "location": {
        "lat": 55.0272452,
        "lng": -8.260615
      },
      "location_type": "APPROXIMATE",
      "viewport": {
        "northeast": {
          "lat": 55.0285941802915,
          "lng": -8.259266019708498
        },
        "southwest": {
          "lat": 55.0258962197085,
          "lng": -8.261963980291503
        }
      }
    },
    "place_id": "ChIJmY1DjPl3X0gR0PYxl6nHAAo",
    "types": [
      "locality",
      "political"
    ]
  },
  {
    "area_id": 1432,
    "area_name": "Burtonport",
    "county_name": "Donegal",
    "county_id": 24,
    "address_components": [
      {
        "long_name": "Burtonport",
        "short_name": "Burtonport",
        "types": [
          "locality",
          "political"
        ]
      },
      {
        "long_name": "Burtonport",
        "short_name": "Burtonport",
        "types": [
          "neighborhood",
          "political"
        ]
      },
      {
        "long_name": "County Donegal",
        "short_name": "DL",
        "types": [
          "administrative_area_level_1",
          "political"
        ]
      },
      {
        "long_name": "Ireland",
        "short_name": "IE",
        "types": [
          "country",
          "political"
        ]
      }
    ],
    "formatted_address": "Burtonport, Co. Donegal, Ireland",
    "geometry": {
      "location": {
        "lat": 54.9845286,
        "lng": -8.4326581
      },
      "location_type": "APPROXIMATE",
      "viewport": {
        "northeast": {
          "lat": 54.9858775802915,
          "lng": -8.431309119708498
        },
        "southwest": {
          "lat": 54.9831796197085,
          "lng": -8.434007080291503
        }
      }
    },
    "place_id": "ChIJC8maIE5wX0gREMcxl6nHAAo",
    "types": [
      "locality",
      "political"
    ]
  },
  {
    "area_id": 1915,
    "area_name": "Inver",
    "county_name": "Donegal",
    "county_id": 24,
    "address_components": [
      {
        "long_name": "Inver",
        "short_name": "Inver",
        "types": [
          "locality",
          "political"
        ]
      },
      {
        "long_name": "Inver Glebe",
        "short_name": "Inver Glebe",
        "types": [
          "neighborhood",
          "political"
        ]
      },
      {
        "long_name": "County Donegal",
        "short_name": "DL",
        "types": [
          "administrative_area_level_1",
          "political"
        ]
      },
      {
        "long_name": "Ireland",
        "short_name": "IE",
        "types": [
          "country",
          "political"
        ]
      }
    ],
    "formatted_address": "Inver Glebe, Inver, Co. Donegal, Ireland",
    "geometry": {
      "location": {
        "lat": 54.6523501,
        "lng": -8.289339499999999
      },
      "location_type": "APPROXIMATE",
      "viewport": {
        "northeast": {
          "lat": 54.6536990802915,
          "lng": -8.287990519708497
        },
        "southwest": {
          "lat": 54.6510011197085,
          "lng": -8.290688480291502
        }
      }
    },
    "place_id": "ChIJT4NumJcFX0gRVoaJmJVESvI",
    "types": [
      "locality",
      "political"
    ]
  },
  {
    "area_id": 1225,
    "area_name": "Ballymagan",
    "county_name": "Donegal",
    "county_id": 24,
    "address_components": [
      {
        "long_name": "Ballymagan",
        "short_name": "Ballymagan",
        "types": [
          "locality",
          "political"
        ]
      },
      {
        "long_name": "Cleenagh",
        "short_name": "Cleenagh",
        "types": [
          "neighborhood",
          "political"
        ]
      },
      {
        "long_name": "County Donegal",
        "short_name": "DL",
        "types": [
          "administrative_area_level_1",
          "political"
        ]
      },
      {
        "long_name": "Ireland",
        "short_name": "IE",
        "types": [
          "country",
          "political"
        ]
      }
    ],
    "formatted_address": "Cleenagh, Ballymagan, Co. Donegal, Ireland",
    "geometry": {
      "location": {
        "lat": 55.1527,
        "lng": -7.41743
      },
      "location_type": "APPROXIMATE",
      "viewport": {
        "northeast": {
          "lat": 55.15404898029149,
          "lng": -7.416081019708497
        },
        "southwest": {
          "lat": 55.15135101970849,
          "lng": -7.418778980291502
        }
      }
    },
    "place_id": "ChIJl39-FMH9X0gRMLXfN6nHABg",
    "types": [
      "locality",
      "political"
    ]
  },
  {
    "area_id": 1506,
    "area_name": "Frosses",
    "county_name": "Donegal",
    "county_id": 24,
    "address_components": [
      {
        "long_name": "Frosses",
        "short_name": "Frosses",
        "types": [
          "locality",
          "political"
        ]
      },
      {
        "long_name": "Ballybrollaghan",
        "short_name": "Ballybrollaghan",
        "types": [
          "neighborhood",
          "political"
        ]
      },
      {
        "long_name": "County Donegal",
        "short_name": "DL",
        "types": [
          "administrative_area_level_1",
          "political"
        ]
      },
      {
        "long_name": "Ireland",
        "short_name": "IE",
        "types": [
          "country",
          "political"
        ]
      }
    ],
    "formatted_address": "Ballybrollaghan, Frosses, Co. Donegal, Ireland",
    "geometry": {
      "location": {
        "lat": 54.6687695,
        "lng": -8.243579
      },
      "location_type": "APPROXIMATE",
      "viewport": {
        "northeast": {
          "lat": 54.6701184802915,
          "lng": -8.242230019708499
        },
        "southwest": {
          "lat": 54.6674205197085,
          "lng": -8.244927980291504
        }
      }
    },
    "place_id": "ChIJv33jPxAGX0gRUBcyl6nHAAo",
    "types": [
      "locality",
      "political"
    ]
  },
  {
    "area_id": 1969,
    "area_name": "Carn",
    "county_name": "Donegal",
    "county_id": 24,
    "address_components": [
      {
        "long_name": "Carndonagh",
        "short_name": "Carndonagh",
        "types": [
          "locality",
          "political"
        ]
      },
      {
        "long_name": "Gort Glebe",
        "short_name": "Gort Glebe",
        "types": [
          "neighborhood",
          "political"
        ]
      },
      {
        "long_name": "County Donegal",
        "short_name": "DL",
        "types": [
          "administrative_area_level_1",
          "political"
        ]
      },
      {
        "long_name": "Ireland",
        "short_name": "IE",
        "types": [
          "country",
          "political"
        ]
      }
    ],
    "formatted_address": "Gort Glebe, Carndonagh, Co. Donegal, Ireland",
    "geometry": {
      "location": {
        "lat": 55.2506229,
        "lng": -7.266890500000001
      },
      "location_type": "APPROXIMATE",
      "viewport": {
        "northeast": {
          "lat": 55.25197188029149,
          "lng": -7.265541519708498
        },
        "southwest": {
          "lat": 55.2492739197085,
          "lng": -7.268239480291503
        }
      }
    },
    "place_id": "ChIJgza0YrYBYEgREOgxl6nHAAo",
    "types": [
      "locality",
      "political"
    ]
  },
  {
    "area_id": 1424,
    "area_name": "Glencolmcille",
    "county_name": "Donegal",
    "county_id": 24,
    "address_components": [
      {
        "long_name": "Glencolumbkille",
        "short_name": "Glencolumbkille",
        "types": [
          "locality",
          "political"
        ]
      },
      {
        "long_name": "Straid",
        "short_name": "Straid",
        "types": [
          "neighborhood",
          "political"
        ]
      },
      {
        "long_name": "County Donegal",
        "short_name": "DL",
        "types": [
          "administrative_area_level_1",
          "political"
        ]
      },
      {
        "long_name": "Ireland",
        "short_name": "IE",
        "types": [
          "country",
          "political"
        ]
      }
    ],
    "formatted_address": "Straid, Glencolumbkille, Co. Donegal, Ireland",
    "geometry": {
      "location": {
        "lat": 54.7080885,
        "lng": -8.7295157
      },
      "location_type": "APPROXIMATE",
      "viewport": {
        "northeast": {
          "lat": 54.70943748029151,
          "lng": -8.728166719708499
        },
        "southwest": {
          "lat": 54.70673951970851,
          "lng": -8.730864680291502
        }
      }
    },
    "place_id": "ChIJrfRPnkE8X0gRPXsClmCELMc",
    "types": [
      "locality",
      "political"
    ]
  },
  {
    "area_id": 1527,
    "area_name": "Drumbologe",
    "county_name": "Donegal",
    "county_id": 24,
    "address_components": [
      {
        "long_name": "Drumbologe",
        "short_name": "Drumbologe",
        "types": [
          "neighborhood",
          "political"
        ]
      },
      {
        "long_name": "County Donegal",
        "short_name": "DL",
        "types": [
          "administrative_area_level_1",
          "political"
        ]
      },
      {
        "long_name": "Ireland",
        "short_name": "IE",
        "types": [
          "country",
          "political"
        ]
      }
    ],
    "formatted_address": "Drumbologe, Co. Donegal, Ireland",
    "geometry": {
      "bounds": {
        "northeast": {
          "lat": 54.9670497,
          "lng": -7.8679239
        },
        "southwest": {
          "lat": 54.9559361,
          "lng": -7.887259199999999
        }
      },
      "location": {
        "lat": 54.9627233,
        "lng": -7.8764378
      },
      "location_type": "APPROXIMATE",
      "viewport": {
        "northeast": {
          "lat": 54.9670497,
          "lng": -7.8679239
        },
        "southwest": {
          "lat": 54.9559361,
          "lng": -7.887259199999999
        }
      }
    },
    "place_id": "ChIJYe6YMbCWX0gRGK3dztt4RHY",
    "types": [
      "neighborhood",
      "political"
    ]
  },
  {
    "area_id": 1185,
    "area_name": "Doagh Beg",
    "county_name": "Donegal",
    "county_id": 24,
    "address_components": [
      {
        "long_name": "Doagh Beg",
        "short_name": "Doagh Beg",
        "types": [
          "locality",
          "political"
        ]
      },
      {
        "long_name": "Pollet",
        "short_name": "Pollet",
        "types": [
          "neighborhood",
          "political"
        ]
      },
      {
        "long_name": "County Donegal",
        "short_name": "DL",
        "types": [
          "administrative_area_level_1",
          "political"
        ]
      },
      {
        "long_name": "Ireland",
        "short_name": "IE",
        "types": [
          "country",
          "political"
        ]
      }
    ],
    "formatted_address": "Pollet, Doagh Beg, Co. Donegal, Ireland",
    "geometry": {
      "location": {
        "lat": 55.25113409999999,
        "lng": -7.6274441
      },
      "location_type": "APPROXIMATE",
      "viewport": {
        "northeast": {
          "lat": 55.2524830802915,
          "lng": -7.626095119708498
        },
        "southwest": {
          "lat": 55.2497851197085,
          "lng": -7.628793080291502
        }
      }
    },
    "place_id": "ChIJszqeBtr3X0gRQshRu6fHACY",
    "types": [
      "locality",
      "political"
    ]
  },
  {
    "area_id": 1531,
    "area_name": "Cloghan",
    "county_name": "Donegal",
    "county_id": 24,
    "address_components": [
      {
        "long_name": "Cloghan",
        "short_name": "Cloghan",
        "types": [
          "locality",
          "political"
        ]
      },
      {
        "long_name": "Cloghan Beg",
        "short_name": "Cloghan Beg",
        "types": [
          "neighborhood",
          "political"
        ]
      },
      {
        "long_name": "County Donegal",
        "short_name": "DL",
        "types": [
          "administrative_area_level_1",
          "political"
        ]
      },
      {
        "long_name": "Ireland",
        "short_name": "IE",
        "types": [
          "country",
          "political"
        ]
      }
    ],
    "formatted_address": "Cloghan Beg, Cloghan, Co. Donegal, Ireland",
    "geometry": {
      "location": {
        "lat": 54.8410263,
        "lng": -7.933839
      },
      "location_type": "APPROXIMATE",
      "viewport": {
        "northeast": {
          "lat": 54.8423752802915,
          "lng": -7.932490019708498
        },
        "southwest": {
          "lat": 54.8396773197085,
          "lng": -7.935187980291502
        }
      }
    },
    "place_id": "ChIJaYR41C69X0gRIMsxl6nHAAo",
    "types": [
      "locality",
      "political"
    ]
  },
  {
    "area_id": 1197,
    "area_name": "Kindrohid",
    "county_name": "Donegal",
    "county_id": 24,
    "address_components": [
      {
        "long_name": "Kindrohid",
        "short_name": "Kindrohid",
        "types": [
          "locality",
          "political"
        ]
      },
      {
        "long_name": "Tullagh",
        "short_name": "Tullagh",
        "types": [
          "neighborhood",
          "political"
        ]
      },
      {
        "long_name": "County Donegal",
        "short_name": "DL",
        "types": [
          "administrative_area_level_1",
          "political"
        ]
      },
      {
        "long_name": "Ireland",
        "short_name": "IE",
        "types": [
          "country",
          "political"
        ]
      }
    ],
    "formatted_address": "Tullagh, Kindrohid, Co. Donegal, Ireland",
    "geometry": {
      "location": {
        "lat": 55.27687,
        "lng": -7.46765
      },
      "location_type": "APPROXIMATE",
      "viewport": {
        "northeast": {
          "lat": 55.27821898029151,
          "lng": -7.466301019708498
        },
        "southwest": {
          "lat": 55.27552101970851,
          "lng": -7.468998980291502
        }
      }
    },
    "place_id": "ChIJwzP84whW9UgRT-kA36FS9rg",
    "types": [
      "locality",
      "political"
    ]
  },
  {
    "area_id": 1146,
    "area_name": "Downings",
    "county_name": "Donegal",
    "county_id": 24,
    "address_components": [
      {
        "long_name": "Downings",
        "short_name": "Downings",
        "types": [
          "locality",
          "political"
        ]
      },
      {
        "long_name": "Crocknamurleog",
        "short_name": "Crocknamurleog",
        "types": [
          "neighborhood",
          "political"
        ]
      },
      {
        "long_name": "County Donegal",
        "short_name": "DL",
        "types": [
          "administrative_area_level_1",
          "political"
        ]
      },
      {
        "long_name": "Ireland",
        "short_name": "IE",
        "types": [
          "country",
          "political"
        ]
      }
    ],
    "formatted_address": "Crocknamurleog, Downings, Co. Donegal, Ireland",
    "geometry": {
      "location": {
        "lat": 55.1948628,
        "lng": -7.8369654
      },
      "location_type": "APPROXIMATE",
      "viewport": {
        "northeast": {
          "lat": 55.1962117802915,
          "lng": -7.835616419708497
        },
        "southwest": {
          "lat": 55.1935138197085,
          "lng": -7.838314380291502
        }
      }
    },
    "place_id": "ChIJVW072R2LX0gRIkXHGajHACY",
    "types": [
      "locality",
      "political"
    ]
  },
  {
    "area_id": 1127,
    "area_name": "Derrybeg",
    "county_name": "Donegal",
    "county_id": 24,
    "address_components": [
      {
        "long_name": "Derrybeg",
        "short_name": "Derrybeg",
        "types": [
          "locality",
          "political"
        ]
      },
      {
        "long_name": "Ardnagappary",
        "short_name": "Ardnagappary",
        "types": [
          "neighborhood",
          "political"
        ]
      },
      {
        "long_name": "County Donegal",
        "short_name": "DL",
        "types": [
          "administrative_area_level_1",
          "political"
        ]
      },
      {
        "long_name": "Ireland",
        "short_name": "IE",
        "types": [
          "country",
          "political"
        ]
      }
    ],
    "formatted_address": "Ardnagappary, Derrybeg, Co. Donegal, Ireland",
    "geometry": {
      "location": {
        "lat": 55.0743448,
        "lng": -8.294187299999999
      },
      "location_type": "APPROXIMATE",
      "viewport": {
        "northeast": {
          "lat": 55.0756937802915,
          "lng": -8.292838319708496
        },
        "southwest": {
          "lat": 55.0729958197085,
          "lng": -8.2955362802915
        }
      }
    },
    "place_id": "ChIJu3xWM2B4X0gRwKYxl6nHAAo",
    "types": [
      "locality",
      "political"
    ]
  },
  {
    "area_id": 1632,
    "area_name": "Carrigans",
    "county_name": "Donegal",
    "county_id": 24,
    "address_components": [
      {
        "long_name": "Carrigans",
        "short_name": "Carrigans",
        "types": [
          "locality",
          "political"
        ]
      },
      {
        "long_name": "Carrigans",
        "short_name": "Carrigans",
        "types": [
          "neighborhood",
          "political"
        ]
      },
      {
        "long_name": "County Donegal",
        "short_name": "DL",
        "types": [
          "administrative_area_level_1",
          "political"
        ]
      },
      {
        "long_name": "Ireland",
        "short_name": "IE",
        "types": [
          "country",
          "political"
        ]
      }
    ],
    "formatted_address": "Carrigans, Co. Donegal, Ireland",
    "geometry": {
      "location": {
        "lat": 54.9512185,
        "lng": -7.428285199999999
      },
      "location_type": "APPROXIMATE",
      "viewport": {
        "northeast": {
          "lat": 54.95256748029149,
          "lng": -7.426936219708497
        },
        "southwest": {
          "lat": 54.94986951970849,
          "lng": -7.429634180291502
        }
      }
    },
    "place_id": "ChIJ0wvl-vrmX0gREIUxl6nHAAo",
    "types": [
      "locality",
      "political"
    ]
  },
  {
    "area_id": 1886,
    "area_name": "Dunkineely",
    "county_name": "Donegal",
    "county_id": 24,
    "address_components": [
      {
        "long_name": "Dunkineely",
        "short_name": "Dunkineely",
        "types": [
          "locality",
          "political"
        ]
      },
      {
        "long_name": "Ballymagowan",
        "short_name": "Ballymagowan",
        "types": [
          "neighborhood",
          "political"
        ]
      },
      {
        "long_name": "County Donegal",
        "short_name": "DL",
        "types": [
          "administrative_area_level_1",
          "political"
        ]
      },
      {
        "long_name": "Ireland",
        "short_name": "IE",
        "types": [
          "country",
          "political"
        ]
      }
    ],
    "formatted_address": "Ballymagowan, Dunkineely, Co. Donegal, Ireland",
    "geometry": {
      "location": {
        "lat": 54.6320711,
        "lng": -8.357078699999999
      },
      "location_type": "APPROXIMATE",
      "viewport": {
        "northeast": {
          "lat": 54.6334200802915,
          "lng": -8.355729719708497
        },
        "southwest": {
          "lat": 54.6307221197085,
          "lng": -8.358427680291502
        }
      }
    },
    "place_id": "ChIJr3iCwicFX0gRAP8xl6nHAAo",
    "types": [
      "locality",
      "political"
    ]
  },
  {
    "area_id": 1495,
    "area_name": "Kilrean",
    "county_name": "Donegal",
    "county_id": 24,
    "address_components": [
      {
        "long_name": "Kilrean",
        "short_name": "Kilrean",
        "types": [
          "locality",
          "political"
        ]
      },
      {
        "long_name": "Tullyard",
        "short_name": "Tullyard",
        "types": [
          "neighborhood",
          "political"
        ]
      },
      {
        "long_name": "County Donegal",
        "short_name": "DL",
        "types": [
          "administrative_area_level_1",
          "political"
        ]
      },
      {
        "long_name": "Ireland",
        "short_name": "IE",
        "types": [
          "country",
          "political"
        ]
      }
    ],
    "formatted_address": "Tullyard, Kilrean, Co. Donegal, Ireland",
    "geometry": {
      "location": {
        "lat": 54.7816251,
        "lng": -8.3163689
      },
      "location_type": "APPROXIMATE",
      "viewport": {
        "northeast": {
          "lat": 54.7829740802915,
          "lng": -8.315019919708497
        },
        "southwest": {
          "lat": 54.7802761197085,
          "lng": -8.317717880291502
        }
      }
    },
    "place_id": "ChIJaxQi-hMMX0gRsJKle5TiXl8",
    "types": [
      "locality",
      "political"
    ]
  },
  {
    "area_id": 1884,
    "area_name": "Bruckless",
    "county_name": "Donegal",
    "county_id": 24,
    "address_components": [
      {
        "long_name": "Bruckless",
        "short_name": "Bruckless",
        "types": [
          "locality",
          "political"
        ]
      },
      {
        "long_name": "Bruckless",
        "short_name": "Bruckless",
        "types": [
          "neighborhood",
          "political"
        ]
      },
      {
        "long_name": "County Donegal",
        "short_name": "DL",
        "types": [
          "administrative_area_level_1",
          "political"
        ]
      },
      {
        "long_name": "Ireland",
        "short_name": "IE",
        "types": [
          "country",
          "political"
        ]
      }
    ],
    "formatted_address": "Bruckless, Co. Donegal, Ireland",
    "geometry": {
      "location": {
        "lat": 54.6399972,
        "lng": -8.3882318
      },
      "location_type": "APPROXIMATE",
      "viewport": {
        "northeast": {
          "lat": 54.64134618029149,
          "lng": -8.386882819708497
        },
        "southwest": {
          "lat": 54.63864821970849,
          "lng": -8.389580780291501
        }
      }
    },
    "place_id": "ChIJJTWagMUaX0gRUMgxl6nHAAo",
    "types": [
      "locality",
      "political"
    ]
  },
  {
    "area_id": 1629,
    "area_name": "Church Town",
    "county_name": "Donegal",
    "county_id": 24,
    "address_components": [
      {
        "long_name": "Church Town",
        "short_name": "Church Town",
        "types": [
          "locality",
          "political"
        ]
      },
      {
        "long_name": "Haw",
        "short_name": "Haw",
        "types": [
          "neighborhood",
          "political"
        ]
      },
      {
        "long_name": "County Donegal",
        "short_name": "DL",
        "types": [
          "administrative_area_level_1",
          "political"
        ]
      },
      {
        "long_name": "Ireland",
        "short_name": "IE",
        "types": [
          "country",
          "political"
        ]
      }
    ],
    "formatted_address": "Haw, Church Town, Co. Donegal, Ireland",
    "geometry": {
      "location": {
        "lat": 54.9589745,
        "lng": -7.4728514
      },
      "location_type": "APPROXIMATE",
      "viewport": {
        "northeast": {
          "lat": 54.96032348029149,
          "lng": -7.471502419708497
        },
        "southwest": {
          "lat": 54.95762551970849,
          "lng": -7.474200380291502
        }
      }
    },
    "place_id": "ChIJAY3qSzHmX0gRFORoXXZcJuc",
    "types": [
      "locality",
      "political"
    ]
  },
  {
    "area_id": 1170,
    "area_name": "Creeslough",
    "county_name": "Donegal",
    "county_id": 24,
    "address_components": [
      {
        "long_name": "Creeslough",
        "short_name": "Creeslough",
        "types": [
          "locality",
          "political"
        ]
      },
      {
        "long_name": "Creeslough",
        "short_name": "Creeslough",
        "types": [
          "neighborhood",
          "political"
        ]
      },
      {
        "long_name": "County Donegal",
        "short_name": "DL",
        "types": [
          "administrative_area_level_1",
          "political"
        ]
      },