[
  {
    "area_id": 1992,
    "area_name": "Ballynamallard",
    "county_name": "Fermanagh",
    "county_id": 30,
    "address_components": [
      {
        "long_name": "Ballinamallard",
        "short_name": "Ballinamallard",
        "types": [
          "locality",
          "political"
        ]
      },
      {
        "long_name": "Enniskillen",
        "short_name": "Enniskillen",
        "types": [
          "postal_town"
        ]
      },
      {
        "long_name": "Fermanagh and Omagh",
        "short_name": "Fermanagh and Omagh",
        "types": [
          "administrative_area_level_2",
          "political"
        ]
      },
      {
        "long_name": "Northern Ireland",
        "short_name": "Northern Ireland",
        "types": [
          "administrative_area_level_1",
          "political"
        ]
      },
      {
        "long_name": "United Kingdom",
        "short_name": "GB",
        "types": [
          "country",
          "political"
        ]
      },
      {
        "long_name": "BT94 2FA",
        "short_name": "BT94 2FA",
        "types": [
          "postal_code"
        ]
      }
    ],
    "formatted_address": "Ballinamallard, Enniskillen BT94 2FA, UK",
    "geometry": {
      "location": {
        "lat": 54.42071,
        "lng": -7.594659999999999
      },
      "location_type": "APPROXIMATE",
      "viewport": {
        "northeast": {
          "lat": 54.4220589802915,
          "lng": -7.593311019708497
        },
        "southwest": {
          "lat": 54.4193610197085,
          "lng": -7.596008980291502
        }
      }
    },
    "place_id": "ChIJIRuOOi1IXkgRb-mUOckOxgA",
    "types": [
      "locality",
      "political"
    ]
  },
  {
    "area_id": 1961,
    "area_name": "Aghnablaney",
    "county_name": "Fermanagh",
    "county_id": 30,
    "address_components": [
      {
        "long_name": "Aghnablaney",
        "short_name": "Aghnablaney",
        "types": [
          "locality",
          "political"
        ]
      },
      {
        "long_name": "Enniskillen",
        "short_name": "Enniskillen",
        "types": [
          "postal_town"
        ]
      },
      {
        "long_name": "Fermanagh and Omagh",
        "short_name": "Fermanagh and Omagh",
        "types": [
          "administrative_area_level_2",
          "political"
        ]
      },
      {
        "long_name": "Northern Ireland",
        "short_name": "Northern Ireland",
        "types": [
          "administrative_area_level_1",
          "political"
        ]
      },
      {
        "long_name": "United Kingdom",
        "short_name": "GB",
        "types": [
          "country",
          "political"
        ]
      },
      {
        "long_name": "BT93 2BB",
        "short_name": "BT93 2BB",
        "types": [
          "postal_code"
        ]
      }
    ],
    "formatted_address": "Aghnablaney, Enniskillen BT93 2BB, UK",
    "geometry": {
      "location": {
        "lat": 54.521078,
        "lng": -7.893096999999999
      },
      "location_type": "APPROXIMATE",
      "viewport": {
        "northeast": {
          "lat": 54.52242698029151,
          "lng": -7.891748019708497
        },
        "southwest": {
          "lat": 54.51972901970851,
          "lng": -7.894445980291501
        }
      }
    },
    "place_id": "ChIJIYf_jM5SXkgR7kQiDB7euEQ",
    "types": [
      "locality",
      "political"
    ]
  },
  {
    "area_id": 3380,
    "area_name": "Aghalan",
    "county_name": "Fermanagh",
    "county_id": 30,
    "address_components": [
      {
        "long_name": "County Fermanagh",
        "short_name": "County Fermanagh",
        "types": [
          "colloquial_area",
          "political"
        ]
      },
      {
        "long_name": "Fermanagh and Omagh",
        "short_name": "Fermanagh and Omagh",
        "types": [
          "administrative_area_level_2",
          "political"
        ]
      },
      {
        "long_name": "Northern Ireland",
        "short_name": "Northern Ireland",
        "types": [
          "administrative_area_level_1",
          "political"
        ]
      },
      {
        "long_name": "United Kingdom",
        "short_name": "GB",
        "types": [
          "country",
          "political"
        ]
      }
    ],
    "formatted_address": "County Fermanagh, UK",
    "geometry": {
      "bounds": {
        "northeast": {
          "lat": 54.6074475,
          "lng": -7.1413479
        },
        "southwest": {
          "lat": 54.113288,
          "lng": -8.1774001
        }
      },
      "location": {
        "lat": 54.3439375,
        "lng": -7.6311759
      },
      "location_type": "APPROXIMATE",
      "viewport": {
        "northeast": {
          "lat": 54.6074475,
          "lng": -7.1413479
        },
        "southwest": {
          "lat": 54.113288,
          "lng": -8.1774001
        }
      }
    },
    "partial_match": true,
    "place_id": "ChIJyxsZOB9GXkgREBstirI_DwM",
    "types": [
      "colloquial_area",
      "political"
    ]
  },
  {
    "area_id": 3377,
    "area_name": "Donagh",
    "county_name": "Fermanagh",
    "county_id": 30,
    "address_components": [
      {
        "long_name": "Donagh",
        "short_name": "Donagh",
        "types": [
          "locality",
          "political"
        ]
      },
      {
        "long_name": "Enniskillen",
        "short_name": "Enniskillen",
        "types": [
          "postal_town"
        ]
      },
      {
        "long_name": "Fermanagh and Omagh",
        "short_name": "Fermanagh and Omagh",
        "types": [
          "administrative_area_level_2",
          "political"
        ]
      },
      {
        "long_name": "Northern Ireland",
        "short_name": "Northern Ireland",
        "types": [
          "administrative_area_level_1",
          "political"
        ]
      },
      {
        "long_name": "United Kingdom",
        "short_name": "GB",
        "types": [
          "country",
          "political"
        ]
      },
      {
        "long_name": "BT92 5BE",
        "short_name": "BT92 5BE",
        "types": [
          "postal_code"
        ]
      }
    ],
    "formatted_address": "Donagh, Enniskillen BT92 5BE, UK",
    "geometry": {
      "location": {
        "lat": 54.21611,
        "lng": -7.39132
      },
      "location_type": "APPROXIMATE",
      "viewport": {
        "northeast": {
          "lat": 54.2174589802915,
          "lng": -7.389971019708498
        },
        "southwest": {
          "lat": 54.2147610197085,
          "lng": -7.392668980291502
        }
      }
    },
    "place_id": "ChIJq3uYC_E9XkgRgDyuObU_Dwo",
    "types": [
      "locality",
      "political"
    ]
  },
  {
    "area_id": 3372,
    "area_name": "Ardmoney",
    "county_name": "Fermanagh",
    "county_id": 30,
    "address_components": [
      {
        "long_name": "Ardmoney",
        "short_name": "Ardmoney",
        "types": [
          "locality",
          "political"
        ]
      },
      {
        "long_name": "Enniskillen",
        "short_name": "Enniskillen",
        "types": [
          "postal_town"
        ]
      },
      {
        "long_name": "Fermanagh and Omagh",
        "short_name": "Fermanagh and Omagh",
        "types": [
          "administrative_area_level_2",
          "political"
        ]
      },
      {
        "long_name": "Northern Ireland",
        "short_name": "Northern Ireland",
        "types": [
          "administrative_area_level_1",
          "political"
        ]
      },
      {
        "long_name": "United Kingdom",
        "short_name": "GB",
        "types": [
          "country",
          "political"
        ]
      },
      {
        "long_name": "BT94 4JH",
        "short_name": "BT94 4JH",
        "types": [
          "postal_code"
        ]
      }
    ],
    "formatted_address": "Ardmoney, Enniskillen BT94 4JH, UK",
    "geometry": {
      "location": {
        "lat": 54.31178999999999,
        "lng": -7.361789999999999
      },
      "location_type": "APPROXIMATE",
      "viewport": {
        "northeast": {
          "lat": 54.3131389802915,
          "lng": -7.360441019708498
        },
        "southwest": {
          "lat": 54.3104410197085,
          "lng": -7.363138980291501
        }
      }
    },
    "place_id": "ChIJ8w0B2nE7XkgRQ3zwjUCUww8",
    "types": [
      "locality",
      "political"
    ]
  },
  {
    "area_id": 3366,
    "area_name": "Derrylin",
    "county_name": "Fermanagh",
    "county_id": 30,
    "address_components": [
      {
        "long_name": "Derrylin",
        "short_name": "Derrylin",
        "types": [
          "locality",
          "political"
        ]
      },
      {
        "long_name": "Enniskillen",
        "short_name": "Enniskillen",
        "types": [
          "postal_town"
        ]
      },
      {
        "long_name": "Fermanagh and Omagh",
        "short_name": "Fermanagh and Omagh",
        "types": [
          "administrative_area_level_2",
          "political"
        ]
      },
      {
        "long_name": "Northern Ireland",
        "short_name": "Northern Ireland",
        "types": [
          "administrative_area_level_1",
          "political"
        ]
      },
      {
        "long_name": "United Kingdom",
        "short_name": "GB",
        "types": [
          "country",
          "political"
        ]
      },
      {
        "long_name": "BT92",
        "short_name": "BT92",
        "types": [
          "postal_code",
          "postal_code_prefix"
        ]
      }
    ],
    "formatted_address": "Derrylin, Enniskillen BT92, UK",
    "geometry": {
      "bounds": {
        "northeast": {
          "lat": 54.2029395,
          "lng": -7.559758100000001
        },
        "southwest": {
          "lat": 54.1871433,
          "lng": -7.5807265
        }
      },
      "location": {
        "lat": 54.19624,
        "lng": -7.57145
      },
      "location_type": "APPROXIMATE",
      "viewport": {
        "northeast": {
          "lat": 54.2029395,
          "lng": -7.559758100000001
        },
        "southwest": {
          "lat": 54.1871433,
          "lng": -7.5807265
        }
      }
    },
    "place_id": "ChIJw3j7pINqXkgR0CljvKnULdI",
    "types": [
      "locality",
      "political"
    ]
  },
  {
    "area_id": 3363,
    "area_name": "Bellanaleck",
    "county_name": "Fermanagh",
    "county_id": 30,
    "address_components": [
      {
        "long_name": "Bellanaleck",
        "short_name": "Bellanaleck",
        "types": [
          "locality",
          "political"
        ]
      },
      {
        "long_name": "Enniskillen",
        "short_name": "Enniskillen",
        "types": [
          "postal_town"
        ]
      },
      {
        "long_name": "Fermanagh and Omagh",
        "short_name": "Fermanagh and Omagh",
        "types": [
          "administrative_area_level_2",
          "political"
        ]
      },
      {
        "long_name": "Northern Ireland",
        "short_name": "Northern Ireland",
        "types": [
          "administrative_area_level_1",
          "political"
        ]
      },
      {
        "long_name": "United Kingdom",
        "short_name": "GB",
        "types": [
          "country",
          "political"
        ]
      },
      {
        "long_name": "BT92 2ED",
        "short_name": "BT92 2ED",
        "types": [
          "postal_code"
        ]
      }
    ],
    "formatted_address": "Bellanaleck, Enniskillen BT92 2ED, UK",
    "geometry": {
      "location": {
        "lat": 54.2964196,
        "lng": -7.6422052
      },
      "location_type": "APPROXIMATE",
      "viewport": {
        "northeast": {
          "lat": 54.2977685802915,
          "lng": -7.640856219708498
        },
        "southwest": {
          "lat": 54.2950706197085,
          "lng": -7.643554180291502
        }
      }
    },
    "place_id": "ChIJpw2rQ5hGXkgRPgkSjm_kOnU",
    "types": [
      "locality",
      "political"
    ]
  },
  {
    "area_id": 1974,
    "area_name": "Blaney",
    "county_name": "Fermanagh",
    "county_id": 30,
    "address_components": [
      {
        "long_name": "Blaney",
        "short_name": "Blaney",
        "types": [
          "locality",
          "political"
        ]
      },
      {
        "long_name": "Enniskillen",
        "short_name": "Enniskillen",
        "types": [
          "postal_town"
        ]
      },
      {
        "long_name": "Fermanagh and Omagh",
        "short_name": "Fermanagh and Omagh",
        "types": [
          "administrative_area_level_2",
          "political"
        ]
      },
      {
        "long_name": "Northern Ireland",
        "short_name": "Northern Ireland",
        "types": [
          "administrative_area_level_1",
          "political"
        ]
      },
      {
        "long_name": "United Kingdom",
        "short_name": "GB",
        "types": [
          "country",
          "political"
        ]
      },
      {
        "long_name": "BT93 7EN",
        "short_name": "BT93 7EN",
        "types": [
          "postal_code"
        ]
      }
    ],
    "formatted_address": "Blaney, Enniskillen BT93 7EN, UK",
    "geometry": {
      "location": {
        "lat": 54.417539,
        "lng": -7.734859999999999
      },
      "location_type": "APPROXIMATE",
      "viewport": {
        "northeast": {
          "lat": 54.4188879802915,
          "lng": -7.733511019708497
        },
        "southwest": {
          "lat": 54.4161900197085,
          "lng": -7.736208980291501
        }
      }
    },
    "place_id": "ChIJpzRwcuhOXkgROACzJ8SducA",
    "types": [
      "locality",
      "political"
    ]
  },
  {
    "area_id": 3371,
    "area_name": "Ballindarragh",
    "county_name": "Fermanagh",
    "county_id": 30,
    "address_components": [
      {
        "long_name": "Ballindarragh",
        "short_name": "Ballindarragh",
        "types": [
          "locality",
          "political"
        ]
      },
      {
        "long_name": "Enniskillen",
        "short_name": "Enniskillen",
        "types": [
          "postal_town"
        ]
      },
      {
        "long_name": "Fermanagh and Omagh",
        "short_name": "Fermanagh and Omagh",
        "types": [
          "administrative_area_level_2",
          "political"
        ]
      },
      {
        "long_name": "Northern Ireland",
        "short_name": "Northern Ireland",
        "types": [
          "administrative_area_level_1",
          "political"
        ]
      },
      {
        "long_name": "United Kingdom",
        "short_name": "GB",
        "types": [
          "country",
          "political"
        ]
      },
      {
        "long_name": "BT94 5DT",
        "short_name": "BT94 5DT",
        "types": [
          "postal_code"
        ]
      }
    ],
    "formatted_address": "Ballindarragh, Enniskillen BT94 5DT, UK",
    "geometry": {
      "location": {
        "lat": 54.270497,
        "lng": -7.502781000000001
      },
      "location_type": "APPROXIMATE",
      "viewport": {
        "northeast": {
          "lat": 54.2718459802915,
          "lng": -7.501432019708498
        },
        "southwest": {
          "lat": 54.2691480197085,
          "lng": -7.504129980291503
        }
      }
    },
    "place_id": "ChIJf-ycQzw_XkgROnGxYmDIO9A",
    "types": [
      "locality",
      "political"
    ]
  },
  {
    "area_id": 1991,
    "area_name": "Ballyreagh",
    "county_name": "Fermanagh",
    "county_id": 30,
    "address_components": [
      {
        "long_name": "Ballyreagh Road",
        "short_name": "Ballyreagh Rd",
        "types": [
          "route"
        ]
      },
      {
        "long_name": "Enniskillen",
        "short_name": "Enniskillen",
        "types": [
          "postal_town"
        ]
      },
      {
        "long_name": "Fermanagh and Omagh",
        "short_name": "Fermanagh and Omagh",
        "types": [
          "administrative_area_level_2",
          "political"
        ]
      },
      {
        "long_name": "Northern Ireland",
        "short_name": "Northern Ireland",
        "types": [
          "administrative_area_level_1",
          "political"
        ]
      },
      {
        "long_name": "United Kingdom",
        "short_name": "GB",
        "types": [
          "country",
          "political"
        ]
      },
      {
        "long_name": "BT94",
        "short_name": "BT94",
        "types": [
          "postal_code",
          "postal_code_prefix"
        ]
      }
    ],
    "formatted_address": "Ballyreagh Rd, Enniskillen BT94, UK",
    "geometry": {
      "bounds": {
        "northeast": {
          "lat": 54.3881624,
          "lng": -7.512630000000001
        },
        "southwest": {
          "lat": 54.37008729999999,
          "lng": -7.517618799999999
        }
      },
      "location": {
        "lat": 54.3791902,
        "lng": -7.515094
      },
      "location_type": "GEOMETRIC_CENTER",
      "viewport": {
        "northeast": {
          "lat": 54.3881624,
          "lng": -7.512630000000001
        },
        "southwest": {
          "lat": 54.37008729999999,
          "lng": -7.517618799999999
        }
      }
    },
    "place_id": "ChIJkdQlz4E3XkgRQ81twhxwv-E",
    "types": [
      "route"
    ]
  },
  {
    "area_id": 1956,
    "area_name": "Belleek",
    "county_name": "Fermanagh",
    "county_id": 30,
    "address_components": [
      {
        "long_name": "Belleek",
        "short_name": "Belleek",
        "types": [
          "locality",
          "political"
        ]
      },
      {
        "long_name": "Enniskillen",
        "short_name": "Enniskillen",
        "types": [
          "postal_town"
        ]
      },
      {
        "long_name": "Fermanagh and Omagh",
        "short_name": "Fermanagh and Omagh",
        "types": [
          "administrative_area_level_2",
          "political"
        ]
      },
      {
        "long_name": "Northern Ireland",
        "short_name": "Northern Ireland",
        "types": [
          "administrative_area_level_1",
          "political"
        ]
      },
      {
        "long_name": "United Kingdom",
        "short_name": "GB",
        "types": [
          "country",
          "political"
        ]
      }
    ],
    "formatted_address": "Belleek, Enniskillen, UK",
    "geometry": {
      "bounds": {
        "northeast": {
          "lat": 54.4872263,
          "lng": -8.0736561
        },
        "southwest": {
          "lat": 54.47606140000001,
          "lng": -8.0969002
        }
      },
      "location": {
        "lat": 54.4801114,
        "lng": -8.0914889
      },
      "location_type": "APPROXIMATE",
      "viewport": {
        "northeast": {
          "lat": 54.4872263,
          "lng": -8.0736561
        },
        "southwest": {
          "lat": 54.47606140000001,
          "lng": -8.0969002
        }
      }
    },
    "place_id": "ChIJEQnBJoZTXkgRqMYSO6nMJzA",
    "types": [
      "locality",
      "political"
    ]
  },
  {
    "area_id": 3340,
    "area_name": "Belcoo",
    "county_name": "Fermanagh",
    "county_id": 30,
    "address_components": [
      {
        "long_name": "Belcoo",
        "short_name": "Belcoo",
        "types": [
          "locality",
          "political"
        ]
      },
      {
        "long_name": "Enniskillen",
        "short_name": "Enniskillen",
        "types": [
          "postal_town"
        ]
      },
      {
        "long_name": "Fermanagh and Omagh",
        "short_name": "Fermanagh and Omagh",
        "types": [
          "administrative_area_level_2",
          "political"
        ]
      },
      {
        "long_name": "Northern Ireland",
        "short_name": "Northern Ireland",
        "types": [
          "administrative_area_level_1",
          "political"
        ]
      },
      {
        "long_name": "United Kingdom",
        "short_name": "GB",
        "types": [
          "country",
          "political"
        ]
      }
    ],
    "formatted_address": "Belcoo, Enniskillen, UK",
    "geometry": {
      "bounds": {
        "northeast": {
          "lat": 54.3017097,
          "lng": -7.8577421
        },
        "southwest": {
          "lat": 54.29186,
          "lng": -7.8850901
        }
      },
      "location": {
        "lat": 54.29645319999999,
        "lng": -7.871449
      },
      "location_type": "APPROXIMATE",
      "viewport": {
        "northeast": {
          "lat": 54.3017097,
          "lng": -7.8577421
        },
        "southwest": {
          "lat": 54.29186,
          "lng": -7.8850901
        }
      }
    },
    "place_id": "ChIJCZqqmrRbXkgRY5hQdVno45Y",
    "types": [
      "locality",
      "political"
    ]
  },
  {
    "area_id": 1996,
    "area_name": "Enniskillen",
    "county_name": "Fermanagh",
    "county_id": 30,
    "address_components": [
      {
        "long_name": "Enniskillen",
        "short_name": "Enniskillen",
        "types": [
          "locality",
          "political"
        ]
      },
      {
        "long_name": "Enniskillen",
        "short_name": "Enniskillen",
        "types": [
          "postal_town"
        ]
      },
      {
        "long_name": "Fermanagh and Omagh",
        "short_name": "Fermanagh and Omagh",
        "types": [
          "administrative_area_level_2",
          "political"
        ]
      },
      {
        "long_name": "Northern Ireland",
        "short_name": "Northern Ireland",
        "types": [
          "administrative_area_level_1",
          "political"
        ]
      },
      {
        "long_name": "United Kingdom",
        "short_name": "GB",
        "types": [
          "country",
          "political"
        ]
      },
      {
        "long_name": "BT74",
        "short_name": "BT74",
        "types": [
          "postal_code",
          "postal_code_prefix"
        ]
      }
    ],
    "formatted_address": "Enniskillen BT74, UK",
    "geometry": {
      "bounds": {
        "northeast": {
          "lat": 54.3575616,
          "lng": -7.6135894
        },
        "southwest": {
          "lat": 54.33660039999999,
          "lng": -7.6486686
        }
      },
      "location": {
        "lat": 54.34382429999999,
        "lng": -7.6315336
      },
      "location_type": "APPROXIMATE",
      "viewport": {
        "northeast": {
          "lat": 54.3575616,
          "lng": -7.6135894
        },
        "southwest": {
          "lat": 54.33660039999999,
          "lng": -7.6486686
        }
      }
    },
    "place_id": "ChIJdZmmmcoQXkgRlq07JVHZ5jM",
    "types": [
      "locality",
      "political"
    ]
  },
  {
    "area_id": 1964,
    "area_name": "Ardshankill",
    "county_name": "Fermanagh",
    "county_id": 30,
    "address_components": [
      {
        "long_name": "County Fermanagh",
        "short_name": "County Fermanagh",
        "types": [
          "colloquial_area",
          "political"
        ]
      },
      {
        "long_name": "Fermanagh and Omagh",
        "short_name": "Fermanagh and Omagh",
        "types": [
          "administrative_area_level_2",
          "political"
        ]
      },
      {
        "long_name": "Northern Ireland",
        "short_name": "Northern Ireland",
        "types": [
          "administrative_area_level_1",
          "political"
        ]
      },
      {
        "long_name": "United Kingdom",
        "short_name": "GB",
        "types": [
          "country",
          "political"
        ]
      }
    ],
    "formatted_address": "County Fermanagh, UK",
    "geometry": {
      "bounds": {
        "northeast": {
          "lat": 54.6074475,
          "lng": -7.1413479
        },
        "southwest": {
          "lat": 54.113288,
          "lng": -8.1774001
        }
      },
      "location": {
        "lat": 54.3439375,
        "lng": -7.6311759
      },
      "location_type": "APPROXIMATE",
      "viewport": {
        "northeast": {
          "lat": 54.6074475,
          "lng": -7.1413479
        },
        "southwest": {
          "lat": 54.113288,
          "lng": -8.1774001
        }
      }
    },
    "partial_match": true,
    "place_id": "ChIJyxsZOB9GXkgREBstirI_DwM",
    "types": [
      "colloquial_area",
      "political"
    ]
  },
  {
    "area_id": 3373,
    "area_name": "Brookeborough",
    "county_name": "Fermanagh",
    "county_id": 30,
    "address_components": [
      {
        "long_name": "Brookeborough",
        "short_name": "Brookeborough",
        "types": [
          "locality",
          "political"
        ]
      },
      {
        "long_name": "Enniskillen",
        "short_name": "Enniskillen",
        "types": [
          "postal_town"
        ]
      },
      {
        "long_name": "Fermanagh and Omagh",
        "short_name": "Fermanagh and Omagh",
        "types": [
          "administrative_area_level_2",
          "political"
        ]
      },
      {
        "long_name": "Northern Ireland",
        "short_name": "Northern Ireland",
        "types": [
          "administrative_area_level_1",
          "political"
        ]
      },
      {
        "long_name": "United Kingdom",
        "short_name": "GB",
        "types": [
          "country",
          "political"
        ]
      },
      {
        "long_name": "BT94 4EY",
        "short_name": "BT94 4EY",
        "types": [
          "postal_code"
        ]
      }
    ],
    "formatted_address": "Brookeborough, Enniskillen BT94 4EY, UK",
    "geometry": {
      "location": {
        "lat": 54.31595,
        "lng": -7.404120000000001
      },
      "location_type": "APPROXIMATE",
      "viewport": {
        "northeast": {
          "lat": 54.3172989802915,
          "lng": -7.402771019708498
        },
        "southwest": {
          "lat": 54.3146010197085,
          "lng": -7.405468980291503
        }
      }
    },
    "place_id": "ChIJedhRXp87XkgRJu3_C8ctJ7E",
    "types": [
      "locality",
      "political"
    ]
  },
  {
    "area_id": 3378,
    "area_name": "Ballagh",
    "county_name": "Fermanagh",
    "county_id": 30,
    "address_components": [
      {
        "long_name": "Ballagh Cross Roads",
        "short_name": "Ballagh Cross Roads",
        "types": [
          "locality",
          "political"
        ]
      },
      {
        "long_name": "Enniskillen",
        "short_name": "Enniskillen",
        "types": [
          "postal_town"
        ]
      },
      {
        "long_name": "Fermanagh and Omagh",
        "short_name": "Fermanagh and Omagh",
        "types": [
          "administrative_area_level_2",
          "political"
        ]
      },
      {
        "long_name": "Northern Ireland",
        "short_name": "Northern Ireland",
        "types": [
          "administrative_area_level_1",
          "political"
        ]
      },
      {
        "long_name": "United Kingdom",
        "short_name": "GB",
        "types": [
          "country",
          "political"
        ]
      },
      {
        "long_name": "BT92 6DZ",
        "short_name": "BT92 6DZ",
        "types": [
          "postal_code"
        ]
      }
    ],
    "formatted_address": "Ballagh Cross Roads, Enniskillen BT92 6DZ, UK",
    "geometry": {
      "location": {
        "lat": 54.22473,
        "lng": -7.342239999999999
      },
      "location_type": "APPROXIMATE",
      "viewport": {
        "northeast": {
          "lat": 54.2260789802915,
          "lng": -7.340891019708497
        },
        "southwest": {
          "lat": 54.2233810197085,
          "lng": -7.343588980291501
        }
      }
    },
    "place_id": "ChIJwxqzHHE9XkgRN8tRuvy4KBI",
    "types": [
      "locality",
      "political"
    ]
  },
  {
    "area_id": 3344,
    "area_name": "Arney",
    "county_name": "Fermanagh",
    "county_id": 30,
    "address_components": [
      {
        "long_name": "Arney",
        "short_name": "Arney",
        "types": [
          "locality",
          "political"
        ]
      },
      {
        "long_name": "Enniskillen",
        "short_name": "Enniskillen",
        "types": [
          "postal_town"
        ]
      },
      {
        "long_name": "Fermanagh and Omagh",
        "short_name": "Fermanagh and Omagh",
        "types": [
          "administrative_area_level_2",
          "political"
        ]
      },
      {
        "long_name": "Northern Ireland",
        "short_name": "Northern Ireland",
        "types": [
          "administrative_area_level_1",
          "political"
        ]
      },
      {
        "long_name": "United Kingdom",
        "short_name": "GB",
        "types": [
          "country",
          "political"
        ]
      },
      {
        "long_name": "BT92 2SJ",
        "short_name": "BT92 2SJ",
        "types": [
          "postal_code"
        ]
      }
    ],
    "formatted_address": "Arney, Enniskillen BT92 2SJ, UK",
    "geometry": {
      "location": {
        "lat": 54.29114999999999,
        "lng": -7.67597
      },
      "location_type": "APPROXIMATE",
      "viewport": {
        "northeast": {
          "lat": 54.29249898029149,
          "lng": -7.674621019708497
        },
        "southwest": {
          "lat": 54.28980101970849,
          "lng": -7.677318980291502
        }
      }
    },
    "place_id": "ChIJPxGmJBpEXkgReD9vRlm0f-4",
    "types": [
      "locality",
      "political"
    ]
  },
  {
    "area_id": 2006,
    "area_name": "Clabby",
    "county_name": "Fermanagh",
    "county_id": 30,
    "address_components": [
      {
        "long_name": "Clabby",
        "short_name": "Clabby",
        "types": [
          "locality",
          "political"
        ]
      },
      {
        "long_name": "Fivemiletown",
        "short_name": "Fivemiletown",
        "types": [
          "postal_town"
        ]
      },
      {
        "long_name": "Fermanagh and Omagh",
        "short_name": "Fermanagh and Omagh",
        "types": [
          "administrative_area_level_2",
          "political"
        ]
      },
      {
        "long_name": "Northern Ireland",
        "short_name": "Northern Ireland",
        "types": [
          "administrative_area_level_1",
          "political"
        ]
      },
      {
        "long_name": "United Kingdom",
        "short_name": "GB",
        "types": [
          "country",
          "political"
        ]
      },
      {
        "long_name": "BT75",
        "short_name": "BT75",
        "types": [
          "postal_code",
          "postal_code_prefix"
        ]
      }
    ],
    "formatted_address": "Clabby, Fivemiletown BT75, UK",
    "geometry": {
      "bounds": {
        "northeast": {
          "lat": 54.4044874,
          "lng": -7.3566699
        },
        "southwest": {
          "lat": 54.3952977,
          "lng": -7.380023899999999
        }
      },
      "location": {
        "lat": 54.4016799,
        "lng": -7.3705999
      },
      "location_type": "APPROXIMATE",
      "viewport": {
        "northeast": {
          "lat": 54.4044874,
          "lng": -7.3566699
        },
        "southwest": {
          "lat": 54.3952977,
          "lng": -7.380023899999999
        }
      }
    },
    "place_id": "ChIJL_U1KAQwXkgRZwZwtqOstsk",
    "types": [
      "locality",
      "political"
    ]
  },
  {
    "area_id": 1958,
    "area_name": "Garrison",
    "county_name": "Fermanagh",
    "county_id": 30,
    "address_components": [
      {
        "long_name": "Garrison",
        "short_name": "Garrison",
        "types": [
          "locality",
          "political"
        ]
      },
      {
        "long_name": "Enniskillen",
        "short_name": "Enniskillen",
        "types": [
          "postal_town"
        ]
      },
      {
        "long_name": "Fermanagh and Omagh",
        "short_name": "Fermanagh and Omagh",
        "types": [
          "administrative_area_level_2",
          "political"
        ]
      },
      {
        "long_name": "Northern Ireland",
        "short_name": "Northern Ireland",
        "types": [
          "administrative_area_level_1",
          "political"
        ]
      },
      {
        "long_name": "United Kingdom",
        "short_name": "GB",
        "types": [
          "country",
          "political"
        ]
      },
      {
        "long_name": "BT93",
        "short_name": "BT93",
        "types": [
          "postal_code",
          "postal_code_prefix"
        ]
      }
    ],
    "formatted_address": "Garrison, Enniskillen BT93, UK",
    "geometry": {
      "bounds": {
        "northeast": {
          "lat": 54.42762889999999,
          "lng": -8.0826757
        },
        "southwest": {
          "lat": 54.41060599999999,
          "lng": -8.098719700000002
        }
      },
      "location": {
        "lat": 54.4161801,
        "lng": -8.0903299
      },
      "location_type": "APPROXIMATE",
      "viewport": {
        "northeast": {
          "lat": 54.42762889999999,
          "lng": -8.0826757
        },
        "southwest": {
          "lat": 54.41060599999999,
          "lng": -8.098719700000002
        }
      }
    },
    "place_id": "ChIJeeXdXLn4XkgRxigkmzEdcmg",
    "types": [
      "locality",
      "political"
    ]
  },
  {
    "area_id": 1963,
    "area_name": "Clonelly",
    "county_name": "Fermanagh",
    "county_id": 30,
    "address_components": [
      {
        "long_name": "Clonelly",
        "short_name": "Clonelly",
        "types": [
          "locality",
          "political"
        ]
      },
      {
        "long_name": "Enniskillen",
        "short_name": "Enniskillen",
        "types": [
          "postal_town"
        ]
      },
      {
        "long_name": "Fermanagh and Omagh",
        "short_name": "Fermanagh and Omagh",
        "types": [
          "administrative_area_level_2",
          "political"
        ]
      },
      {
        "long_name": "Northern Ireland",
        "short_name": "Northern Ireland",
        "types": [
          "administrative_area_level_1",
          "political"
        ]
      },
      {
        "long_name": "United Kingdom",
        "short_name": "GB",
        "types": [
          "country",
          "political"
        ]
      },
      {
        "long_name": "BT93 8BW",
        "short_name": "BT93 8BW",
        "types": [
          "postal_code"
        ]
      }
    ],
    "formatted_address": "Clonelly, Enniskillen BT93 8BW, UK",
    "geometry": {
      "location": {
        "lat": 54.54477,
        "lng": -7.77074
      },
      "location_type": "APPROXIMATE",
      "viewport": {
        "northeast": {
          "lat": 54.5461189802915,
          "lng": -7.769391019708498
        },
        "southwest": {
          "lat": 54.5434210197085,
          "lng": -7.772088980291502
        }
      }
    },
    "place_id": "ChIJ6VwJxjezX0gRX2AyWACPNgo",
    "types": [
      "locality",
      "political"
    ]
  },
  {
    "area_id": 1973,
    "area_name": "Derrygonnelly",
    "county_name": "Fermanagh",
    "county_id": 30,
    "address_components": [
      {
        "long_name": "Derrygonnelly",
        "short_name": "Derrygonnelly",
        "types": [
          "locality",
          "political"
        ]
      },
      {
        "long_name": "Enniskillen",
        "short_name": "Enniskillen",
        "types": [
          "postal_town"
        ]
      },
      {
        "long_name": "Fermanagh and Omagh",
        "short_name": "Fermanagh and Omagh",
        "types": [
          "administrative_area_level_2",
          "political"
        ]
      },
      {
        "long_name": "Northern Ireland",
        "short_name": "Northern Ireland",
        "types": [
          "administrative_area_level_1",
          "political"
        ]
      },
      {
        "long_name": "United Kingdom",
        "short_name": "GB",
        "types": [
          "country",
          "political"
        ]
      },
      {
        "long_name": "BT93",
        "short_name": "BT93",
        "types": [
          "postal_code",
          "postal_code_prefix"
        ]
      }
    ],
    "formatted_address": "Derrygonnelly, Enniskillen BT93, UK",
    "geometry": {
      "bounds": {
        "northeast": {
          "lat": 54.4222099,
          "lng": -7.811117399999999
        },
        "southwest": {
          "lat": 54.4137125,
          "lng": -7.8246326
        }
      },
      "location": {
        "lat": 54.4175949,
        "lng": -7.8168441
      },
      "location_type": "APPROXIMATE",
      "viewport": {
        "northeast": {
          "lat": 54.4222099,
          "lng": -7.811117399999999
        },
        "southwest": {
          "lat": 54.4137125,
          "lng": -7.8246326
        }
      }
    },
    "place_id": "ChIJFzs1-hhOXkgRpZRSQVsrV2k",
    "types": [
      "locality",
      "political"
    ]
  },
  {
    "area_id": 1980,
    "area_name": "Ederney",
    "county_name": "Fermanagh",
    "county_id": 30,
    "address_components": [
      {
        "long_name": "Ederney",
        "short_name": "Ederney",
        "types": [
          "locality",
          "political"
        ]
      },
      {
        "long_name": "Enniskillen",
        "short_name": "Enniskillen",
        "types": [
          "postal_town"
        ]
      },
      {
        "long_name": "Fermanagh and Omagh",
        "short_name": "Fermanagh and Omagh",
        "types": [
          "administrative_area_level_2",
          "political"
        ]
      },
      {
        "long_name": "Northern Ireland",
        "short_name": "Northern Ireland",
        "types": [
          "administrative_area_level_1",
          "political"
        ]
      },
      {
        "long_name": "United Kingdom",
        "short_name": "GB",
        "types": [
          "country",
          "political"
        ]
      },
      {
        "long_name": "BT93",
        "short_name": "BT93",
        "types": [
          "postal_code",
          "postal_code_prefix"
        ]
      }
    ],
    "formatted_address": "Ederney, Enniskillen BT93, UK",
    "geometry": {
      "bounds": {
        "northeast": {
          "lat": 54.5376431,
          "lng": -7.6413733
        },
        "southwest": {
          "lat": 54.5288057,
          "lng": -7.668387300000001
        }
      },
      "location": {
        "lat": 54.53256,
        "lng": -7.65856
      },
      "location_type": "APPROXIMATE",
      "viewport": {
        "northeast": {
          "lat": 54.5376431,
          "lng": -7.6413733
        },
        "southwest": {
          "lat": 54.5288057,
          "lng": -7.668387300000001
        }
      }
    },
    "place_id": "ChIJRzJl_NBKXkgRoDyuObU_Dwo",
    "types": [
      "locality",
      "political"
    ]
  },
  {
    "area_id": 3361,
    "area_name": "Culky",
    "county_name": "Fermanagh",
    "county_id": 30,
    "address_components": [
      {
        "long_name": "Culky",
        "short_name": "Culky",
        "types": [
          "locality",
          "political"
        ]
      },
      {
        "long_name": "Enniskillen",
        "short_name": "Enniskillen",
        "types": [
          "postal_town"
        ]
      },
      {
        "long_name": "Fermanagh and Omagh",
        "short_name": "Fermanagh and Omagh",
        "types": [
          "administrative_area_level_2",
          "political"
        ]
      },
      {
        "long_name": "Northern Ireland",
        "short_name": "Northern Ireland",
        "types": [
          "administrative_area_level_1",
          "political"
        ]
      },
      {
        "long_name": "United Kingdom",
        "short_name": "GB",
        "types": [
          "country",
          "political"
        ]
      },
      {
        "long_name": "BT92 2FP",
        "short_name": "BT92 2FP",
        "types": [
          "postal_code"
        ]
      }
    ],
    "formatted_address": "Culky, Enniskillen BT92 2FP, UK",
    "geometry": {
      "location": {
        "lat": 54.31789,
        "lng": -7.644609999999999
      },
      "location_type": "APPROXIMATE",
      "viewport": {
        "northeast": {
          "lat": 54.3192389802915,
          "lng": -7.643261019708497
        },
        "southwest": {
          "lat": 54.3165410197085,
          "lng": -7.645958980291502
        }
      }
    },
    "place_id": "ChIJRfygDvNGXkgRlgDwqZpA5Ig",
    "types": [
      "locality",
      "political"
    ]
  },
  {
    "area_id": 3341,
    "area_name": "Boho",
    "county_name": "Fermanagh",
    "county_id": 30,
    "address_components": [
      {
        "long_name": "Boho",
        "short_name": "Boho",
        "types": [
          "locality",
          "political"
        ]
      },
      {
        "long_name": "Enniskillen",
        "short_name": "Enniskillen",
        "types": [
          "postal_town"
        ]
      },
      {
        "long_name": "Fermanagh and Omagh",
        "short_name": "Fermanagh and Omagh",
        "types": [
          "administrative_area_level_2",
          "political"
        ]
      },
      {
        "long_name": "Northern Ireland",
        "short_name": "Northern Ireland",
        "types": [
          "administrative_area_level_1",
          "political"
        ]
      },
      {
        "long_name": "United Kingdom",
        "short_name": "GB",
        "types": [
          "country",
          "political"
        ]
      },
      {
        "long_name": "BT74 5AY",
        "short_name": "BT74 5AY",
        "types": [
          "postal_code"
        ]
      }
    ],
    "formatted_address": "Boho, Enniskillen BT74 5AY, UK",
    "geometry": {
      "location": {
        "lat": 54.333094,
        "lng": -7.79143
      },
      "location_type": "APPROXIMATE",
      "viewport": {
        "northeast": {
          "lat": 54.33444298029151,
          "lng": -7.790081019708498
        },
        "southwest": {
          "lat": 54.33174501970851,
          "lng": -7.792778980291502
        }
      }
    },
    "place_id": "ChIJrxTwMTRFXkgRCYAxBFgdP30",
    "types": [
      "locality",
      "political"
    ]
  },
  {
    "area_id": 1989,
    "area_name": "Garvary",
    "county_name": "Fermanagh",
    "county_id": 30,
    "address_components": [
      {
        "long_name": "Garvary",
        "short_name": "Garvary",
        "types": [
          "locality",
          "political"
        ]
      },
      {
        "long_name": "Enniskillen",
        "short_name": "Enniskillen",
        "types": [
          "postal_town"
        ]
      },
      {
        "long_name": "Fermanagh and Omagh",
        "short_name": "Fermanagh and Omagh",
        "types": [
          "administrative_area_level_2",
          "political"
        ]
      },
      {
        "long_name": "Northern Ireland",
        "short_name": "Northern Ireland",
        "types": [
          "administrative_area_level_1",
          "political"
        ]
      },
      {
        "long_name": "United Kingdom",
        "short_name": "GB",
        "types": [
          "country",
          "political"
        ]
      },
      {
        "long_name": "BT74 4LZ",
        "short_name": "BT74 4LZ",
        "types": [
          "postal_code"
        ]
      }
    ],
    "formatted_address": "Garvary, Enniskillen BT74 4LZ, UK",
    "geometry": {
      "location": {
        "lat": 54.35919,
        "lng": -7.575959999999999
      },
      "location_type": "APPROXIMATE",
      "viewport": {
        "northeast": {
          "lat": 54.3605389802915,
          "lng": -7.574611019708497
        },
        "southwest": {
          "lat": 54.3578410197085,
          "lng": -7.577308980291502
        }
      }
    },
    "place_id": "ChIJH9z8S-xHXkgR2Db5pCEd3Uw",
    "types": [
      "locality",
      "political"
    ]
  },
  {
    "area_id": 1984,
    "area_name": "Drumduff",
    "county_name": "Fermanagh",
    "county_id": 30,
    "address_components": [
      {
        "long_name": "197",
        "short_name": "197",
        "types": [
          "street_number"
        ]
      },
      {
        "long_name": "Swanlinbar Road",
        "short_name": "Swanlinbar Rd",
        "types": [
          "route"
        ]
      },
      {
        "long_name": "Enniskillen",
        "short_name": "Enniskillen",
        "types": [
          "postal_town"
        ]
      },
      {
        "long_name": "Fermanagh and Omagh",
        "short_name": "Fermanagh and Omagh",
        "types": [
          "administrative_area_level_2",
          "political"
        ]
      },
      {
        "long_name": "Northern Ireland",
        "short_name": "Northern Ireland",
        "types": [
          "administrative_area_level_1",
          "political"
        ]
      },
      {
        "long_name": "United Kingdom",
        "short_name": "GB",
        "types": [
          "country",
          "political"
        ]
      },
      {
        "long_name": "BT92 1GP",
        "short_name": "BT92 1GP",
        "types": [
          "postal_code"
        ]
      }
    ],
    "formatted_address": "197 Swanlinbar Rd, Enniskillen BT92 1GP, UK",
    "geometry": {
      "location": {
        "lat": 54.2652836,
        "lng": -7.6995508
      },
      "location_type": "ROOFTOP",
      "viewport": {
        "northeast": {
          "lat": 54.26622793029149,
          "lng": -7.699158269708498
        },
        "southwest": {
          "lat": 54.26352996970849,
          "lng": -7.701856230291503
        }
      }
    },
    "partial_match": true,
    "place_id": "ChIJX5w3KI5DXkgRlprL7rZRSgk",
    "types": [
      "establishment",
      "home_goods_store",
      "point_of_interest",
      "store"
    ]
  },
  {
    "area_id": 1982,
    "area_name": "Lack",
    "county_name": "Fermanagh",
    "county_id": 30,
    "address_components": [
      {
        "long_name": "Lack",
        "short_name": "Lack",
        "types": [
          "locality",
          "political"
        ]
      },
      {
        "long_name": "Enniskillen",
        "short_name": "Enniskillen",
        "types": [
          "postal_town"
        ]
      },
      {
        "long_name": "Fermanagh and Omagh",
        "short_name": "Fermanagh and Omagh",
        "types": [
          "administrative_area_level_2",
          "political"
        ]
      },
      {
        "long_name": "Northern Ireland",
        "short_name": "Northern Ireland",
        "types": [
          "administrative_area_level_1",
          "political"
        ]
      },
      {
        "long_name": "United Kingdom",
        "short_name": "GB",
        "types": [
          "country",
          "political"
        ]
      },
      {
        "long_name": "BT93",
        "short_name": "BT93",
        "types": [
          "postal_code",
          "postal_code_prefix"
        ]
      }
    ],
    "formatted_address": "Lack, Enniskillen BT93, UK",
    "geometry": {
      "bounds": {
        "northeast": {
          "lat": 54.5486318,
          "lng": -7.5705555
        },
        "southwest": {
          "lat": 54.5412773,
          "lng": -7.588241699999998
        }
      },
      "location": {
        "lat": 54.5461501,
        "lng": -7.5775901
      },
      "location_type": "APPROXIMATE",
      "viewport": {
        "northeast": {
          "lat": 54.5486318,
          "lng": -7.5705555
        },
        "southwest": {
          "lat": 54.5412773,
          "lng": -7.588241699999998
        }
      }
    },
    "place_id": "ChIJPaFND8XKX0gRPyCe5KS6C2M",
    "types": [
      "locality",
      "political"
    ]
  },
  {
    "area_id": 1965,
    "area_name": "Kesh",
    "county_name": "Fermanagh",
    "county_id": 30,
    "address_components": [
      {
        "long_name": "Kesh",
        "short_name": "Kesh",
        "types": [
          "locality",
          "political"
        ]
      },
      {
        "long_name": "Enniskillen",
        "short_name": "Enniskillen",
        "types": [
          "postal_town"
        ]
      },
      {
        "long_name": "Fermanagh and Omagh",
        "short_name": "Fermanagh and Omagh",
        "types": [
          "administrative_area_level_2",
          "political"
        ]
      },
      {
        "long_name": "Northern Ireland",
        "short_name": "Northern Ireland",
        "types": [
          "administrative_area_level_1",
          "political"
        ]
      },
      {
        "long_name": "United Kingdom",
        "short_name": "GB",
        "types": [
          "country",
          "political"
        ]
      },
      {
        "long_name": "BT93 1UJ",
        "short_name": "BT93 1UJ",
        "types": [
          "postal_code"
        ]
      }
    ],
    "formatted_address": "Kesh, Enniskillen BT93 1UJ, UK",
    "geometry": {
      "location": {
        "lat": 54.52073000000001,
        "lng": -7.7211
      },
      "location_type": "APPROXIMATE",
      "viewport": {
        "northeast": {
          "lat": 54.52207898029151,
          "lng": -7.719751019708498
        },
        "southwest": {
          "lat": 54.51938101970851,
          "lng": -7.722448980291502
        }
      }
    },
    "place_id": "ChIJdyf9lFRLXkgRVc641MVsevE",
    "types": [
      "locality",
      "political"
    ]
  },
  {
    "area_id": 1976,
    "area_name": "Springfield",
    "county_name": "Fermanagh",
    "county_id": 30,
    "address_components": [
      {
        "long_name": "County Fermanagh",
        "short_name": "County Fermanagh",
        "types": [
          "colloquial_area",
          "political"
        ]
      },
      {
        "long_name": "Fermanagh and Omagh",
        "short_name": "Fermanagh and Omagh",
        "types": [
          "administrative_area_level_2",
          "political"
        ]
      },
      {
        "long_name": "Northern Ireland",
        "short_name": "Northern Ireland",
        "types": [
          "administrative_area_level_1",
          "political"
        ]
      },
      {
        "long_name": "United Kingdom",
        "short_name": "GB",
        "types": [
          "country",
          "political"
        ]
      }
    ],
    "formatted_address": "County Fermanagh, UK",
    "geometry": {
      "bounds": {
        "northeast": {
          "lat": 54.6074475,
          "lng": -7.1413479
        },
        "southwest": {
          "lat": 54.113288,
          "lng": -8.1774001
        }
      },
      "location": {
        "lat": 54.3439375,
        "lng": -7.6311759
      },
      "location_type": "APPROXIMATE",
      "viewport": {
        "northeast": {
          "lat": 54.6074475,
          "lng": -7.1413479
        },
        "southwest": {
          "lat": 54.113288,
          "lng": -8.1774001
        }
      }
    },
    "partial_match": true,
    "place_id": "ChIJyxsZOB9GXkgREBstirI_DwM",
    "types": [
      "colloquial_area",
      "political"
    ]
  },
  {
    "area_id": 1959,
    "area_name": "Scribbagh",
    "county_name": "Fermanagh",
    "county_id": 30,
    "address_components": [
      {
        "long_name": "Scribbagh",
        "short_name": "Scribbagh",
        "types": [
          "locality",
          "political"
        ]
      },
      {
        "long_name": "Enniskillen",
        "short_name": "Enniskillen",
        "types": [
          "postal_town"
        ]
      },
      {
        "long_name": "Fermanagh and Omagh",
        "short_name": "Fermanagh and Omagh",
        "types": [
          "administrative_area_level_2",
          "political"
        ]
      },
      {
        "long_name": "Northern Ireland",
        "short_name": "Northern Ireland",
        "types": [
          "administrative_area_level_1",
          "political"
        ]
      },
      {
        "long_name": "United Kingdom",
        "short_name": "GB",
        "types": [
          "country",
          "political"
        ]
      },
      {
        "long_name": "BT93 4BX",
        "short_name": "BT93 4BX",
        "types": [
          "postal_code"
        ]
      }
    ],
    "formatted_address": "Scribbagh, Enniskillen BT93 4BX, UK",
    "geometry": {
      "location": {
        "lat": 54.380088,
        "lng": -8.0366959
      },
      "location_type": "APPROXIMATE",
      "viewport": {
        "northeast": {
          "lat": 54.3814369802915,
          "lng": -8.035346919708498
        },
        "southwest": {
          "lat": 54.3787390197085,
          "lng": -8.038044880291503
        }
      }
    },
    "place_id": "ChIJr7BZ-tFXXkgRdF85UGKiwLY",
    "types": [
      "locality",
      "political"
    ]
  },
  {
    "area_id": 1972,
    "area_name": "Tully",
    "county_name": "Fermanagh",
    "county_id": 30,
    "address_components": [
      {
        "long_name": "County Fermanagh",
        "short_name": "County Fermanagh",
        "types": [
          "colloquial_area",
          "political"
        ]
      },
      {
        "long_name": "Fermanagh and Omagh",
        "short_name": "Fermanagh and Omagh",
        "types": [
          "administrative_area_level_2",
          "political"
        ]
      },
      {
        "long_name": "Northern Ireland",
        "short_name": "Northern Ireland",
        "types": [
          "administrative_area_level_1",
          "political"
        ]
      },
      {
        "long_name": "United Kingdom",
        "short_name": "GB",
        "types": [
          "country",
          "political"
        ]
      }
    ],
    "formatted_address": "County Fermanagh, UK",
    "geometry": {
      "bounds": {
        "northeast": {
          "lat": 54.6074475,
          "lng": -7.1413479
        },
        "southwest": {
          "lat": 54.113288,
          "lng": -8.1774001
        }
      },
      "location": {
        "lat": 54.3439375,
        "lng": -7.6311759
      },
      "location_type": "APPROXIMATE",
      "viewport": {
        "northeast": {
          "lat": 54.6074475,
          "lng": -7.1413479
        },
        "southwest": {
          "lat": 54.113288,
          "lng": -8.1774001
        }
      }
    },
    "partial_match": true,
    "place_id": "ChIJyxsZOB9GXkgREBstirI_DwM",
    "types": [
      "colloquial_area",
      "political"
    ]
  },
  {
    "area_id": 3343,
    "area_name": "Wheathill",
    "county_name": "Fermanagh",
    "county_id": 30,
    "address_components": [
      {
        "long_name": "Wheathill",
        "short_name": "Wheathill",
        "types": [
          "locality",
          "political"
        ]
      },
      {
        "long_name": "Enniskillen",
        "short_name": "Enniskillen",
        "types": [
          "postal_town"
        ]
      },
      {
        "long_name": "Fermanagh and Omagh",
        "short_name": "Fermanagh and Omagh",
        "types": [
          "administrative_area_level_2",
          "political"
        ]
      },
      {
        "long_name": "Northern Ireland",
        "short_name": "Northern Ireland",
        "types": [
          "administrative_area_level_1",
          "political"
        ]
      },
      {
        "long_name": "United Kingdom",
        "short_name": "GB",
        "types": [
          "country",
          "political"
        ]
      },
      {
        "long_name": "BT92 1DP",
        "short_name": "BT92 1DP",
        "types": [
          "postal_code"
        ]
      }
    ],
    "formatted_address": "Wheathill, Enniskillen BT92 1DP, UK",
    "geometry": {
      "location": {
        "lat": 54.258438,
        "lng": -7.774051000000001
      },
      "location_type": "APPROXIMATE",
      "viewport": {
        "northeast": {
          "lat": 54.25978698029149,
          "lng": -7.772702019708499
        },
        "southwest": {
          "lat": 54.25708901970849,
          "lng": -7.775399980291502
        }
      }
    },
    "place_id": "ChIJn-I1F01DXkgR9_MIPGXxElM",
    "types": [
      "locality",
      "political"
    ]
  },
  {
    "area_id": 1962,
    "area_name": "Pettigo",
    "county_name": "Fermanagh",
    "county_id": 30,
    "address_components": [
      {
        "long_name": "Pettigo",
        "short_name": "Pettigo",
        "types": [
          "locality",
          "political"
        ]
      },
      {
        "long_name": "Northern Ireland",
        "short_name": "Northern Ireland",
        "types": [
          "administrative_area_level_1",
          "political"
        ]
      },
      {
        "long_name": "United Kingdom",
        "short_name": "GB",
        "types": [
          "country",
          "political"
        ]
      }
    ],
    "formatted_address": "Pettigo, UK",
    "geometry": {
      "location": {
        "lat": 54.54875999999999,
        "lng": -7.829300000000001
      },
      "location_type": "APPROXIMATE",
      "viewport": {
        "northeast": {
          "lat": 54.55010898029149,
          "lng": -7.827951019708498
        },
        "southwest": {
          "lat": 54.54741101970849,
          "lng": -7.830648980291503
        }
      }
    },
    "place_id": "ChIJlXkxn8CyX0gR8DOuObU_Dwo",
    "types": [
      "locality",
      "political"
    ]
  },
  {
    "area_id": 1987,
    "area_name": "Killadeas",
    "county_name": "Fermanagh",
    "county_id": 30,
    "address_components": [
      {
        "long_name": "Killadeas",
        "short_name": "Killadeas",
        "types": [
          "locality",
          "political"
        ]
      },
      {
        "long_name": "Enniskillen",
        "short_name": "Enniskillen",
        "types": [
          "postal_town"
        ]
      },
      {
        "long_name": "Fermanagh and Omagh",
        "short_name": "Fermanagh and Omagh",
        "types": [
          "administrative_area_level_2",
          "political"
        ]
      },
      {
        "long_name": "Northern Ireland",
        "short_name": "Northern Ireland",
        "types": [
          "administrative_area_level_1",
          "political"
        ]
      },
      {
        "long_name": "United Kingdom",
        "short_name": "GB",
        "types": [
          "country",
          "political"
        ]
      },
      {
        "long_name": "BT94",
        "short_name": "BT94",
        "types": [
          "postal_code",
          "postal_code_prefix"
        ]
      }
    ],
    "formatted_address": "Killadeas, Enniskillen BT94, UK",
    "geometry": {
      "bounds": {
        "northeast": {
          "lat": 54.4400626,
          "lng": -7.6723097
        },
        "southwest": {
          "lat": 54.42387799999999,
          "lng": -7.687527100000001
        }
      },
      "location": {
        "lat": 54.4337184,
        "lng": -7.681010100000001
      },
      "location_type": "APPROXIMATE",
      "viewport": {
        "northeast": {
          "lat": 54.4400626,
          "lng": -7.6723097
        },
        "southwest": {
          "lat": 54.42387799999999,
          "lng": -7.687527100000001
        }
      }
    },
    "place_id": "ChIJ1aX5W0FJXkgR0D2uObU_Dwo",
    "types": [
      "locality",
      "political"
    ]
  },
  {
    "area_id": 3365,
    "area_name": "Kinawley",
    "county_name": "Fermanagh",
    "county_id": 30,
    "address_components": [
      {
        "long_name": "Kinawley",
        "short_name": "Kinawley",
        "types": [
          "locality",
          "political"
        ]
      },
      {
        "long_name": "Enniskillen",
        "short_name": "Enniskillen",
        "types": [
          "postal_town"
        ]
      },
      {
        "long_name": "Fermanagh and Omagh",
        "short_name": "Fermanagh and Omagh",
        "types": [
          "administrative_area_level_2",
          "political"
        ]
      },
      {
        "long_name": "Northern Ireland",
        "short_name": "Northern Ireland",
        "types": [
          "administrative_area_level_1",
          "political"
        ]
      },
      {
        "long_name": "United Kingdom",
        "short_name": "GB",
        "types": [
          "country",
          "political"
        ]
      },
      {
        "long_name": "BT92 4FL",
        "short_name": "BT92 4FL",
        "types": [
          "postal_code"
        ]
      }
    ],
    "formatted_address": "Kinawley, Enniskillen BT92 4FL, UK",
    "geometry": {
      "location": {
        "lat": 54.22618,
        "lng": -7.65037
      },
      "location_type": "APPROXIMATE",
      "viewport": {
        "northeast": {
          "lat": 54.2275289802915,
          "lng": -7.649021019708497
        },
        "southwest": {
          "lat": 54.2248310197085,
          "lng": -7.651718980291502
        }
      }
    },
    "place_id": "ChIJOaHG1iFCXkgRw5AqRZ0YKU0",
    "types": [
      "locality",
      "political"
    ]
  },
  {
    "area_id": 1985,
    "area_name": "Lisnarrick",
    "county_name": "Fermanagh",
    "county_id": 30,
    "address_components": [
      {
        "long_name": "Lisnarick",
        "short_name": "Lisnarick",
        "types": [
          "locality",
          "political"
        ]
      },
      {
        "long_name": "Enniskillen",
        "short_name": "Enniskillen",
        "types": [
          "postal_town"
        ]
      },
      {
        "long_name": "Fermanagh and Omagh",
        "short_name": "Fermanagh and Omagh",
        "types": [
          "administrative_area_level_2",
          "political"
        ]
      },
      {
        "long_name": "Northern Ireland",
        "short_name": "Northern Ireland",
        "types": [
          "administrative_area_level_1",
          "political"
        ]
      },
      {
        "long_name": "United Kingdom",
        "short_name": "GB",
        "types": [
          "country",
          "political"
        ]
      },
      {
        "long_name": "BT94 1PS",
        "short_name": "BT94 1PS",
        "types": [
          "postal_code"
        ]
      }
    ],
    "formatted_address": "Lisnarick, Enniskillen BT94 1PS, UK",
    "geometry": {
      "location": {
        "lat": 54.4765,
        "lng": -7.699459999999998
      },
      "location_type": "APPROXIMATE",
      "viewport": {
        "northeast": {
          "lat": 54.4778489802915,
          "lng": -7.698111019708496
        },
        "southwest": {
          "lat": 54.47515101970851,
          "lng": -7.700808980291501
        }
      }
    },
    "partial_match": true,
    "place_id": "ChIJC9WylJRLXkgRFSwYn_QooBQ",
    "types": [
      "locality",
      "political"
    ]
  },
  {
    "area_id": 3369,
    "area_name": "Lisbellaw",
    "county_name": "Fermanagh",
    "county_id": 30,
    "address_components": [
      {
        "long_name": "Lisbellaw",
        "short_name": "Lisbellaw",
        "types": [
          "locality",
          "political"
        ]
      },
      {
        "long_name": "Enniskillen",
        "short_name": "Enniskillen",
        "types": [
          "postal_town"
        ]
      },
      {
        "long_name": "Fermanagh and Omagh",
        "short_name": "Fermanagh and Omagh",
        "types": [
          "administrative_area_level_2",
          "political"
        ]
      },
      {
        "long_name": "Northern Ireland",
        "short_name": "Northern Ireland",
        "types": [
          "administrative_area_level_1",
          "political"
        ]
      },
      {
        "long_name": "United Kingdom",
        "short_name": "GB",
        "types": [
          "country",
          "political"
        ]
      },
      {
        "long_name": "BT94 5AQ",
        "short_name": "BT94 5AQ",
        "types": [
          "postal_code"
        ]
      }
    ],
    "formatted_address": "Lisbellaw, Enniskillen BT94 5AQ, UK",
    "geometry": {
      "location": {
        "lat": 54.3182,
        "lng": -7.533239999999999
      },
      "location_type": "APPROXIMATE",
      "viewport": {
        "northeast": {
          "lat": 54.3195489802915,
          "lng": -7.531891019708497
        },
        "southwest": {
          "lat": 54.3168510197085,
          "lng": -7.534588980291501
        }
      }
    },
    "place_id": "ChIJDU1cqpU4XkgRyvDFG2wy1d8",
    "types": [
      "locality",
      "political"
    ]
  },
  {
    "area_id": 2007,
    "area_name": "Tempo",
    "county_name": "Fermanagh",
    "county_id": 30,
    "address_components": [
      {
        "long_name": "Tempo",
        "short_name": "Tempo",
        "types": [
          "locality",
          "political"
        ]
      },
      {
        "long_name": "Enniskillen",
        "short_name": "Enniskillen",
        "types": [
          "postal_town"
        ]
      },
      {
        "long_name": "Fermanagh and Omagh",
        "short_name": "Fermanagh and Omagh",
        "types": [
          "administrative_area_level_2",
          "political"
        ]
      },
      {
        "long_name": "Northern Ireland",
        "short_name": "Northern Ireland",
        "types": [
          "administrative_area_level_1",
          "political"
        ]
      },
      {
        "long_name": "United Kingdom",
        "short_name": "GB",
        "types": [
          "country",
          "political"
        ]
      },
      {
        "long_name": "BT94 3LU",
        "short_name": "BT94 3LU",
        "types": [
          "postal_code"
        ]
      }
    ],
    "formatted_address": "Tempo, Enniskillen BT94 3LU, UK",
    "geometry": {
      "location": {
        "lat": 54.37648,
        "lng": -7.460922399999999
      },
      "location_type": "APPROXIMATE",
      "viewport": {
        "northeast": {
          "lat": 54.3778289802915,
          "lng": -7.459573419708496
        },
        "southwest": {
          "lat": 54.3751310197085,
          "lng": -7.462271380291501
        }
      }
    },
    "place_id": "ChIJBZDjJrIwXkgRMQXAuowHyM4",
    "types": [
      "locality",
      "political"
    ]
  },
  {
    "area_id": 3342,
    "area_name": "Letterbreen",
    "county_name": "Fermanagh",
    "county_id": 30,
    "address_components": [
      {
        "long_name": "Letterbreen",
        "short_name": "Letterbreen",
        "types": [
          "locality",
          "political"
        ]
      },
      {
        "long_name": "Enniskillen",
        "short_name": "Enniskillen",
        "types": [
          "postal_town"
        ]
      },
      {
        "long_name": "Fermanagh and Omagh",
        "short_name": "Fermanagh and Omagh",
        "types": [
          "administrative_area_level_2",
          "political"
        ]
      },
      {
        "long_name": "Northern Ireland",
        "short_name": "Northern Ireland",
        "types": [
          "administrative_area_level_1",
          "political"
        ]
      },
      {
        "long_name": "United Kingdom",
        "short_name": "GB",
        "types": [
          "country",
          "political"
        ]
      },
      {
        "long_name": "BT74",
        "short_name": "BT74",
        "types": [
          "postal_code",
          "postal_code_prefix"
        ]
      }
    ],
    "formatted_address": "Letterbreen, Enniskillen BT74, UK",
    "geometry": {
      "bounds": {
        "northeast": {
          "lat": 54.3130773,
          "lng": -7.7267407
        },
        "southwest": {
          "lat": 54.3057451,
          "lng": -7.738595399999999
        }
      },
      "location": {
        "lat": 54.3095399,
        "lng": -7.731979999999999
      },
      "location_type": "APPROXIMATE",
      "viewport": {
        "northeast": {
          "lat": 54.3130773,
          "lng": -7.7267407
        },
        "southwest": {
          "lat": 54.3057451,
          "lng": -7.738595399999999
        }
      }
    },
    "place_id": "ChIJi2-rZ_hEXkgRBKAw5TMUSL8",
    "types": [
      "locality",
      "political"
    ]
  },
  {
    "area_id": 1995,
    "area_name": "Irvinestown",
    "county_name": "Fermanagh",
    "county_id": 30,
    "address_components": [
      {
        "long_name": "Irvinestown",
        "short_name": "Irvinestown",
        "types": [
          "locality",
          "political"
        ]
      },
      {
        "long_name": "Enniskillen",
        "short_name": "Enniskillen",
        "types": [
          "postal_town"
        ]
      },
      {
        "long_name": "Fermanagh and Omagh",
        "short_name": "Fermanagh and Omagh",
        "types": [
          "administrative_area_level_2",
          "political"
        ]
      },
      {
        "long_name": "Northern Ireland",
        "short_name": "Northern Ireland",
        "types": [
          "administrative_area_level_1",
          "political"
        ]
      },
      {
        "long_name": "United Kingdom",
        "short_name": "GB",
        "types": [
          "country",
          "political"
        ]
      },
      {
        "long_name": "BT94",
        "short_name": "BT94",
        "types": [
          "postal_code",
          "postal_code_prefix"
        ]
      }
    ],
    "formatted_address": "Irvinestown, Enniskillen BT94, UK",
    "geometry": {
      "bounds": {
        "northeast": {
          "lat": 54.4791137,
          "lng": -7.619659500000001
        },
        "southwest": {
          "lat": 54.4680995,
          "lng": -7.654818499999999
        }
      },
      "location": {
        "lat": 54.4714885,
        "lng": -7.6336596
      },
      "location_type": "APPROXIMATE",
      "viewport": {
        "northeast": {
          "lat": 54.4791137,
          "lng": -7.619659500000001
        },
        "southwest": {
          "lat": 54.4680995,
          "lng": -7.654818499999999
        }
      }
    },
    "place_id": "ChIJzUc9yRI1XkgRda_shVipITw",
    "types": [
      "locality",
      "political"
    ]
  },
  {
    "area_id": 3364,
    "area_name": "Mackan",
    "county_name": "Fermanagh",
    "county_id": 30,
    "address_components": [
      {
        "long_name": "Mackan",
        "short_name": "Mackan",
        "types": [
          "locality",
          "political"
        ]
      },
      {
        "long_name": "Enniskillen",
        "short_name": "Enniskillen",
        "types": [
          "postal_town"
        ]
      },
      {
        "long_name": "Fermanagh and Omagh",
        "short_name": "Fermanagh and Omagh",
        "types": [
          "administrative_area_level_2",
          "political"
        ]
      },
      {
        "long_name": "Northern Ireland",
        "short_name": "Northern Ireland",
        "types": [
          "administrative_area_level_1",
          "political"
        ]
      },
      {
        "long_name": "United Kingdom",
        "short_name": "GB",
        "types": [
          "country",
          "political"
        ]
      },
      {
        "long_name": "BT92 3DA",
        "short_name": "BT92 3DA",
        "types": [
          "postal_code"
        ]
      }
    ],
    "formatted_address": "Mackan, Enniskillen BT92 3DA, UK",
    "geometry": {
      "location": {
        "lat": 54.25886999999999,
        "lng": -7.6374
      },
      "location_type": "APPROXIMATE",
      "viewport": {
        "northeast": {
          "lat": 54.26021898029149,
          "lng": -7.636051019708497
        },
        "southwest": {
          "lat": 54.25752101970849,
          "lng": -7.638748980291502
        }
      }
    },
    "place_id": "ChIJ7b5SwkJBXkgRx2nM_SCAngc",
    "types": [
      "locality",
      "political"
    ]
  },
  {
    "area_id": 1975,
    "area_name": "Monea",
    "county_name": "Fermanagh",
    "county_id": 30,
    "address_components": [
      {
        "long_name": "Monea",
        "short_name": "Monea",
        "types": [
          "locality",
          "political"
        ]
      },
      {
        "long_name": "Enniskillen",
        "short_name": "Enniskillen",
        "types": [
          "postal_town"
        ]
      },
      {
        "long_name": "Fermanagh and Omagh",
        "short_name": "Fermanagh and Omagh",
        "types": [
          "administrative_area_level_2",
          "political"
        ]
      },
      {
        "long_name": "Northern Ireland",
        "short_name": "Northern Ireland",
        "types": [
          "administrative_area_level_1",
          "political"
        ]
      },
      {
        "long_name": "United Kingdom",
        "short_name": "GB",
        "types": [
          "country",
          "political"
        ]
      },
      {
        "long_name": "BT74 8GE",
        "short_name": "BT74 8GE",
        "types": [
          "postal_code"
        ]
      }
    ],
    "formatted_address": "Monea, Enniskillen BT74 8GE, UK",
    "geometry": {
      "location": {
        "lat": 54.39042999999999,
        "lng": -7.76031
      },
      "location_type": "APPROXIMATE",
      "viewport": {
        "northeast": {
          "lat": 54.3917789802915,
          "lng": -7.758961019708498
        },
        "southwest": {
          "lat": 54.3890810197085,
          "lng": -7.761658980291503
        }
      }
    },
    "place_id": "ChIJT3WykEVOXkgRdoicjVx5zKk",
    "types": [
      "locality",
      "political"
    ]
  },
  {
    "area_id": 1957,
    "area_name": "Rosscor",
    "county_name": "Fermanagh",
    "county_id": 30,
    "address_components": [
      {
        "long_name": "Rosscor",
        "short_name": "Rosscor",
        "types": [
          "locality",
          "political"
        ]
      },
      {
        "long_name": "Enniskillen",
        "short_name": "Enniskillen",
        "types": [
          "postal_town"
        ]
      },
      {
        "long_name": "Fermanagh and Omagh",
        "short_name": "Fermanagh and Omagh",
        "types": [
          "administrative_area_level_2",
          "political"
        ]
      },
      {
        "long_name": "Northern Ireland",
        "short_name": "Northern Ireland",
        "types": [
          "administrative_area_level_1",
          "political"
        ]
      },
      {
        "long_name": "United Kingdom",
        "short_name": "GB",
        "types": [
          "country",
          "political"
        ]
      },
      {
        "long_name": "BT93 3DA",
        "short_name": "BT93 3DA",
        "types": [
          "postal_code"
        ]
      }
    ],
    "formatted_address": "Rosscor, Enniskillen BT93 3DA, UK",
    "geometry": {
      "location": {
        "lat": 54.466961,
        "lng": -8.018473
      },
      "location_type": "APPROXIMATE",
      "viewport": {
        "northeast": {
          "lat": 54.46830998029149,
          "lng": -8.017124019708499
        },
        "southwest": {
          "lat": 54.46561201970849,
          "lng": -8.019821980291503
        }
      }
    },
    "place_id": "ChIJAWKuIa1VXkgRqHxXNIEgaP8",
    "types": [
      "locality",
      "political"
    ]
  },
  {
    "area_id": 3367,
    "area_name": "Teemore",
    "county_name": "Fermanagh",
    "county_id": 30,
    "address_components": [
      {
        "long_name": "Teemore",
        "short_name": "Teemore",
        "types": [
          "locality",
          "political"
        ]
      },
      {
        "long_name": "Enniskillen",
        "short_name": "Enniskillen",
        "types": [
          "postal_town"
        ]
      },
      {
        "long_name": "Fermanagh and Omagh",
        "short_name": "Fermanagh and Omagh",
        "types": [
          "administrative_area_level_2",
          "political"
        ]
      },
      {
        "long_name": "Northern Ireland",
        "short_name": "Northern Ireland",
        "types": [
          "administrative_area_level_1",
          "political"
        ]
      },
      {
        "long_name": "United Kingdom",
        "short_name": "GB",
        "types": [
          "country",
          "political"
        ]
      },
      {
        "long_name": "BT92 9QT",
        "short_name": "BT92 9QT",
        "types": [
          "postal_code"
        ]
      }
    ],
    "formatted_address": "Teemore, Enniskillen BT92 9QT, UK",
    "geometry": {
      "location": {
        "lat": 54.15347999999999,
        "lng": -7.526040000000001
      },
      "location_type": "APPROXIMATE",
      "viewport": {
        "northeast": {
          "lat": 54.1548289802915,
          "lng": -7.524691019708499
        },
        "southwest": {
          "lat": 54.1521310197085,
          "lng": -7.527388980291503
        }
      }
    },
    "place_id": "ChIJh4dmbidrXkgRbvPjwzANOUg",
    "types": [
      "locality",
      "political"
    ]
  },
  {
    "area_id": 3396,
    "area_name": "Rosslea",
    "county_name": "Fermanagh",
    "county_id": 30,
    "address_components": [
      {
        "long_name": "Rosslea",
        "short_name": "Rosslea",
        "types": [
          "locality",
          "political"
        ]
      },
      {
        "long_name": "Enniskillen",
        "short_name": "Enniskillen",
        "types": [
          "postal_town"
        ]
      },
      {
        "long_name": "Fermanagh and Omagh",
        "short_name": "Fermanagh and Omagh",
        "types": [
          "administrative_area_level_2",
          "political"
        ]
      },
      {
        "long_name": "Northern Ireland",
        "short_name": "Northern Ireland",
        "types": [
          "administrative_area_level_1",
          "political"
        ]
      },
      {
        "long_name": "United Kingdom",
        "short_name": "GB",
        "types": [
          "country",
          "political"
        ]
      },
      {
        "long_name": "BT92",
        "short_name": "BT92",
        "types": [
          "postal_code",
          "postal_code_prefix"
        ]
      }
    ],
    "formatted_address": "Rosslea, Enniskillen BT92, UK",
    "geometry": {
      "bounds": {
        "northeast": {
          "lat": 54.2473951,
          "lng": -7.169020400000001
        },
        "southwest": {
          "lat": 54.2321638,
          "lng": -7.1871018
        }
      },
      "location": {
        "lat": 54.23913,
        "lng": -7.172449899999999
      },
      "location_type": "APPROXIMATE",
      "viewport": {
        "northeast": {
          "lat": 54.2473951,
          "lng": -7.169020400000001
        },
        "southwest": {
          "lat": 54.2321638,
          "lng": -7.1871018
        }
      }
    },
    "place_id": "ChIJO0qTniYiXkgRa75manegWXQ",
    "types": [
      "locality",
      "political"
    ]
  },
  {
    "area_id": 3379,
    "area_name": "Newtownbutler",
    "county_name": "Fermanagh",
    "county_id": 30,
    "address_components": [
      {
        "long_name": "Newtownbutler",
        "short_name": "Newtownbutler",
        "types": [
          "locality",
          "political"
        ]
      },
      {
        "long_name": "Enniskillen",
        "short_name": "Enniskillen",
        "types": [
          "postal_town"
        ]
      },
      {
        "long_name": "Fermanagh and Omagh",
        "short_name": "Fermanagh and Omagh",
        "types": [
          "administrative_area_level_2",
          "political"
        ]
      },
      {
        "long_name": "Northern Ireland",
        "short_name": "Northern Ireland",
        "types": [
          "administrative_area_level_1",
          "political"
        ]
      },
      {
        "long_name": "United Kingdom",
        "short_name": "GB",
        "types": [
          "country",
          "political"
        ]
      },
      {
        "long_name": "BT92",
        "short_name": "BT92",
        "types": [
          "postal_code",
          "postal_code_prefix"
        ]
      }
    ],
    "formatted_address": "Newtownbutler, Enniskillen BT92, UK",
    "geometry": {
      "bounds": {
        "northeast": {
          "lat": 54.1866022,
          "lng": -7.3492374
        },
        "southwest": {
          "lat": 54.18003539999999,
          "lng": -7.3672125
        }
      },
      "location": {
        "lat": 54.18207109999999,
        "lng": -7.3606364
      },
      "location_type": "APPROXIMATE",
      "viewport": {
        "northeast": {
          "lat": 54.1866022,
          "lng": -7.3492374
        },
        "southwest": {
          "lat": 54.18003539999999,
          "lng": -7.3672125
        }
      }
    },
    "place_id": "ChIJdZmmmcoQXkgR5GsqgTuISiE",
    "types": [
      "locality",
      "political"
    ]
  },
  {
    "area_id": 3362,
    "area_name": "Tamlaght",
    "county_name": "Fermanagh",
    "county_id": 30,
    "address_components": [
      {
        "long_name": "Tamlaght",
        "short_name": "Tamlaght",
        "types": [
          "locality",
          "political"
        ]
      },
      {
        "long_name": "Enniskillen",
        "short_name": "Enniskillen",
        "types": [
          "postal_town"
        ]
      },
      {
        "long_name": "Fermanagh and Omagh",
        "short_name": "Fermanagh and Omagh",
        "types": [
          "administrative_area_level_2",
          "political"
        ]
      },
      {
        "long_name": "Northern Ireland",
        "short_name": "Northern Ireland",
        "types": [
          "administrative_area_level_1",
          "political"
        ]
      },
      {
        "long_name": "United Kingdom",
        "short_name": "GB",
        "types": [
          "country",
          "political"
        ]
      },
      {
        "long_name": "BT74 4HL",
        "short_name": "BT74 4HL",
        "types": [
          "postal_code"
        ]
      }
    ],
    "formatted_address": "Tamlaght, Enniskillen BT74 4HL, UK",
    "geometry": {
      "location": {
        "lat": 54.3175134,
        "lng": -7.572125199999999
      },
      "location_type": "APPROXIMATE",
      "viewport": {
        "northeast": {
          "lat": 54.3188623802915,
          "lng": -7.570776219708497
        },
        "southwest": {
          "lat": 54.3161644197085,
          "lng": -7.573474180291502
        }
      }
    },
    "place_id": "ChIJXxDRyHFHXkgRQCCuObU_Dwo",
    "types": [
      "locality",
      "political"
    ]
  },
  {
    "area_id": 3375,
    "area_name": "Lisnaskea",
    "county_name": "Fermanagh",
    "county_id": 30,
    "address_components": [
      {
        "long_name": "Lisnaskea",
        "short_name": "Lisnaskea",
        "types": [
          "locality",
          "political"
        ]
      },
      {
        "long_name": "Enniskillen",
        "short_name": "Enniskillen",
        "types": [
          "postal_town"
        ]
      },
      {
        "long_name": "Fermanagh and Omagh",
        "short_name": "Fermanagh and Omagh",
        "types": [
          "administrative_area_level_2",
          "political"
        ]
      },
      {
        "long_name": "Northern Ireland",
        "short_name": "Northern Ireland",
        "types": [
          "administrative_area_level_1",
          "political"
        ]
      },
      {
        "long_name": "United Kingdom",
        "short_name": "GB",
        "types": [
          "country",
          "political"
        ]
      },
      {
        "long_name": "BT92",
        "short_name": "BT92",
        "types": [
          "postal_code",
          "postal_code_prefix"
        ]
      }
    ],
    "formatted_address": "Lisnaskea, Enniskillen BT92, UK",
    "geometry": {
      "bounds": {
        "northeast": {
          "lat": 54.2658407,
          "lng": -7.437418999999999
        },
        "southwest": {
          "lat": 54.2493039,
          "lng": -7.466730600000001
        }
      },
      "location": {
        "lat": 54.2528935,
        "lng": -7.442869600000001
      },
      "location_type": "APPROXIMATE",
      "viewport": {
        "northeast": {
          "lat": 54.2658407,
          "lng": -7.437418999999999
        },
        "southwest": {
          "lat": 54.2493039,
          "lng": -7.466730600000001
        }
      }
    },
    "place_id": "ChIJKTzTy1AVXkgRrzxRis1D9PU",
    "types": [
      "locality",
      "political"
    ]
  },
  {
    "area_id": 1988,
    "area_name": "Trory",
    "county_name": "Fermanagh",
    "county_id": 30,
    "address_components": [
      {
        "long_name": "Trory",
        "short_name": "Trory",
        "types": [
          "locality",
          "political"
        ]
      },
      {
        "long_name": "Enniskillen",
        "short_name": "Enniskillen",
        "types": [
          "postal_town"
        ]
      },
      {
        "long_name": "Fermanagh and Omagh",
        "short_name": "Fermanagh and Omagh",
        "types": [
          "administrative_area_level_2",
          "political"
        ]
      },
      {
        "long_name": "Northern Ireland",
        "short_name": "Northern Ireland",
        "types": [
          "administrative_area_level_1",
          "political"
        ]
      },
      {
        "long_name": "United Kingdom",
        "short_name": "GB",
        "types": [
          "country",
          "political"
        ]
      },
      {
        "long_name": "BT94 2LA",
        "short_name": "BT94 2LA",
        "types": [
          "postal_code"
        ]
      }
    ],
    "formatted_address": "Trory, Enniskillen BT94 2LA, UK",
    "geometry": {
      "location": {
        "lat": 54.3901,
        "lng": -7.640879999999998
      },
      "location_type": "APPROXIMATE",
      "viewport": {
        "northeast": {
          "lat": 54.39144898029149,
          "lng": -7.639531019708496
        },
        "southwest": {
          "lat": 54.38875101970849,
          "lng": -7.642228980291501
        }
      }
    },
    "place_id": "ChIJAw-bbvRIXkgRt5cf4sSGcvA",
    "types": [
      "locality",
      "political"
    ]
  },
  {
    "area_id": 3374,
    "area_name": "Maguiresbridge",
    "county_name": "Fermanagh",
    "county_id": 30,
    "address_components": [
      {
        "long_name": "Maguiresbridge",
        "short_name": "Maguiresbridge",
        "types": [
          "locality",
          "political"
        ]
      },
      {
        "long_name": "Enniskillen",
        "short_name": "Enniskillen",
        "types": [
          "postal_town"
        ]
      },
      {
        "long_name": "Fermanagh and Omagh",
        "short_name": "Fermanagh and Omagh",
        "types": [
          "administrative_area_level_2",
          "political"
        ]
      },
      {
        "long_name": "Northern Ireland",
        "short_name": "Northern Ireland",
        "types": [
          "administrative_area_level_1",
          "political"
        ]
      },
      {
        "long_name": "United Kingdom",
        "short_name": "GB",
        "types": [
          "country",
          "political"
        ]
      },
      {
        "long_name": "BT94 4RY",
        "short_name": "BT94 4RY",
        "types": [
          "postal_code"
        ]
      }
    ],
    "formatted_address": "Maguiresbridge, Enniskillen BT94 4RY, UK",
    "geometry": {
      "location": {
        "lat": 54.29513,
        "lng": -7.46509
      },
      "location_type": "APPROXIMATE",
      "viewport": {
        "northeast": {
          "lat": 54.2964789802915,
          "lng": -7.463741019708498
        },
        "southwest": {
          "lat": 54.2937810197085,
          "lng": -7.466438980291502
        }
      }
    },
    "place_id": "ChIJK9cNSDQ5XkgRICSuObU_Dwo",
    "types": [
      "locality",
      "political"
    ]
  }
]