[
  {
    "area_id": 3157,
    "area_name": "Annagassan",
    "county_name": "Louth",
    "county_id": 9,
    "address_components": [
      {
        "long_name": "Annagassan",
        "short_name": "Annagassan",
        "types": [
          "locality",
          "political"
        ]
      },
      {
        "long_name": "Linns",
        "short_name": "Linns",
        "types": [
          "neighborhood",
          "political"
        ]
      },
      {
        "long_name": "County Louth",
        "short_name": "LH",
        "types": [
          "administrative_area_level_1",
          "political"
        ]
      },
      {
        "long_name": "Ireland",
        "short_name": "IE",
        "types": [
          "country",
          "political"
        ]
      }
    ],
    "formatted_address": "Linns, Annagassan, Co. Louth, Ireland",
    "geometry": {
      "location": {
        "lat": 53.882628,
        "lng": -6.343494199999999
      },
      "location_type": "APPROXIMATE",
      "viewport": {
        "northeast": {
          "lat": 53.8839769802915,
          "lng": -6.342145219708497
        },
        "southwest": {
          "lat": 53.8812790197085,
          "lng": -6.344843180291502
        }
      }
    },
    "place_id": "ChIJt3MCTAEzZ0gRMLgxl6nHAAo",
    "types": [
      "locality",
      "political"
    ]
  },
  {
    "area_id": 3169,
    "area_name": "Collon",
    "county_name": "Louth",
    "county_id": 9,
    "address_components": [
      {
        "long_name": "Collon",
        "short_name": "Collon",
        "types": [
          "locality",
          "political"
        ]
      },
      {
        "long_name": "Collon",
        "short_name": "Collon",
        "types": [
          "neighborhood",
          "political"
        ]
      },
      {
        "long_name": "County Louth",
        "short_name": "LH",
        "types": [
          "administrative_area_level_1",
          "political"
        ]
      },
      {
        "long_name": "Ireland",
        "short_name": "IE",
        "types": [
          "country",
          "political"
        ]
      }
    ],
    "formatted_address": "Collon, Co. Louth, Ireland",
    "geometry": {
      "location": {
        "lat": 53.7777425,
        "lng": -6.4840991
      },
      "location_type": "APPROXIMATE",
      "viewport": {
        "northeast": {
          "lat": 53.77909148029151,
          "lng": -6.482750119708498
        },
        "southwest": {
          "lat": 53.77639351970851,
          "lng": -6.485448080291502
        }
      }
    },
    "place_id": "ChIJLYVeSCtIZ0gRQPQxl6nHAAo",
    "types": [
      "locality",
      "political"
    ]
  },
  {
    "area_id": 3151,
    "area_name": "Castlebellingham",
    "county_name": "Louth",
    "county_id": 9,
    "address_components": [
      {
        "long_name": "Castlebellingham",
        "short_name": "Castlebellingham",
        "types": [
          "locality",
          "political"
        ]
      },
      {
        "long_name": "Castlebellingham",
        "short_name": "Castlebellingham",
        "types": [
          "neighborhood",
          "political"
        ]
      },
      {
        "long_name": "County Louth",
        "short_name": "LH",
        "types": [
          "administrative_area_level_1",
          "political"
        ]
      },
      {
        "long_name": "Ireland",
        "short_name": "IE",
        "types": [
          "country",
          "political"
        ]
      }
    ],
    "formatted_address": "Castlebellingham, Co. Louth, Ireland",
    "geometry": {
      "location": {
        "lat": 53.8978634,
        "lng": -6.3894299
      },
      "location_type": "APPROXIMATE",
      "viewport": {
        "northeast": {
          "lat": 53.8992123802915,
          "lng": -6.388080919708497
        },
        "southwest": {
          "lat": 53.8965144197085,
          "lng": -6.390778880291502
        }
      }
    },
    "place_id": "ChIJ9WXJXVwzZ0gR8Hkxl6nHAAo",
    "types": [
      "locality",
      "political"
    ]
  },
  {
    "area_id": 3178,
    "area_name": "Baltray",
    "county_name": "Louth",
    "county_id": 9,
    "address_components": [
      {
        "long_name": "Baltray",
        "short_name": "Baltray",
        "types": [
          "locality",
          "political"
        ]
      },
      {
        "long_name": "Braghan",
        "short_name": "Braghan",
        "types": [
          "neighborhood",
          "political"
        ]
      },
      {
        "long_name": "County Louth",
        "short_name": "LH",
        "types": [
          "administrative_area_level_1",
          "political"
        ]
      },
      {
        "long_name": "Ireland",
        "short_name": "IE",
        "types": [
          "country",
          "political"
        ]
      }
    ],
    "formatted_address": "Braghan, Baltray, Co. Louth, Ireland",
    "geometry": {
      "location": {
        "lat": 53.7371107,
        "lng": -6.2704904
      },
      "location_type": "APPROXIMATE",
      "viewport": {
        "northeast": {
          "lat": 53.7384596802915,
          "lng": -6.269141419708498
        },
        "southwest": {
          "lat": 53.7357617197085,
          "lng": -6.271839380291502
        }
      }
    },
    "place_id": "ChIJ0cNJnaE6Z0gRgNcxl6nHAAo",
    "types": [
      "locality",
      "political"
    ]
  },
  {
    "area_id": 3146,
    "area_name": "Ardee",
    "county_name": "Louth",
    "county_id": 9,
    "address_components": [
      {
        "long_name": "Ardee",
        "short_name": "Ardee",
        "types": [
          "locality",
          "political"
        ]
      },
      {
        "long_name": "Cappocksgreen",
        "short_name": "Cappocksgreen",
        "types": [
          "neighborhood",
          "political"
        ]
      },
      {
        "long_name": "County Louth",
        "short_name": "LH",
        "types": [
          "administrative_area_level_1",
          "political"
        ]
      },
      {
        "long_name": "Ireland",
        "short_name": "IE",
        "types": [
          "country",
          "political"
        ]
      }
    ],
    "formatted_address": "Cappocksgreen, Ardee, Co. Louth, Ireland",
    "geometry": {
      "location": {
        "lat": 53.8576227,
        "lng": -6.5400009
      },
      "location_type": "APPROXIMATE",
      "viewport": {
        "northeast": {
          "lat": 53.8589716802915,
          "lng": -6.538651919708498
        },
        "southwest": {
          "lat": 53.8562737197085,
          "lng": -6.541349880291502
        }
      }
    },
    "place_id": "ChIJtfuU8lpKZ0gRINQxl6nHAAo",
    "types": [
      "locality",
      "political"
    ]
  },
  {
    "area_id": 3149,
    "area_name": "Blackrock",
    "county_name": "Louth",
    "county_id": 9,
    "address_components": [
      {
        "long_name": "Blackrock",
        "short_name": "Blackrock",
        "types": [
          "locality",
          "political"
        ]
      },
      {
        "long_name": "Haggardstown",
        "short_name": "Haggardstown",
        "types": [
          "neighborhood",
          "political"
        ]
      },
      {
        "long_name": "County Louth",
        "short_name": "LH",
        "types": [
          "administrative_area_level_1",
          "political"
        ]
      },
      {
        "long_name": "Ireland",
        "short_name": "IE",
        "types": [
          "country",
          "political"
        ]
      }
    ],
    "formatted_address": "Haggardstown, Blackrock, Co. Louth, Ireland",
    "geometry": {
      "location": {
        "lat": 53.96804160000001,
        "lng": -6.361808
      },
      "location_type": "APPROXIMATE",
      "viewport": {
        "northeast": {
          "lat": 53.96939058029151,
          "lng": -6.360459019708498
        },
        "southwest": {
          "lat": 53.96669261970851,
          "lng": -6.363156980291502
        }
      }
    },
    "place_id": "ChIJmzBxq1_MYEgRQBcyl6nHAAo",
    "types": [
      "locality",
      "political"
    ]
  },
  {
    "area_id": 3500,
    "area_name": "Carlingford",
    "county_name": "Louth",
    "county_id": 9,
    "address_components": [
      {
        "long_name": "Carlingford",
        "short_name": "Carlingford",
        "types": [
          "locality",
          "political"
        ]
      },
      {
        "long_name": "County Louth",
        "short_name": "LH",
        "types": [
          "administrative_area_level_1",
          "political"
        ]
      },
      {
        "long_name": "Ireland",
        "short_name": "IE",
        "types": [
          "country",
          "political"
        ]
      }
    ],
    "formatted_address": "Carlingford, Co. Louth, Ireland",
    "geometry": {
      "bounds": {
        "northeast": {
          "lat": 54.0475686,
          "lng": -6.175510699999999
        },
        "southwest": {
          "lat": 54.03115039999999,
          "lng": -6.1970265
        }
      },
      "location": {
        "lat": 54.0468677,
        "lng": -6.190181
      },
      "location_type": "APPROXIMATE",
      "viewport": {
        "northeast": {
          "lat": 54.0475686,
          "lng": -6.175510699999999
        },
        "southwest": {
          "lat": 54.03115039999999,
          "lng": -6.1970265
        }
      }
    },
    "place_id": "ChIJ61xI1b7WYEgRAIgxl6nHAAo",
    "types": [
      "locality",
      "political"
    ]
  },
  {
    "area_id": 3176,
    "area_name": "Clogherhead",
    "county_name": "Louth",
    "county_id": 9,
    "address_components": [
      {
        "long_name": "Clogherhead",
        "short_name": "Clogherhead",
        "types": [
          "locality",
          "political"
        ]
      },
      {
        "long_name": "Clogher",
        "short_name": "Clogher",
        "types": [
          "neighborhood",
          "political"
        ]
      },
      {
        "long_name": "County Louth",
        "short_name": "LH",
        "types": [
          "administrative_area_level_1",
          "political"
        ]
      },
      {
        "long_name": "Ireland",
        "short_name": "IE",
        "types": [
          "country",
          "political"
        ]
      }
    ],
    "formatted_address": "Clogher, Clogherhead, Co. Louth, Ireland",
    "geometry": {
      "location": {
        "lat": 53.7916777,
        "lng": -6.2388506
      },
      "location_type": "APPROXIMATE",
      "viewport": {
        "northeast": {
          "lat": 53.7930266802915,
          "lng": -6.237501619708498
        },
        "southwest": {
          "lat": 53.7903287197085,
          "lng": -6.240199580291502
        }
      }
    },
    "place_id": "ChIJ_7Bmfs0vZ0gRIHsxl6nHAAo",
    "types": [
      "locality",
      "political"
    ]
  },
  {
    "area_id": 3168,
    "area_name": "Ballymakenny",
    "county_name": "Louth",
    "county_id": 9,
    "address_components": [
      {
        "long_name": "Ballymakenny",
        "short_name": "Ballymakenny",
        "types": [
          "neighborhood",
          "political"
        ]
      },
      {
        "long_name": "County Louth",
        "short_name": "LH",
        "types": [
          "administrative_area_level_1",
          "political"
        ]
      },
      {
        "long_name": "Ireland",
        "short_name": "IE",
        "types": [
          "country",
          "political"
        ]
      }
    ],
    "formatted_address": "Ballymakenny, Co. Louth, Ireland",
    "geometry": {
      "bounds": {
        "northeast": {
          "lat": 53.7724665,
          "lng": -6.3440514
        },
        "southwest": {
          "lat": 53.7586385,
          "lng": -6.3650911
        }
      },
      "location": {
        "lat": 53.7637757,
        "lng": -6.3550628
      },
      "location_type": "APPROXIMATE",
      "viewport": {
        "northeast": {
          "lat": 53.7724665,
          "lng": -6.3440514
        },
        "southwest": {
          "lat": 53.7586385,
          "lng": -6.3650911
        }
      }
    },
    "place_id": "ChIJ7QldNL8wZ0gRQqi6GajHACY",
    "types": [
      "neighborhood",
      "political"
    ]
  },
  {
    "area_id": 3171,
    "area_name": "Drogheda",
    "county_name": "Louth",
    "county_id": 9,
    "address_components": [
      {
        "long_name": "Drogheda",
        "short_name": "Drogheda",
        "types": [
          "locality",
          "political"
        ]
      },
      {
        "long_name": "County Louth",
        "short_name": "LH",
        "types": [
          "administrative_area_level_1",
          "political"
        ]
      },
      {
        "long_name": "Ireland",
        "short_name": "IE",
        "types": [
          "country",
          "political"
        ]
      }
    ],
    "formatted_address": "Drogheda, Co. Louth, Ireland",
    "geometry": {
      "bounds": {
        "northeast": {
          "lat": 53.73425,
          "lng": -6.2989899
        },
        "southwest": {
          "lat": 53.69853,
          "lng": -6.38988
        }
      },
      "location": {
        "lat": 53.717856,
        "lng": -6.3560985
      },
      "location_type": "APPROXIMATE",
      "viewport": {
        "northeast": {
          "lat": 53.73425,
          "lng": -6.2989899
        },
        "southwest": {
          "lat": 53.69853,
          "lng": -6.38988
        }
      }
    },
    "place_id": "ChIJHd0FwCY6Z0gRk_w6GpRKyWw",
    "types": [
      "locality",
      "political"
    ]
  },
  {
    "area_id": 3470,
    "area_name": "Dowdallshill",
    "county_name": "Louth",
    "county_id": 9,
    "address_components": [
      {
        "long_name": "Dowdallshill",
        "short_name": "Dowdallshill",
        "types": [
          "neighborhood",
          "political"
        ]
      },
      {
        "long_name": "County Louth",
        "short_name": "LH",
        "types": [
          "administrative_area_level_1",
          "political"
        ]
      },
      {
        "long_name": "Ireland",
        "short_name": "IE",
        "types": [
          "country",
          "political"
        ]
      }
    ],
    "formatted_address": "Dowdallshill, Co. Louth, Ireland",
    "geometry": {
      "bounds": {
        "northeast": {
          "lat": 54.02869800000001,
          "lng": -6.3787233
        },
        "southwest": {
          "lat": 54.0154375,
          "lng": -6.399394999999999
        }
      },
      "location": {
        "lat": 54.0228575,
        "lng": -6.393574999999999
      },
      "location_type": "APPROXIMATE",
      "viewport": {
        "northeast": {
          "lat": 54.02869800000001,
          "lng": -6.3787233
        },
        "southwest": {
          "lat": 54.0154375,
          "lng": -6.399394999999999
        }
      }
    },
    "place_id": "ChIJezocMJLOYEgRcmbHGajHACY",
    "types": [
      "neighborhood",
      "political"
    ]
  },
  {
    "area_id": 3913,
    "area_name": "Jenkinstown",
    "county_name": "Louth",
    "county_id": 9,
    "address_components": [
      {
        "long_name": "Jenkinstown",
        "short_name": "Jenkinstown",
        "types": [
          "locality",
          "political"
        ]
      },
      {
        "long_name": "Rockmarshall",
        "short_name": "Rockmarshall",
        "types": [
          "neighborhood",
          "political"
        ]
      },
      {
        "long_name": "County Louth",
        "short_name": "LH",
        "types": [
          "administrative_area_level_1",
          "political"
        ]
      },
      {
        "long_name": "Ireland",
        "short_name": "IE",
        "types": [
          "country",
          "political"
        ]
      }
    ],
    "formatted_address": "Rockmarshall, Jenkinstown, Co. Louth, Ireland",
    "geometry": {
      "location": {
        "lat": 54.01605559999999,
        "lng": -6.3103519
      },
      "location_type": "APPROXIMATE",
      "viewport": {
        "northeast": {
          "lat": 54.0174045802915,
          "lng": -6.309002919708497
        },
        "southwest": {
          "lat": 54.0147066197085,
          "lng": -6.311700880291502
        }
      }
    },
    "place_id": "ChIJAbGztePRYEgRQNcxl6nHAAo",
    "types": [
      "locality",
      "political"
    ]
  },
  {
    "area_id": 3155,
    "area_name": "Drumcar",
    "county_name": "Louth",
    "county_id": 9,
    "address_components": [
      {
        "long_name": "Drumcar",
        "short_name": "Drumcar",
        "types": [
          "neighborhood",
          "political"
        ]
      },
      {
        "long_name": "County Louth",
        "short_name": "LH",
        "types": [
          "administrative_area_level_1",
          "political"
        ]
      },
      {
        "long_name": "Ireland",
        "short_name": "IE",
        "types": [
          "country",
          "political"
        ]
      }
    ],
    "formatted_address": "Drumcar, Co. Louth, Ireland",
    "geometry": {
      "bounds": {
        "northeast": {
          "lat": 53.8654986,
          "lng": -6.366369799999999
        },
        "southwest": {
          "lat": 53.8474531,
          "lng": -6.394505100000001
        }
      },
      "location": {
        "lat": 53.85537369999999,
        "lng": -6.3795424
      },
      "location_type": "APPROXIMATE",
      "viewport": {
        "northeast": {
          "lat": 53.8654986,
          "lng": -6.366369799999999
        },
        "southwest": {
          "lat": 53.8474531,
          "lng": -6.394505100000001
        }
      }
    },
    "place_id": "ChIJTwk7r48zZ0gRIqy6GajHACY",
    "types": [
      "neighborhood",
      "political"
    ]
  },
  {
    "area_id": 4044,
    "area_name": "Darver",
    "county_name": "Louth",
    "county_id": 9,
    "address_components": [
      {
        "long_name": "Darver",
        "short_name": "Darver",
        "types": [
          "neighborhood",
          "political"
        ]
      },
      {
        "long_name": "Prospect",
        "short_name": "Prospect",
        "types": [
          "political",
          "sublocality",
          "sublocality_level_1"
        ]
      },
      {
        "long_name": "County Louth",
        "short_name": "LH",
        "types": [
          "administrative_area_level_1",
          "political"
        ]
      },
      {
        "long_name": "Ireland",
        "short_name": "IE",
        "types": [
          "country",
          "political"
        ]
      }
    ],
    "formatted_address": "Darver, Prospect, Co. Louth, Ireland",
    "geometry": {
      "bounds": {
        "northeast": {
          "lat": 53.9335004,
          "lng": -6.455963199999999
        },
        "southwest": {
          "lat": 53.91888179999999,
          "lng": -6.4848304
        }
      },
      "location": {
        "lat": 53.9271277,
        "lng": -6.4704527
      },
      "location_type": "APPROXIMATE",
      "viewport": {
        "northeast": {
          "lat": 53.9335004,
          "lng": -6.455963199999999
        },
        "southwest": {
          "lat": 53.91888179999999,
          "lng": -6.4848304
        }
      }
    },
    "place_id": "ChIJSeb5uCDLYEgRgvdUu6fHACY",
    "types": [
      "neighborhood",
      "political"
    ]
  },
  {
    "area_id": 3173,
    "area_name": "Dunany",
    "county_name": "Louth",
    "county_id": 9,
    "address_components": [
      {
        "long_name": "Dunany",
        "short_name": "Dunany",
        "types": [
          "neighborhood",
          "political"
        ]
      },
      {
        "long_name": "County Louth",
        "short_name": "LH",
        "types": [
          "administrative_area_level_1",
          "political"
        ]
      },
      {
        "long_name": "Ireland",
        "short_name": "IE",
        "types": [
          "country",
          "political"
        ]
      }
    ],
    "formatted_address": "Dunany, Co. Louth, Ireland",
    "geometry": {
      "bounds": {
        "northeast": {
          "lat": 53.8690714,
          "lng": -6.2376979
        },
        "southwest": {
          "lat": 53.8496191,
          "lng": -6.2668377
        }
      },
      "location": {
        "lat": 53.8585631,
        "lng": -6.255862200000001
      },
      "location_type": "APPROXIMATE",
      "viewport": {
        "northeast": {
          "lat": 53.8690714,
          "lng": -6.2376979
        },
        "southwest": {
          "lat": 53.8496191,
          "lng": -6.2668377
        }
      }
    },
    "place_id": "ChIJrT8w2vItZ0gRgqy6GajHACY",
    "types": [
      "neighborhood",
      "political"
    ]
  },
  {
    "area_id": 3150,
    "area_name": "Dromiskin",
    "county_name": "Louth",
    "county_id": 9,
    "address_components": [
      {
        "long_name": "Dromiskin",
        "short_name": "Dromiskin",
        "types": [
          "locality",
          "political"
        ]
      },
      {
        "long_name": "Dromiskin",
        "short_name": "Dromiskin",
        "types": [
          "neighborhood",
          "political"
        ]
      },
      {
        "long_name": "County Louth",
        "short_name": "LH",
        "types": [
          "administrative_area_level_1",
          "political"
        ]
      },
      {
        "long_name": "Ireland",
        "short_name": "IE",
        "types": [
          "country",
          "political"
        ]
      }
    ],
    "formatted_address": "Dromiskin, Co. Louth, Ireland",
    "geometry": {
      "location": {
        "lat": 53.9217123,
        "lng": -6.401009200000001
      },
      "location_type": "APPROXIMATE",
      "viewport": {
        "northeast": {
          "lat": 53.9230612802915,
          "lng": -6.399660219708499
        },
        "southwest": {
          "lat": 53.9203633197085,
          "lng": -6.402358180291503
        }
      }
    },
    "place_id": "ChIJiz2T8qfMYEgRkHkxl6nHAAo",
    "types": [
      "locality",
      "political"
    ]
  },
  {
    "area_id": 3156,
    "area_name": "Dromin",
    "county_name": "Louth",
    "county_id": 9,
    "address_components": [
      {
        "long_name": "Dromin",
        "short_name": "Dromin",
        "types": [
          "locality",
          "political"
        ]
      },
      {
        "long_name": "Dromin",
        "short_name": "Dromin",
        "types": [
          "neighborhood",
          "political"
        ]
      },
      {
        "long_name": "County Louth",
        "short_name": "LH",
        "types": [
          "administrative_area_level_1",
          "political"
        ]
      },
      {
        "long_name": "Ireland",
        "short_name": "IE",
        "types": [
          "country",
          "political"
        ]
      }
    ],
    "formatted_address": "Dromin, Co. Louth, Ireland",
    "geometry": {
      "location": {
        "lat": 53.8438489,
        "lng": -6.4366612
      },
      "location_type": "APPROXIMATE",
      "viewport": {
        "northeast": {
          "lat": 53.84519788029149,
          "lng": -6.435312219708497
        },
        "southwest": {
          "lat": 53.84249991970849,
          "lng": -6.438010180291502
        }
      }
    },
    "place_id": "ChIJzWtbTjQ0Z0gRlQ-xmEDRVSU",
    "types": [
      "locality",
      "political"
    ]
  },
  {
    "area_id": 3469,
    "area_name": "Kilcurly",
    "county_name": "Louth",
    "county_id": 9,
    "address_components": [
      {
        "long_name": "Kilcurry",
        "short_name": "Kilcurry",
        "types": [
          "neighborhood",
          "political"
        ]
      },
      {
        "long_name": "County Louth",
        "short_name": "LH",
        "types": [
          "administrative_area_level_1",
          "political"
        ]
      },
      {
        "long_name": "Ireland",
        "short_name": "IE",
        "types": [
          "country",
          "political"
        ]
      }
    ],
    "formatted_address": "Kilcurry, Co. Louth, Ireland",
    "geometry": {
      "bounds": {
        "northeast": {
          "lat": 54.0464739,
          "lng": -6.4209057
        },
        "southwest": {
          "lat": 54.035748,
          "lng": -6.445122599999999
        }
      },
      "location": {
        "lat": 54.0418294,
        "lng": -6.434779199999999
      },
      "location_type": "APPROXIMATE",
      "viewport": {
        "northeast": {
          "lat": 54.0464739,
          "lng": -6.4209057
        },
        "southwest": {
          "lat": 54.035748,
          "lng": -6.445122599999999
        }
      }
    },
    "partial_match": true,
    "place_id": "ChIJF40vldXOYEgRkby6GajHACY",
    "types": [
      "neighborhood",
      "political"
    ]
  },
  {
    "area_id": 3501,
    "area_name": "Grange",
    "county_name": "Louth",
    "county_id": 9,
    "address_components": [
      {
        "long_name": "Grange",
        "short_name": "Grange",
        "types": [
          "locality",
          "political"
        ]
      },
      {
        "long_name": "Monksland",
        "short_name": "Monksland",
        "types": [
          "neighborhood",
          "political"
        ]
      },
      {
        "long_name": "County Louth",
        "short_name": "LH",
        "types": [
          "administrative_area_level_1",
          "political"
        ]
      },
      {
        "long_name": "Ireland",
        "short_name": "IE",
        "types": [
          "country",
          "political"
        ]
      }
    ],
    "formatted_address": "Monksland, Grange, Co. Louth, Ireland",
    "geometry": {
      "location": {
        "lat": 54.00474000000001,
        "lng": -6.17747
      },
      "location_type": "APPROXIMATE",
      "viewport": {
        "northeast": {
          "lat": 54.00608898029151,
          "lng": -6.176121019708497
        },
        "southwest": {
          "lat": 54.00339101970851,
          "lng": -6.178818980291502
        }
      }
    },
    "place_id": "ChIJzxpmIA_UYEgRiktVqgfvzKk",
    "types": [
      "locality",
      "political"
    ]
  },
  {
    "area_id": 3143,
    "area_name": "Chanonrock",
    "county_name": "Louth",
    "county_id": 9,
    "address_components": [
      {
        "long_name": "Channonrock",
        "short_name": "Channonrock",
        "types": [
          "locality",
          "political"
        ]
      },
      {
        "long_name": "Chanonrock",
        "short_name": "Chanonrock",
        "types": [
          "neighborhood",
          "political"
        ]
      },
      {
        "long_name": "County Louth",
        "short_name": "LH",
        "types": [
          "administrative_area_level_1",
          "political"
        ]
      },
      {
        "long_name": "Ireland",
        "short_name": "IE",
        "types": [
          "country",
          "political"
        ]
      }
    ],
    "formatted_address": "Chanonrock, Channonrock, Co. Louth, Ireland",
    "geometry": {
      "location": {
        "lat": 53.97629,
        "lng": -6.55139
      },
      "location_type": "APPROXIMATE",
      "viewport": {
        "northeast": {
          "lat": 53.9776389802915,
          "lng": -6.550041019708497
        },
        "southwest": {
          "lat": 53.9749410197085,
          "lng": -6.552738980291502
        }
      }
    },
    "partial_match": true,
    "place_id": "ChIJKWN7Duy1YEgR4IQXUsMbvog",
    "types": [
      "locality",
      "political"
    ]
  },
  {
    "area_id": 3468,
    "area_name": "Kilcurry",
    "county_name": "Louth",
    "county_id": 9,
    "address_components": [
      {
        "long_name": "Kilcurry",
        "short_name": "Kilcurry",
        "types": [
          "neighborhood",
          "political"
        ]
      },
      {
        "long_name": "County Louth",
        "short_name": "LH",
        "types": [
          "administrative_area_level_1",
          "political"
        ]
      },
      {
        "long_name": "Ireland",
        "short_name": "IE",
        "types": [
          "country",
          "political"
        ]
      }
    ],
    "formatted_address": "Kilcurry, Co. Louth, Ireland",
    "geometry": {
      "bounds": {
        "northeast": {
          "lat": 54.0464739,
          "lng": -6.4209057
        },
        "southwest": {
          "lat": 54.035748,
          "lng": -6.445122599999999
        }
      },
      "location": {
        "lat": 54.0418294,
        "lng": -6.434779199999999
      },
      "location_type": "APPROXIMATE",
      "viewport": {
        "northeast": {
          "lat": 54.0464739,
          "lng": -6.4209057
        },
        "southwest": {
          "lat": 54.035748,
          "lng": -6.445122599999999
        }
      }
    },
    "place_id": "ChIJF40vldXOYEgRkby6GajHACY",
    "types": [
      "neighborhood",
      "political"
    ]
  },
  {
    "area_id": 3471,
    "area_name": "Dundalk",
    "county_name": "Louth",
    "county_id": 9,
    "address_components": [
      {
        "long_name": "Dundalk",
        "short_name": "Dundalk",
        "types": [
          "locality",
          "political"
        ]
      },
      {
        "long_name": "County Louth",
        "short_name": "LH",
        "types": [
          "administrative_area_level_1",
          "political"
        ]
      },
      {
        "long_name": "Ireland",
        "short_name": "IE",
        "types": [
          "country",
          "political"
        ]
      }
    ],
    "formatted_address": "Dundalk, Co. Louth, Ireland",
    "geometry": {
      "bounds": {
        "northeast": {
          "lat": 54.02587,
          "lng": -6.34662
        },
        "southwest": {
          "lat": 53.96965,
          "lng": -6.44125
        }
      },
      "location": {
        "lat": 53.9979451,
        "lng": -6.405957
      },
      "location_type": "APPROXIMATE",
      "viewport": {
        "northeast": {
          "lat": 54.02587,
          "lng": -6.34662
        },
        "southwest": {
          "lat": 53.96965,
          "lng": -6.44125
        }
      }
    },
    "place_id": "ChIJy2rIpB_MYEgRkHQxl6nHAAo",
    "types": [
      "locality",
      "political"
    ]
  },
  {
    "area_id": 3144,
    "area_name": "Louth",
    "county_name": "Louth",
    "county_id": 9,
    "address_components": [
      {
        "long_name": "Louth Village",
        "short_name": "Louth Village",
        "types": [
          "locality",
          "political"
        ]
      },
      {
        "long_name": "Commons",
        "short_name": "Commons",
        "types": [
          "neighborhood",
          "political"
        ]
      },
      {
        "long_name": "County Louth",
        "short_name": "LH",
        "types": [
          "administrative_area_level_1",
          "political"
        ]
      },
      {
        "long_name": "Ireland",
        "short_name": "IE",
        "types": [
          "country",
          "political"
        ]
      }
    ],
    "formatted_address": "Commons, Louth Village, Ireland",
    "geometry": {
      "location": {
        "lat": 53.95080000000001,
        "lng": -6.54062
      },
      "location_type": "APPROXIMATE",
      "viewport": {
        "northeast": {
          "lat": 53.95214898029151,
          "lng": -6.539271019708497
        },
        "southwest": {
          "lat": 53.94945101970851,
          "lng": -6.541968980291502
        }
      }
    },
    "place_id": "ChIJF2OWYJ21YEgRXLueSbaFYPQ",
    "types": [
      "locality",
      "political"
    ]
  },
  {
    "area_id": 3504,
    "area_name": "Giles Quay",
    "county_name": "Louth",
    "county_id": 9,
    "address_components": [
      {
        "long_name": "Gyles Quay",
        "short_name": "Gyles Quay",
        "types": [
          "locality",
          "political"
        ]
      },
      {
        "long_name": "Maddoxland",
        "short_name": "Maddoxland",
        "types": [
          "neighborhood",
          "political"
        ]
      },
      {
        "long_name": "County Louth",
        "short_name": "LH",
        "types": [
          "administrative_area_level_1",
          "political"
        ]
      },
      {
        "long_name": "Ireland",
        "short_name": "IE",
        "types": [
          "country",
          "political"
        ]
      }
    ],
    "formatted_address": "Maddoxland, Gyles Quay, Co. Louth, Ireland",
    "geometry": {
      "location": {
        "lat": 53.98666,
        "lng": -6.23879
      },
      "location_type": "APPROXIMATE",
      "viewport": {
        "northeast": {
          "lat": 53.9880089802915,
          "lng": -6.237441019708498
        },
        "southwest": {
          "lat": 53.9853110197085,
          "lng": -6.240138980291502
        }
      }
    },
    "place_id": "ChIJb7o727XTYEgRIdPqMmykWOk",
    "types": [
      "locality",
      "political"
    ]
  },
  {
    "area_id": 3166,
    "area_name": "Dunleer",
    "county_name": "Louth",
    "county_id": 9,
    "address_components": [
      {
        "long_name": "Dunleer",
        "short_name": "Dunleer",
        "types": [
          "locality",
          "political"
        ]
      },
      {
        "long_name": "Battsland",
        "short_name": "Battsland",
        "types": [
          "neighborhood",
          "political"
        ]
      },
      {
        "long_name": "County Louth",
        "short_name": "LH",
        "types": [
          "administrative_area_level_1",
          "political"
        ]
      },
      {
        "long_name": "Ireland",
        "short_name": "IE",
        "types": [
          "country",
          "political"
        ]
      }
    ],
    "formatted_address": "Battsland, Dunleer, Co. Louth, Ireland",
    "geometry": {
      "location": {
        "lat": 53.8310533,
        "lng": -6.3944559
      },
      "location_type": "APPROXIMATE",
      "viewport": {
        "northeast": {
          "lat": 53.8324022802915,
          "lng": -6.393106919708497
        },
        "southwest": {
          "lat": 53.8297043197085,
          "lng": -6.395804880291502
        }
      }
    },
    "place_id": "ChIJ3Y2mhAM0Z0gRsHsxl6nHAAo",
    "types": [
      "locality",
      "political"
    ]
  },
  {
    "area_id": 3148,
    "area_name": "Knockbridge",
    "county_name": "Louth",
    "county_id": 9,
    "address_components": [
      {
        "long_name": "Knockbridge",
        "short_name": "Knockbridge",
        "types": [
          "locality",
          "political"
        ]
      },
      {
        "long_name": "Ballinlough",
        "short_name": "Ballinlough",
        "types": [
          "neighborhood",
          "political"
        ]
      },
      {
        "long_name": "County Louth",
        "short_name": "LH",
        "types": [
          "administrative_area_level_1",
          "political"
        ]
      },
      {
        "long_name": "Ireland",
        "short_name": "IE",
        "types": [
          "country",
          "political"
        ]
      }
    ],
    "formatted_address": "Ballinlough, Knockbridge, Co. Louth, Ireland",
    "geometry": {
      "location": {
        "lat": 53.9718223,
        "lng": -6.486281099999999
      },
      "location_type": "APPROXIMATE",
      "viewport": {
        "northeast": {
          "lat": 53.9731712802915,
          "lng": -6.484932119708497
        },
        "southwest": {
          "lat": 53.9704733197085,
          "lng": -6.487630080291502
        }
      }
    },
    "place_id": "ChIJnZK-80jKYEgRkH8xl6nHAAo",
    "types": [
      "locality",
      "political"
    ]
  },
  {
    "area_id": 3174,
    "area_name": "Togher",
    "county_name": "Louth",
    "county_id": 9,
    "address_components": [
      {
        "long_name": "Togher",
        "short_name": "Togher",
        "types": [
          "locality",
          "political"
        ]
      },
      {
        "long_name": "Togher",
        "short_name": "Togher",
        "types": [
          "neighborhood",
          "political"
        ]
      },
      {
        "long_name": "County Louth",
        "short_name": "LH",
        "types": [
          "administrative_area_level_1",
          "political"
        ]
      },
      {
        "long_name": "Ireland",
        "short_name": "IE",
        "types": [
          "country",
          "political"
        ]
      }
    ],
    "formatted_address": "Togher, Co. Louth, Ireland",
    "geometry": {
      "location": {
        "lat": 53.8392338,
        "lng": -6.302091799999999
      },
      "location_type": "APPROXIMATE",
      "viewport": {
        "northeast": {
          "lat": 53.84058278029149,
          "lng": -6.300742819708497
        },
        "southwest": {
          "lat": 53.83788481970849,
          "lng": -6.303440780291502
        }
      }
    },
    "place_id": "ChIJlTF44CIyZ0gRsMzqN6nHABg",
    "types": [
      "locality",
      "political"
    ]
  },
  {
    "area_id": 3175,
    "area_name": "Port",
    "county_name": "Louth",
    "county_id": 9,
    "address_components": [
      {
        "long_name": "Louth Village",
        "short_name": "Louth Village",
        "types": [
          "locality",
          "political"
        ]
      },
      {
        "long_name": "Commons",
        "short_name": "Commons",
        "types": [
          "neighborhood",
          "political"
        ]
      },
      {
        "long_name": "County Louth",
        "short_name": "LH",
        "types": [
          "administrative_area_level_1",
          "political"
        ]
      },
      {
        "long_name": "Ireland",
        "short_name": "IE",
        "types": [
          "country",
          "political"
        ]
      }
    ],
    "formatted_address": "Commons, Louth Village, Ireland",
    "geometry": {
      "location": {
        "lat": 53.95080000000001,
        "lng": -6.54062
      },
      "location_type": "APPROXIMATE",
      "viewport": {
        "northeast": {
          "lat": 53.95214898029151,
          "lng": -6.539271019708497
        },
        "southwest": {
          "lat": 53.94945101970851,
          "lng": -6.541968980291502
        }
      }
    },
    "partial_match": true,
    "place_id": "ChIJF2OWYJ21YEgRXLueSbaFYPQ",
    "types": [
      "locality",
      "political"
    ]
  },
  {
    "area_id": 3503,
    "area_name": "The Bush",
    "county_name": "Louth",
    "county_id": 9,
    "address_components": [
      {
        "long_name": "The Bush",
        "short_name": "The Bush",
        "types": [
          "locality",
          "political"
        ]
      },
      {
        "long_name": "Seecrin",
        "short_name": "Seecrin",
        "types": [
          "neighborhood",
          "political"
        ]
      },
      {
        "long_name": "County Louth",
        "short_name": "LH",
        "types": [
          "administrative_area_level_1",
          "political"
        ]
      },
      {
        "long_name": "Ireland",
        "short_name": "IE",
        "types": [
          "country",
          "political"
        ]
      }
    ],
    "formatted_address": "Seecrin, The Bush, Co. Louth, Ireland",
    "geometry": {
      "location": {
        "lat": 53.9982,
        "lng": -6.19342
      },
      "location_type": "APPROXIMATE",
      "viewport": {
        "northeast": {
          "lat": 53.99954898029151,
          "lng": -6.192071019708497
        },
        "southwest": {
          "lat": 53.99685101970851,
          "lng": -6.194768980291502
        }
      }
    },
    "place_id": "ChIJ2bwspfbTYEgR0rK6GajHACY",
    "types": [
      "locality",
      "political"
    ]
  },
  {
    "area_id": 4043,
    "area_name": "Kilkerley",
    "county_name": "Louth",
    "county_id": 9,
    "address_components": [
      {
        "long_name": "Kilkerley",
        "short_name": "Kilkerley",
        "types": [
          "locality",
          "political"
        ]
      },
      {
        "long_name": "Kilcurly",
        "short_name": "Kilcurly",
        "types": [
          "neighborhood",
          "political"
        ]
      },
      {
        "long_name": "County Louth",
        "short_name": "LH",
        "types": [
          "administrative_area_level_1",
          "political"
        ]
      },
      {
        "long_name": "Ireland",
        "short_name": "IE",
        "types": [
          "country",
          "political"
        ]
      }
    ],
    "formatted_address": "Kilcurly, Kilkerley, Co. Louth, Ireland",
    "geometry": {
      "location": {
        "lat": 54.00251,
        "lng": -6.46974
      },
      "location_type": "APPROXIMATE",
      "viewport": {
        "northeast": {
          "lat": 54.0038589802915,
          "lng": -6.468391019708498
        },
        "southwest": {
          "lat": 54.0011610197085,
          "lng": -6.471088980291502
        }
      }
    },
    "place_id": "ChIJbRLmaoPJYEgRQLDqN6nHABg",
    "types": [
      "locality",
      "political"
    ]
  },
  {
    "area_id": 3499,
    "area_name": "Omeath",
    "county_name": "Louth",
    "county_id": 9,
    "address_components": [
      {
        "long_name": "Omeath",
        "short_name": "Omeath",
        "types": [
          "locality",
          "political"
        ]
      },
      {
        "long_name": "Knocknagoran",
        "short_name": "Knocknagoran",
        "types": [
          "neighborhood",
          "political"
        ]
      },
      {
        "long_name": "County Louth",
        "short_name": "LH",
        "types": [
          "administrative_area_level_1",
          "political"
        ]
      },
      {
        "long_name": "Ireland",
        "short_name": "IE",
        "types": [
          "country",
          "political"
        ]
      }
    ],
    "formatted_address": "Knocknagoran, Omeath, Co. Louth, Ireland",
    "geometry": {
      "location": {
        "lat": 54.0882604,
        "lng": -6.2593365
      },
      "location_type": "APPROXIMATE",
      "viewport": {
        "northeast": {
          "lat": 54.08960938029149,
          "lng": -6.257987519708498
        },
        "southwest": {
          "lat": 54.08691141970849,
          "lng": -6.260685480291502
        }
      }
    },
    "place_id": "ChIJJ7NjCo_QYEgRYBkyl6nHAAo",
    "types": [
      "locality",
      "political"
    ]
  },
  {
    "area_id": 4032,
    "area_name": "Tenure",
    "county_name": "Louth",
    "county_id": 9,
    "address_components": [
      {
        "long_name": "Tenure",
        "short_name": "Tenure",
        "types": [
          "locality",
          "political"
        ]
      },
      {
        "long_name": "Tinure",
        "short_name": "Tinure",
        "types": [
          "neighborhood",
          "political"
        ]
      },
      {
        "long_name": "County Louth",
        "short_name": "LH",
        "types": [
          "administrative_area_level_1",
          "political"
        ]
      },
      {
        "long_name": "Ireland",
        "short_name": "IE",
        "types": [
          "country",
          "political"
        ]
      }
    ],
    "formatted_address": "Tinure, Tenure, Co. Louth, Ireland",
    "geometry": {
      "location": {
        "lat": 53.79188,
        "lng": -6.419
      },
      "location_type": "APPROXIMATE",
      "viewport": {
        "northeast": {
          "lat": 53.7932289802915,
          "lng": -6.417651019708498
        },
        "southwest": {
          "lat": 53.7905310197085,
          "lng": -6.420348980291503
        }
      }
    },
    "place_id": "ChIJl0zYAuU2Z0gRILQxl6nHAAo",
    "types": [
      "locality",
      "political"
    ]
  },
  {
    "area_id": 4215,
    "area_name": "Roestown",
    "county_name": "Louth",
    "county_id": 9,
    "address_components": [
      {
        "long_name": "Roestown",
        "short_name": "Roestown",
        "types": [
          "neighborhood",
          "political"
        ]
      },
      {
        "long_name": "County Louth",
        "short_name": "LH",
        "types": [
          "administrative_area_level_1",
          "political"
        ]
      },
      {
        "long_name": "Ireland",
        "short_name": "IE",
        "types": [
          "country",
          "political"
        ]
      }
    ],
    "formatted_address": "Roestown, Co. Louth, Ireland",
    "geometry": {
      "bounds": {
        "northeast": {
          "lat": 53.8381902,
          "lng": -6.491920899999999
        },
        "southwest": {
          "lat": 53.82212209999999,
          "lng": -6.512474099999999
        }
      },
      "location": {
        "lat": 53.8327319,
        "lng": -6.501237199999999
      },
      "location_type": "APPROXIMATE",
      "viewport": {
        "northeast": {
          "lat": 53.8381902,
          "lng": -6.491920899999999
        },
        "southwest": {
          "lat": 53.82212209999999,
          "lng": -6.512474099999999
        }
      }
    },
    "place_id": "ChIJZR4LiAZKZ0gRIByWb44JOqo",
    "types": [
      "neighborhood",
      "political"
    ]
  },
  {
    "area_id": 3852,
    "area_name": "Monasterboice",
    "county_name": "Louth",
    "county_id": 9,
    "address_components": [
      {
        "long_name": "Monasterboice",
        "short_name": "Monasterboice",
        "types": [
          "locality",
          "political"
        ]
      },
      {
        "long_name": "Tinure",
        "short_name": "Tinure",
        "types": [
          "neighborhood",
          "political"
        ]
      },
      {
        "long_name": "County Louth",
        "short_name": "LH",
        "types": [
          "administrative_area_level_1",
          "political"
        ]
      },
      {
        "long_name": "Ireland",
        "short_name": "IE",
        "types": [
          "country",
          "political"
        ]
      }
    ],
    "formatted_address": "Tinure, Monasterboice, Co. Louth, Ireland",
    "geometry": {
      "location": {
        "lat": 53.7875134,
        "lng": -6.4163004
      },
      "location_type": "APPROXIMATE",
      "viewport": {
        "northeast": {
          "lat": 53.7888623802915,
          "lng": -6.414951419708498
        },
        "southwest": {
          "lat": 53.78616441970851,
          "lng": -6.417649380291502
        }
      }
    },
    "place_id": "ChIJK36fRjA3Z0gR8HHfN6nHABg",
    "types": [
      "locality",
      "political"
    ]
  },
  {
    "area_id": 4216,
    "area_name": "Townley Hall",
    "county_name": "Louth",
    "county_id": 9,
    "address_components": [
      {
        "long_name": "Townley Hall",
        "short_name": "Townley Hall",
        "types": [
          "locality",
          "political"
        ]
      },
      {
        "long_name": "Ardagh",
        "short_name": "Ardagh",
        "types": [
          "neighborhood",
          "political"
        ]
      },
      {
        "long_name": "County Louth",
        "short_name": "LH",
        "types": [
          "administrative_area_level_1",
          "political"
        ]
      },
      {
        "long_name": "Ireland",
        "short_name": "IE",
        "types": [
          "country",
          "political"
        ]
      }
    ],
    "formatted_address": "Ardagh, Townley Hall, Co. Louth, Ireland",
    "geometry": {
      "location": {
        "lat": 53.73386,
        "lng": -6.453349999999999
      },
      "location_type": "APPROXIMATE",
      "viewport": {
        "northeast": {
          "lat": 53.7352089802915,
          "lng": -6.452001019708497
        },
        "southwest": {
          "lat": 53.7325110197085,
          "lng": -6.454698980291502
        }
      }
    },
    "place_id": "ChIJWxgjTxw4Z0gRx_g56swo9YY",
    "types": [
      "locality",
      "political"
    ]
  },
  {
    "area_id": 3165,
    "area_name": "Shanlis",
    "county_name": "Louth",
    "county_id": 9,
    "address_components": [
      {
        "long_name": "Shanlis",
        "short_name": "Shanlis",
        "types": [
          "neighborhood",
          "political"
        ]
      },
      {
        "long_name": "County Louth",
        "short_name": "LH",
        "types": [
          "administrative_area_level_1",
          "political"
        ]
      },
      {
        "long_name": "Ireland",
        "short_name": "IE",
        "types": [
          "country",
          "political"
        ]
      }
    ],
    "formatted_address": "Shanlis, Co. Louth, Ireland",
    "geometry": {
      "bounds": {
        "northeast": {
          "lat": 53.8463749,
          "lng": -6.569264400000001
        },
        "southwest": {
          "lat": 53.8323712,
          "lng": -6.5987591
        }
      },
      "location": {
        "lat": 53.83869610000001,
        "lng": -6.5816015
      },
      "location_type": "APPROXIMATE",
      "viewport": {
        "northeast": {
          "lat": 53.8463749,
          "lng": -6.569264400000001
        },
        "southwest": {
          "lat": 53.8323712,
          "lng": -6.5987591
        }
      }
    },
    "place_id": "ChIJwS6XEcZLZ0gRMrBUu6fHACY",
    "types": [
      "neighborhood",
      "political"
    ]
  },
  {
    "area_id": 3153,
    "area_name": "Mansfieldstown",
    "county_name": "Louth",
    "county_id": 9,
    "address_components": [
      {
        "long_name": "Mansfieldstown",
        "short_name": "Mansfieldstown",
        "types": [
          "neighborhood",
          "political"
        ]
      },
      {
        "long_name": "County Louth",
        "short_name": "LH",
        "types": [
          "administrative_area_level_1",
          "political"
        ]
      },
      {
        "long_name": "Ireland",
        "short_name": "IE",
        "types": [
          "country",
          "political"
        ]
      }
    ],
    "formatted_address": "Mansfieldstown, Co. Louth, Ireland",
    "geometry": {
      "bounds": {
        "northeast": {
          "lat": 53.9137097,
          "lng": -6.4478526
        },
        "southwest": {
          "lat": 53.9006633,
          "lng": -6.4663919
        }
      },
      "location": {
        "lat": 53.9066754,
        "lng": -6.4583422
      },
      "location_type": "APPROXIMATE",
      "viewport": {
        "northeast": {
          "lat": 53.9137097,
          "lng": -6.4478526
        },
        "southwest": {
          "lat": 53.9006633,
          "lng": -6.4663919
        }
      }
    },
    "place_id": "ChIJYfwIkC01Z0gRKw5DlZ6bx3U",
    "types": [
      "neighborhood",
      "political"
    ]
  },
  {
    "area_id": 3505,
    "area_name": "Rathcor",
    "county_name": "Louth",
    "county_id": 9,
    "address_components": [
      {
        "long_name": "Rathcor",
        "short_name": "Rathcor",
        "types": [
          "neighborhood",
          "political"
        ]
      },
      {
        "long_name": "County Louth",
        "short_name": "LH",
        "types": [
          "administrative_area_level_1",
          "political"
        ]
      },
      {
        "long_name": "Ireland",
        "short_name": "IE",
        "types": [
          "country",
          "political"
        ]
      }
    ],
    "formatted_address": "Rathcor, Co. Louth, Ireland",
    "geometry": {
      "bounds": {
        "northeast": {
          "lat": 53.9928817,
          "lng": -6.1867572
        },
        "southwest": {
          "lat": 53.9785348,
          "lng": -6.208423
        }
      },
      "location": {
        "lat": 53.98766149999999,
        "lng": -6.1953833
      },
      "location_type": "APPROXIMATE",
      "viewport": {
        "northeast": {
          "lat": 53.9928817,
          "lng": -6.1867572
        },
        "southwest": {
          "lat": 53.9785348,
          "lng": -6.208423
        }
      }
    },
    "place_id": "ChIJiy7IUYnTYEgRct29GajHACY",
    "types": [
      "neighborhood",
      "political"
    ]
  },
  {
    "area_id": 3145,
    "area_name": "Reaghstown",
    "county_name": "Louth",
    "county_id": 9,
    "address_components": [
      {
        "long_name": "Reaghstown",
        "short_name": "Reaghstown",
        "types": [
          "neighborhood",
          "political"
        ]
      },
      {
        "long_name": "County Louth",
        "short_name": "LH",
        "types": [
          "administrative_area_level_1",
          "political"
        ]
      },
      {
        "long_name": "Ireland",
        "short_name": "IE",
        "types": [
          "country",
          "political"
        ]
      }
    ],
    "formatted_address": "Reaghstown, Co. Louth, Ireland",
    "geometry": {
      "bounds": {
        "northeast": {
          "lat": 53.925075,
          "lng": -6.6028735
        },
        "southwest": {
          "lat": 53.9074085,
          "lng": -6.6304294
        }
      },
      "location": {
        "lat": 53.9159504,
        "lng": -6.6186766
      },
      "location_type": "APPROXIMATE",
      "viewport": {
        "northeast": {
          "lat": 53.925075,
          "lng": -6.6028735
        },
        "southwest": {
          "lat": 53.9074085,
          "lng": -6.6304294
        }
      }
    },
    "place_id": "ChIJg6fdcLq0YEgRMB0yl6nHAAo",
    "types": [
      "neighborhood",
      "political"
    ]
  },
  {
    "area_id": 3506,
    "area_name": "Whites Town",
    "county_name": "Louth",
    "county_id": 9,
    "address_components": [
      {
        "long_name": "Whites Town",
        "short_name": "Whites Town",
        "types": [
          "locality",
          "political"
        ]
      },
      {
        "long_name": "Whitestown",
        "short_name": "Whitestown",
        "types": [
          "neighborhood",
          "political"
        ]
      },
      {
        "long_name": "County Louth",
        "short_name": "LH",
        "types": [
          "administrative_area_level_1",
          "political"
        ]
      },
      {
        "long_name": "Ireland",
        "short_name": "IE",
        "types": [
          "country",
          "political"
        ]
      }
    ],
    "formatted_address": "Whitestown, Whites Town, Co. Louth, Ireland",
    "geometry": {
      "location": {
        "lat": 53.99697,
        "lng": -6.12582
      },
      "location_type": "APPROXIMATE",
      "viewport": {
        "northeast": {
          "lat": 53.99831898029149,
          "lng": -6.124471019708498
        },
        "southwest": {
          "lat": 53.9956210197085,
          "lng": -6.127168980291502
        }
      }
    },
    "place_id": "ChIJhdAmK8rVYEgRLmqBlp7NhYg",
    "types": [
      "locality",
      "political"
    ]
  },
  {
    "area_id": 3170,
    "area_name": "Tullyallen",
    "county_name": "Louth",
    "county_id": 9,
    "address_components": [
      {
        "long_name": "Tullyallen Village",
        "short_name": "Tullyallen Village",
        "types": [
          "locality",
          "political"
        ]
      },
      {
        "long_name": "Hill of Rath",
        "short_name": "Hill of Rath",
        "types": [
          "neighborhood",
          "political"
        ]
      },
      {
        "long_name": "County Louth",
        "short_name": "LH",
        "types": [
          "administrative_area_level_1",
          "political"
        ]
      },
      {
        "long_name": "Ireland",
        "short_name": "IE",
        "types": [
          "country",
          "political"
        ]
      }
    ],
    "formatted_address": "Hill of Rath, Tullyallen Village, Co. Louth, Ireland",
    "geometry": {
      "location": {
        "lat": 53.73661,
        "lng": -6.42244
      },
      "location_type": "APPROXIMATE",
      "viewport": {
        "northeast": {
          "lat": 53.7379589802915,
          "lng": -6.421091019708498
        },
        "southwest": {
          "lat": 53.7352610197085,
          "lng": -6.423788980291502
        }
      }
    },
    "place_id": "ChIJB2UHLyo4Z0gRsqzTp6PopMo",
    "types": [
      "locality",
      "political"
    ]
  },
  {
    "area_id": 3152,
    "area_name": "Kilsaran",
    "county_name": "Louth",
    "county_id": 9,
    "address_components": [
      {
        "long_name": "Kilsaran",
        "short_name": "Kilsaran",
        "types": [
          "neighborhood",
          "political"
        ]
      },
      {
        "long_name": "County Louth",
        "short_name": "LH",
        "types": [
          "administrative_area_level_1",
          "political"
        ]
      },
      {
        "long_name": "Ireland",
        "short_name": "IE",
        "types": [
          "country",
          "political"
        ]
      }
    ],
    "formatted_address": "Kilsaran, Co. Louth, Ireland",
    "geometry": {
      "bounds": {
        "northeast": {
          "lat": 53.8970588,
          "lng": -6.3923529
        },
        "southwest": {
          "lat": 53.882861,
          "lng": -6.4236195
        }
      },
      "location": {
        "lat": 53.8904477,
        "lng": -6.4060365
      },
      "location_type": "APPROXIMATE",
      "viewport": {
        "northeast": {
          "lat": 53.8970588,
          "lng": -6.3923529
        },
        "southwest": {
          "lat": 53.882861,
          "lng": -6.4236195
        }
      }
    },
    "place_id": "ChIJ9zLppGUzZ0gRgAsyl6nHAAo",
    "types": [
      "neighborhood",
      "political"
    ]
  },
  {
    "area_id": 3147,
    "area_name": "Tallanstown",
    "county_name": "Louth",
    "county_id": 9,
    "address_components": [
      {
        "long_name": "Tallanstown",
        "short_name": "Tallanstown",
        "types": [
          "locality",
          "political"
        ]
      },
      {
        "long_name": "Rathbrist",
        "short_name": "Rathbrist",
        "types": [
          "neighborhood",
          "political"
        ]
      },
      {
        "long_name": "County Louth",
        "short_name": "LH",
        "types": [
          "administrative_area_level_1",
          "political"
        ]
      },
      {
        "long_name": "Ireland",
        "short_name": "IE",
        "types": [
          "country",
          "political"
        ]
      }
    ],
    "formatted_address": "Rathbrist, Tallanstown, Co. Louth, Ireland",
    "geometry": {
      "location": {
        "lat": 53.9200662,
        "lng": -6.5471834
      },
      "location_type": "APPROXIMATE",
      "viewport": {
        "northeast": {
          "lat": 53.9214151802915,
          "lng": -6.545834419708497
        },
        "southwest": {
          "lat": 53.9187172197085,
          "lng": -6.548532380291502
        }
      }
    },
    "place_id": "ChIJnz8z7ke1YEgRANoxl6nHAAo",
    "types": [
      "locality",
      "political"
    ]
  },
  {
    "area_id": 4222,
    "area_name": "Kilanny",
    "county_name": "Louth",
    "county_id": 9,
    "address_components": [
      {
        "long_name": "Killanny",
        "short_name": "Killanny",
        "types": [
          "neighborhood",
          "political"
        ]
      },
      {
        "long_name": "County Louth",
        "short_name": "LH",
        "types": [
          "administrative_area_level_1",
          "political"
        ]
      },
      {
        "long_name": "Ireland",
        "short_name": "IE",
        "types": [
          "country",
          "political"
        ]
      }
    ],
    "formatted_address": "Killanny, Co. Louth, Ireland",
    "geometry": {
      "bounds": {
        "northeast": {
          "lat": 53.95467650000001,
          "lng": -6.637472700000001
        },
        "southwest": {
          "lat": 53.9449888,
          "lng": -6.653497600000001
        }
      },
      "location": {
        "lat": 53.94928179999999,
        "lng": -6.646850499999999
      },
      "location_type": "APPROXIMATE",
      "viewport": {
        "northeast": {
          "lat": 53.95467650000001,
          "lng": -6.637472700000001
        },
        "southwest": {
          "lat": 53.9449888,
          "lng": -6.653497600000001
        }
      }
    },
    "partial_match": true,
    "place_id": "ChIJ6ebvE320YEgRoLDqN6nHABg",
    "types": [
      "neighborhood",
      "political"
    ]
  },
  {
    "area_id": 3167,
    "area_name": "Grangebellew",
    "county_name": "Louth",
    "county_id": 9,
    "address_components": [
      {
        "long_name": "Grangebellew",
        "short_name": "Grangebellew",
        "types": [
          "locality",
          "political"
        ]
      },
      {
        "long_name": "Glebe",
        "short_name": "Glebe",
        "types": [
          "neighborhood",
          "political"
        ]
      },
      {
        "long_name": "County Louth",
        "short_name": "LH",
        "types": [
          "administrative_area_level_1",
          "political"
        ]
      },
      {
        "long_name": "Ireland",
        "short_name": "IE",
        "types": [
          "country",
          "political"
        ]
      }
    ],
    "formatted_address": "Glebe, Grangebellew, Co. Louth, Ireland",
    "geometry": {
      "location": {
        "lat": 53.81618479999999,
        "lng": -6.334667899999999
      },
      "location_type": "APPROXIMATE",
      "viewport": {
        "northeast": {
          "lat": 53.81753378029149,
          "lng": -6.333318919708497
        },
        "southwest": {
          "lat": 53.81483581970849,
          "lng": -6.336016880291502
        }
      }
    },
    "place_id": "ChIJsXgIJm4xZ0gR8Hsxl6nHAAo",
    "types": [
      "locality",
      "political"
    ]
  },
  {
    "area_id": 4214,
    "area_name": "Paughnstown",
    "county_name": "Louth",
    "county_id": 9,
    "address_components": [
      {
        "long_name": "Louth Village",
        "short_name": "Louth Village",
        "types": [
          "locality",
          "political"
        ]
      },
      {
        "long_name": "Commons",
        "short_name": "Commons",
        "types": [
          "neighborhood",
          "political"
        ]
      },
      {
        "long_name": "County Louth",
        "short_name": "LH",
        "types": [
          "administrative_area_level_1",
          "political"
        ]
      },
      {
        "long_name": "Ireland",
        "short_name": "IE",
        "types": [
          "country",
          "political"
        ]
      }
    ],
    "formatted_address": "Commons, Louth Village, Ireland",
    "geometry": {
      "location": {
        "lat": 53.95080000000001,
        "lng": -6.54062
      },
      "location_type": "APPROXIMATE",
      "viewport": {
        "northeast": {
          "lat": 53.95214898029151,
          "lng": -6.539271019708497
        },
        "southwest": {
          "lat": 53.94945101970851,
          "lng": -6.541968980291502
        }
      }
    },
    "partial_match": true,
    "place_id": "ChIJF2OWYJ21YEgRXLueSbaFYPQ",
    "types": [
      "locality",
      "political"
    ]
  },
  {
    "area_id": 3177,
    "area_name": "Termonfeckin",
    "county_name": "Louth",
    "county_id": 9,
    "address_components": [
      {
        "long_name": "Termonfeckin",
        "short_name": "Termonfeckin",
        "types": [
          "locality",
          "political"
        ]
      },
      {
        "long_name": "Termonfeckin",
        "short_name": "Termonfeckin",
        "types": [
          "neighborhood",
          "political"
        ]
      },
      {
        "long_name": "County Louth",
        "short_name": "LH",
        "types": [
          "administrative_area_level_1",
          "political"
        ]
      },
      {
        "long_name": "Ireland",
        "short_name": "IE",
        "types": [
          "country",
          "political"
        ]
      }
    ],
    "formatted_address": "Termonfeckin, Co. Louth, Ireland",
    "geometry": {
      "location": {
        "lat": 53.76101389999999,
        "lng": -6.271843199999999
      },
      "location_type": "APPROXIMATE",
      "viewport": {
        "northeast": {
          "lat": 53.76236288029149,
          "lng": -6.270494219708497
        },
        "southwest": {
          "lat": 53.75966491970849,
          "lng": -6.273192180291502
        }
      }
    },
    "place_id": "ChIJ7RLI4RAwZ0gR0Hwxl6nHAAo",
    "types": [
      "locality",
      "political"
    ]
  },
  {
    "area_id": 3154,
    "area_name": "Stabannan",
    "county_name": "Louth",
    "county_id": 9,
    "address_components": [
      {
        "long_name": "Stabannan",
        "short_name": "Stabannan",
        "types": [
          "locality",
          "political"
        ]
      },
      {
        "long_name": "Dromgoolestown",
        "short_name": "Dromgoolestown",
        "types": [
          "neighborhood",
          "political"
        ]
      },
      {
        "long_name": "County Louth",
        "short_name": "LH",
        "types": [
          "administrative_area_level_1",
          "political"
        ]
      },
      {
        "long_name": "Ireland",
        "short_name": "IE",
        "types": [
          "country",
          "political"
        ]
      }
    ],
    "formatted_address": "Dromgoolestown, Stabannan, Co. Louth, Ireland",
    "geometry": {
      "location": {
        "lat": 53.8668353,
        "lng": -6.439589199999999
      },
      "location_type": "APPROXIMATE",
      "viewport": {
        "northeast": {
          "lat": 53.8681842802915,
          "lng": -6.438240219708497
        },
        "southwest": {
          "lat": 53.8654863197085,
          "lng": -6.440938180291502
        }
      }
    },
    "place_id": "ChIJ9_ymtas1Z0gR0JjfN6nHABg",
    "types": [
      "locality",
      "political"
    ]
  },
  {
    "area_id": 3472,
    "area_name": "Ravensdale",
    "county_name": "Louth",
    "county_id": 9,
    "address_components": [
      {
        "long_name": "Ravensdale",
        "short_name": "Ravensdale",
        "types": [
          "locality",
          "political"
        ]
      },
      {
        "long_name": "Drumnacarra",
        "short_name": "Drumnacarra",
        "types": [
          "neighborhood",
          "political"
        ]
      },
      {
        "long_name": "County Louth",
        "short_name": "LH",
        "types": [
          "administrative_area_level_1",
          "political"
        ]
      },
      {
        "long_name": "Ireland",
        "short_name": "IE",
        "types": [
          "country",
          "political"
        ]
      }
    ],
    "formatted_address": "Drumnacarra, Ravensdale, Co. Louth, Ireland",
    "geometry": {
      "location": {
        "lat": 54.0563584,
        "lng": -6.3383888
      },
      "location_type": "APPROXIMATE",
      "viewport": {
        "northeast": {
          "lat": 54.0577073802915,
          "lng": -6.337039819708497
        },
        "southwest": {
          "lat": 54.0550094197085,
          "lng": -6.339737780291502
        }
      }
    },
    "place_id": "ChIJu0a82c_PYEgR8AMyl6nHAAo",
    "types": [
      "locality",
      "political"
    ]
  },
  {
    "area_id": 3502,
    "area_name": "Greenore",
    "county_name": "Louth",
    "county_id": 9,
    "address_components": [
      {
        "long_name": "Greenore",
        "short_name": "Greenore",
        "types": [
          "locality",
          "political"
        ]
      },
      {
        "long_name": "Greenore",
        "short_name": "Greenore",
        "types": [
          "neighborhood",
          "political"
        ]
      },
      {
        "long_name": "County Louth",
        "short_name": "LH",
        "types": [
          "administrative_area_level_1",
          "political"
        ]
      },
      {
        "long_name": "Ireland",
        "short_name": "IE",
        "types": [
          "country",
          "political"
        ]
      }
    ],
    "formatted_address": "Greenore, Co. Louth, Ireland",
    "geometry": {
      "location": {
        "lat": 54.0315381,
        "lng": -6.131362699999999
      },
      "location_type": "APPROXIMATE",
      "viewport": {
        "northeast": {
          "lat": 54.0328870802915,
          "lng": -6.130013719708497
        },
        "southwest": {
          "lat": 54.0301891197085,
          "lng": -6.132711680291502
        }
      }
    },
    "place_id": "ChIJvy1GA2TWYEgRoLUxl6nHAAo",
    "types": [
      "locality",
      "political"
    ]
  }
]