[
  {
    "area_id": 3124,
    "area_name": "Carrickmacross",
    "county_name": "Monaghan",
    "county_id": 26,
    "address_components": [
      {
        "long_name": "Carrickmacross",
        "short_name": "Carrickmacross",
        "types": [
          "locality",
          "political"
        ]
      },
      {
        "long_name": "Drummond Etra",
        "short_name": "Drummond Etra",
        "types": [
          "neighborhood",
          "political"
        ]
      },
      {
        "long_name": "County Monaghan",
        "short_name": "MN",
        "types": [
          "administrative_area_level_1",
          "political"
        ]
      },
      {
        "long_name": "Ireland",
        "short_name": "IE",
        "types": [
          "country",
          "political"
        ]
      }
    ],
    "formatted_address": "Drummond Etra, Carrickmacross, Co. Monaghan, Ireland",
    "geometry": {
      "location": {
        "lat": 53.9779778,
        "lng": -6.7188238
      },
      "location_type": "APPROXIMATE",
      "viewport": {
        "northeast": {
          "lat": 53.9793267802915,
          "lng": -6.717474819708498
        },
        "southwest": {
          "lat": 53.9766288197085,
          "lng": -6.720172780291502
        }
      }
    },
    "place_id": "ChIJA5cNXTCyYEgRQOkxl6nHAAo",
    "types": [
      "locality",
      "political"
    ]
  },
  {
    "area_id": 2072,
    "area_name": "Carrickroe",
    "county_name": "Monaghan",
    "county_id": 26,
    "address_components": [
      {
        "long_name": "Carrickroe",
        "short_name": "Carrickroe",
        "types": [
          "locality",
          "political"
        ]
      },
      {
        "long_name": "Derryhellan",
        "short_name": "Derryhellan",
        "types": [
          "neighborhood",
          "political"
        ]
      },
      {
        "long_name": "County Monaghan",
        "short_name": "MN",
        "types": [
          "administrative_area_level_1",
          "political"
        ]
      },
      {
        "long_name": "Ireland",
        "short_name": "IE",
        "types": [
          "country",
          "political"
        ]
      }
    ],
    "formatted_address": "Derryhellan, Carrickroe, Co. Monaghan, Ireland",
    "geometry": {
      "location": {
        "lat": 54.357732,
        "lng": -7.0275183
      },
      "location_type": "APPROXIMATE",
      "viewport": {
        "northeast": {
          "lat": 54.35908098029149,
          "lng": -7.026169319708497
        },
        "southwest": {
          "lat": 54.3563830197085,
          "lng": -7.028867280291502
        }
      }
    },
    "place_id": "ChIJ6_6h_m2dYEgR4NLfN6nHABg",
    "types": [
      "locality",
      "political"
    ]
  },
  {
    "area_id": 3433,
    "area_name": "Ballybay",
    "county_name": "Monaghan",
    "county_id": 26,
    "address_components": [
      {
        "long_name": "Ballybay",
        "short_name": "Ballybay",
        "types": [
          "locality",
          "political"
        ]
      },
      {
        "long_name": "Cornamucklaglass",
        "short_name": "Cornamucklaglass",
        "types": [
          "neighborhood",
          "political"
        ]
      },
      {
        "long_name": "County Monaghan",
        "short_name": "MN",
        "types": [
          "administrative_area_level_1",
          "political"
        ]
      },
      {
        "long_name": "Ireland",
        "short_name": "IE",
        "types": [
          "country",
          "political"
        ]
      }
    ],
    "formatted_address": "Cornamucklaglass, Ballybay, Co. Monaghan, Ireland",
    "geometry": {
      "location": {
        "lat": 54.1294617,
        "lng": -6.9027864
      },
      "location_type": "APPROXIMATE",
      "viewport": {
        "northeast": {
          "lat": 54.1308106802915,
          "lng": -6.901437419708498
        },
        "southwest": {
          "lat": 54.1281127197085,
          "lng": -6.904135380291502
        }
      }
    },
    "place_id": "ChIJJZs_LhikYEgRQUZ-llOXBGI",
    "types": [
      "locality",
      "political"
    ]
  },
  {
    "area_id": 3434,
    "area_name": "Aughnamullen",
    "county_name": "Monaghan",
    "county_id": 26,
    "address_components": [
      {
        "long_name": "Aghnamullen",
        "short_name": "Aghnamullen",
        "types": [
          "locality",
          "political"
        ]
      },
      {
        "long_name": "Aghnamullen",
        "short_name": "Aghnamullen",
        "types": [
          "neighborhood",
          "political"
        ]
      },
      {
        "long_name": "County Monaghan",
        "short_name": "MN",
        "types": [
          "administrative_area_level_1",
          "political"
        ]
      },
      {
        "long_name": "Ireland",
        "short_name": "IE",
        "types": [
          "country",
          "political"
        ]
      }
    ],
    "formatted_address": "Aghnamullen, Co. Monaghan, Ireland",
    "geometry": {
      "location": {
        "lat": 54.0950529,
        "lng": -6.9595452
      },
      "location_type": "APPROXIMATE",
      "viewport": {
        "northeast": {
          "lat": 54.0964018802915,
          "lng": -6.958196219708499
        },
        "southwest": {
          "lat": 54.0937039197085,
          "lng": -6.960894180291502
        }
      }
    },
    "place_id": "ChIJVbly3VOmYEgRBuZJSbzOVAs",
    "types": [
      "locality",
      "political"
    ]
  },
  {
    "area_id": 3440,
    "area_name": "Broomfield",
    "county_name": "Monaghan",
    "county_id": 26,
    "address_components": [
      {
        "long_name": "Broomfield",
        "short_name": "Broomfield",
        "types": [
          "locality",
          "political"
        ]
      },
      {
        "long_name": "Drumganus Lower",
        "short_name": "Drumganus Lower",
        "types": [
          "neighborhood",
          "political"
        ]
      },
      {
        "long_name": "County Monaghan",
        "short_name": "MN",
        "types": [
          "administrative_area_level_1",
          "political"
        ]
      },
      {
        "long_name": "Ireland",
        "short_name": "IE",
        "types": [
          "country",
          "political"
        ]
      }
    ],
    "formatted_address": "Drumganus Lower, Broomfield, Co. Monaghan, Ireland",
    "geometry": {
      "location": {
        "lat": 54.0680312,
        "lng": -6.7020753
      },
      "location_type": "APPROXIMATE",
      "viewport": {
        "northeast": {
          "lat": 54.0693801802915,
          "lng": -6.700726319708498
        },
        "southwest": {
          "lat": 54.0666822197085,
          "lng": -6.703424280291502
        }
      }
    },
    "place_id": "ChIJm2SGz56wYEgRAZy6GajHACY",
    "types": [
      "locality",
      "political"
    ]
  },
  {
    "area_id": 3431,
    "area_name": "Annayalla",
    "county_name": "Monaghan",
    "county_id": 26,
    "address_components": [
      {
        "long_name": "Annyalla",
        "short_name": "Annyalla",
        "types": [
          "locality",
          "political"
        ]
      },
      {
        "long_name": "Mullaghduff",
        "short_name": "Mullaghduff",
        "types": [
          "neighborhood",
          "political"
        ]
      },
      {
        "long_name": "County Monaghan",
        "short_name": "MN",
        "types": [
          "administrative_area_level_1",
          "political"
        ]
      },
      {
        "long_name": "Ireland",
        "short_name": "IE",
        "types": [
          "country",
          "political"
        ]
      }
    ],
    "formatted_address": "Mullaghduff, Annyalla, Co. Monaghan, Ireland",
    "geometry": {
      "location": {
        "lat": 54.16064,
        "lng": -6.788880000000001
      },
      "location_type": "APPROXIMATE",
      "viewport": {
        "northeast": {
          "lat": 54.1619889802915,
          "lng": -6.787531019708499
        },
        "southwest": {
          "lat": 54.1592910197085,
          "lng": -6.790228980291503
        }
      }
    },
    "partial_match": true,
    "place_id": "ChIJGTqJhKa8YEgR9gp_QndMvJw",
    "types": [
      "locality",
      "political"
    ]
  },
  {
    "area_id": 3420,
    "area_name": "Cavanagarvan",
    "county_name": "Monaghan",
    "county_id": 26,
    "address_components": [
      {
        "long_name": "Cavanagarvan",
        "short_name": "Cavanagarvan",
        "types": [
          "neighborhood",
          "political"
        ]
      },
      {
        "long_name": "Leck Road",
        "short_name": "Leck Road",
        "types": [
          "political",
          "sublocality",
          "sublocality_level_1"
        ]
      },
      {
        "long_name": "County Monaghan",
        "short_name": "MN",
        "types": [
          "administrative_area_level_1",
          "political"
        ]
      },
      {
        "long_name": "Ireland",
        "short_name": "IE",
        "types": [
          "country",
          "political"
        ]
      }
    ],
    "formatted_address": "Cavanagarvan, Leck Road, Co. Monaghan, Ireland",
    "geometry": {
      "bounds": {
        "northeast": {
          "lat": 54.1943801,
          "lng": -6.9767893
        },
        "southwest": {
          "lat": 54.18357959999999,
          "lng": -6.9947302
        }
      },
      "location": {
        "lat": 54.1892949,
        "lng": -6.9866075
      },
      "location_type": "APPROXIMATE",
      "viewport": {
        "northeast": {
          "lat": 54.1943801,
          "lng": -6.9767893
        },
        "southwest": {
          "lat": 54.18357959999999,
          "lng": -6.9947302
        }
      }
    },
    "place_id": "ChIJK9YwP6qhYEgRokRGu6fHACY",
    "types": [
      "neighborhood",
      "political"
    ]
  },
  {
    "area_id": 3419,
    "area_name": "Castleshane",
    "county_name": "Monaghan",
    "county_id": 26,
    "address_components": [
      {
        "long_name": "Castleshane",
        "short_name": "Castleshane",
        "types": [
          "locality",
          "political"
        ]
      },
      {
        "long_name": "Lismenan",
        "short_name": "Lismenan",
        "types": [
          "neighborhood",
          "political"
        ]
      },
      {
        "long_name": "County Monaghan",
        "short_name": "MN",
        "types": [
          "administrative_area_level_1",
          "political"
        ]
      },
      {
        "long_name": "Ireland",
        "short_name": "IE",
        "types": [
          "country",
          "political"
        ]
      }
    ],
    "formatted_address": "Lismenan, Castleshane, Co. Monaghan, Ireland",
    "geometry": {
      "location": {
        "lat": 54.2366271,
        "lng": -6.8775676
      },
      "location_type": "APPROXIMATE",
      "viewport": {
        "northeast": {
          "lat": 54.2379760802915,
          "lng": -6.876218619708498
        },
        "southwest": {
          "lat": 54.2352781197085,
          "lng": -6.878916580291502
        }
      }
    },
    "place_id": "ChIJiRK4I4KiYEgRu55vvLEzvFI",
    "types": [
      "locality",
      "political"
    ]
  },
  {
    "area_id": 3823,
    "area_name": "Aghabog",
    "county_name": "Monaghan",
    "county_id": 26,
    "address_components": [
      {
        "long_name": "Aghabog",
        "short_name": "Aghabog",
        "types": [
          "neighborhood",
          "political"
        ]
      },
      {
        "long_name": "County Monaghan",
        "short_name": "MN",
        "types": [
          "administrative_area_level_1",
          "political"
        ]
      },
      {
        "long_name": "Ireland",
        "short_name": "IE",
        "types": [
          "country",
          "political"
        ]
      }
    ],
    "formatted_address": "Aghabog, Co. Monaghan, Ireland",
    "geometry": {
      "bounds": {
        "northeast": {
          "lat": 54.1521667,
          "lng": -7.090610499999999
        },
        "southwest": {
          "lat": 54.1436307,
          "lng": -7.1019662
        }
      },
      "location": {
        "lat": 54.147239,
        "lng": -7.0958937
      },
      "location_type": "APPROXIMATE",
      "viewport": {
        "northeast": {
          "lat": 54.1521667,
          "lng": -7.090610499999999
        },
        "southwest": {
          "lat": 54.1436307,
          "lng": -7.1019662
        }
      }
    },
    "place_id": "ChIJi0FRfBEeXkgRgB7fN6nHABg",
    "types": [
      "neighborhood",
      "political"
    ]
  },
  {
    "area_id": 3437,
    "area_name": "Castleblayney",
    "county_name": "Monaghan",
    "county_id": 26,
    "address_components": [
      {
        "long_name": "Castleblayney",
        "short_name": "Castleblayney",
        "types": [
          "locality",
          "political"
        ]
      },
      {
        "long_name": "Moraghy",
        "short_name": "Moraghy",
        "types": [
          "neighborhood",
          "political"
        ]
      },
      {
        "long_name": "County Monaghan",
        "short_name": "MN",
        "types": [
          "administrative_area_level_1",
          "political"
        ]
      },
      {
        "long_name": "Ireland",
        "short_name": "IE",
        "types": [
          "country",
          "political"
        ]
      }
    ],
    "formatted_address": "Moraghy, Castleblayney, Co. Monaghan, Ireland",
    "geometry": {
      "location": {
        "lat": 54.120659,
        "lng": -6.7397374
      },
      "location_type": "APPROXIMATE",
      "viewport": {
        "northeast": {
          "lat": 54.12200798029149,
          "lng": -6.738388419708498
        },
        "southwest": {
          "lat": 54.1193100197085,
          "lng": -6.741086380291502
        }
      }
    },
    "place_id": "ChIJYQqi76q7YEgR4Okxl6nHAAo",
    "types": [
      "locality",
      "political"
    ]
  },
  {
    "area_id": 4153,
    "area_name": "Corcaghan",
    "county_name": "Monaghan",
    "county_id": 26,
    "address_components": [
      {
        "long_name": "Corcaghan",
        "short_name": "Corcaghan",
        "types": [
          "neighborhood",
          "political"
        ]
      },
      {
        "long_name": "Leck Road",
        "short_name": "Leck Road",
        "types": [
          "political",
          "sublocality",
          "sublocality_level_1"
        ]
      },
      {
        "long_name": "County Monaghan",
        "short_name": "MN",
        "types": [
          "administrative_area_level_1",
          "political"
        ]
      },
      {
        "long_name": "Ireland",
        "short_name": "IE",
        "types": [
          "country",
          "political"
        ]
      }
    ],
    "formatted_address": "Corcaghan, Leck Road, Co. Monaghan, Ireland",
    "geometry": {
      "bounds": {
        "northeast": {
          "lat": 54.1959017,
          "lng": -6.9926996
        },
        "southwest": {
          "lat": 54.1845957,
          "lng": -7.009528599999999
        }
      },
      "location": {
        "lat": 54.1905928,
        "lng": -7.001083599999999
      },
      "location_type": "APPROXIMATE",
      "viewport": {
        "northeast": {
          "lat": 54.1959017,
          "lng": -6.9926996
        },
        "southwest": {
          "lat": 54.1845957,
          "lng": -7.009528599999999
        }
      }
    },
    "place_id": "ChIJZ0bP8VagYEgRnL_-rfSDRTw",
    "types": [
      "neighborhood",
      "political"
    ]
  },
  {
    "area_id": 3397,
    "area_name": "Clones",
    "county_name": "Monaghan",
    "county_id": 26,
    "address_components": [
      {
        "long_name": "Clones",
        "short_name": "Clones",
        "types": [
          "locality",
          "political"
        ]
      },
      {
        "long_name": "Largy",
        "short_name": "Largy",
        "types": [
          "neighborhood",
          "political"
        ]
      },
      {
        "long_name": "County Monaghan",
        "short_name": "MN",
        "types": [
          "administrative_area_level_1",
          "political"
        ]
      },
      {
        "long_name": "Ireland",
        "short_name": "IE",
        "types": [
          "country",
          "political"
        ]
      }
    ],
    "formatted_address": "Largy, Clones, Co. Monaghan, Ireland",
    "geometry": {
      "location": {
        "lat": 54.1796829,
        "lng": -7.230667100000001
      },
      "location_type": "APPROXIMATE",
      "viewport": {
        "northeast": {
          "lat": 54.1810318802915,
          "lng": -7.229318119708498
        },
        "southwest": {
          "lat": 54.1783339197085,
          "lng": -7.232016080291503
        }
      }
    },
    "place_id": "ChIJO1esIlAYXkgRcHYxl6nHAAo",
    "types": [
      "locality",
      "political"
    ]
  },
  {
    "area_id": 3421,
    "area_name": "Clontibret",
    "county_name": "Monaghan",
    "county_id": 26,
    "address_components": [
      {
        "long_name": "Clontibret",
        "short_name": "Clontibret",
        "types": [
          "locality",
          "political"
        ]
      },
      {
        "long_name": "Carrickaderry",
        "short_name": "Carrickaderry",
        "types": [
          "neighborhood",
          "political"
        ]
      },
      {
        "long_name": "County Monaghan",
        "short_name": "MN",
        "types": [
          "administrative_area_level_1",
          "political"
        ]
      },
      {
        "long_name": "Ireland",
        "short_name": "IE",
        "types": [
          "country",
          "political"
        ]
      }
    ],
    "formatted_address": "Carrickaderry, Clontibret, Co. Monaghan, Ireland",
    "geometry": {
      "location": {
        "lat": 54.2054431,
        "lng": -6.8415402
      },
      "location_type": "APPROXIMATE",
      "viewport": {
        "northeast": {
          "lat": 54.2067920802915,
          "lng": -6.840191219708498
        },
        "southwest": {
          "lat": 54.2040941197085,
          "lng": -6.842889180291502
        }
      }
    },
    "place_id": "ChIJP9-CPcCiYEgRwLUxl6nHAAo",
    "types": [
      "locality",
      "political"
    ]
  },
  {
    "area_id": 3418,
    "area_name": "Monaghan",
    "county_name": "Monaghan",
    "county_id": 26,
    "address_components": [
      {
        "long_name": "Monaghan",
        "short_name": "Monaghan",
        "types": [
          "locality",
          "political"
        ]
      },
      {
        "long_name": "County Monaghan",
        "short_name": "MN",
        "types": [
          "administrative_area_level_1",
          "political"
        ]
      },
      {
        "long_name": "Ireland",
        "short_name": "IE",
        "types": [
          "country",
          "political"
        ]
      }
    ],
    "formatted_address": "Monaghan, Ireland",
    "geometry": {
      "bounds": {
        "northeast": {
          "lat": 54.26408,
          "lng": -6.942600000000001
        },
        "southwest": {
          "lat": 54.22737,
          "lng": -6.9994099
        }
      },
      "location": {
        "lat": 54.2492434,
        "lng": -6.9683082
      },
      "location_type": "APPROXIMATE",
      "viewport": {
        "northeast": {
          "lat": 54.26408,
          "lng": -6.942600000000001
        },
        "southwest": {
          "lat": 54.22737,
          "lng": -6.9994099
        }
      }
    },
    "place_id": "ChIJXQivX0KfYEgRkHIxl6nHAAo",
    "types": [
      "locality",
      "political"
    ]
  },
  {
    "area_id": 3122,
    "area_name": "Corvally",
    "county_name": "Monaghan",
    "county_id": 26,
    "address_components": [
      {
        "long_name": "Corvalley",
        "short_name": "Corvalley",
        "types": [
          "locality",
          "political"
        ]
      },
      {
        "long_name": "Black Island",
        "short_name": "Black Island",
        "types": [
          "neighborhood",
          "political"
        ]
      },
      {
        "long_name": "County Monaghan",
        "short_name": "MN",
        "types": [
          "administrative_area_level_1",
          "political"
        ]
      },
      {
        "long_name": "Ireland",
        "short_name": "IE",
        "types": [
          "country",
          "political"
        ]
      }
    ],
    "formatted_address": "Black Island, Corvalley, Co. Monaghan, Ireland",
    "geometry": {
      "location": {
        "lat": 54.09787,
        "lng": -7.07248
      },
      "location_type": "APPROXIMATE",
      "viewport": {
        "northeast": {
          "lat": 54.0992189802915,
          "lng": -7.071131019708497
        },
        "southwest": {
          "lat": 54.0965210197085,
          "lng": -7.073828980291502
        }
      }
    },
    "place_id": "ChIJ8YPzVKgdXkgRTPSOZjpYYSs",
    "types": [
      "locality",
      "political"
    ]
  },
  {
    "area_id": 2078,
    "area_name": "Emyvale",
    "county_name": "Monaghan",
    "county_id": 26,
    "address_components": [
      {
        "long_name": "Emyvale",
        "short_name": "Emyvale",
        "types": [
          "locality",
          "political"
        ]
      },
      {
        "long_name": "Derrygassan Upper",
        "short_name": "Derrygassan Upper",
        "types": [
          "neighborhood",
          "political"
        ]
      },
      {
        "long_name": "County Monaghan",
        "short_name": "MN",
        "types": [
          "administrative_area_level_1",
          "political"
        ]
      },
      {
        "long_name": "Ireland",
        "short_name": "IE",
        "types": [
          "country",
          "political"
        ]
      }
    ],
    "formatted_address": "Derrygassan Upper, Emyvale, Co. Monaghan, Ireland",
    "geometry": {
      "location": {
        "lat": 54.3409914,
        "lng": -6.959261199999999
      },
      "location_type": "APPROXIMATE",
      "viewport": {
        "northeast": {
          "lat": 54.3423403802915,
          "lng": -6.957912219708497
        },
        "southwest": {
          "lat": 54.3396424197085,
          "lng": -6.960610180291502
        }
      }
    },
    "place_id": "ChIJLYsxR_ObYEgR8AAyl6nHAAo",
    "types": [
      "locality",
      "political"
    ]
  },
  {
    "area_id": 3441,
    "area_name": "Laragh",
    "county_name": "Monaghan",
    "county_id": 26,
    "address_components": [
      {
        "long_name": "Laragh",
        "short_name": "Laragh",
        "types": [
          "locality",
          "political"
        ]
      },
      {
        "long_name": "Cornacarrow",
        "short_name": "Cornacarrow",
        "types": [
          "neighborhood",
          "political"
        ]
      },
      {
        "long_name": "County Monaghan",
        "short_name": "MN",
        "types": [
          "administrative_area_level_1",
          "political"
        ]
      },
      {
        "long_name": "Ireland",
        "short_name": "IE",
        "types": [
          "country",
          "political"
        ]
      }
    ],
    "formatted_address": "Cornacarrow, Laragh, Co. Monaghan, Ireland",
    "geometry": {
      "location": {
        "lat": 54.0514093,
        "lng": -6.7845574
      },
      "location_type": "APPROXIMATE",
      "viewport": {
        "northeast": {
          "lat": 54.05275828029149,
          "lng": -6.783208419708497
        },
        "southwest": {
          "lat": 54.0500603197085,
          "lng": -6.785906380291502
        }
      }
    },
    "place_id": "ChIJTdjve-GvYEgRYJGZrQkuiJc",
    "types": [
      "locality",
      "political"
    ]
  },
  {
    "area_id": 3414,
    "area_name": "Drum",
    "county_name": "Monaghan",
    "county_id": 26,
    "address_components": [
      {
        "long_name": "Drum",
        "short_name": "Drum",
        "types": [
          "locality",
          "political"
        ]
      },
      {
        "long_name": "Drum",
        "short_name": "Drum",
        "types": [
          "neighborhood",
          "political"
        ]
      },
      {
        "long_name": "County Monaghan",
        "short_name": "MN",
        "types": [
          "administrative_area_level_1",
          "political"
        ]
      },
      {
        "long_name": "Ireland",
        "short_name": "IE",
        "types": [
          "country",
          "political"
        ]
      }
    ],
    "formatted_address": "Drum, Co. Monaghan, Ireland",
    "geometry": {
      "location": {
        "lat": 54.1038785,
        "lng": -7.1433732
      },
      "location_type": "APPROXIMATE",
      "viewport": {
        "northeast": {
          "lat": 54.1052274802915,
          "lng": -7.142024219708498
        },
        "southwest": {
          "lat": 54.1025295197085,
          "lng": -7.144722180291502
        }
      }
    },
    "place_id": "ChIJ6QGzRYgbXkgRQHcxl6nHAAo",
    "types": [
      "locality",
      "political"
    ]
  },
  {
    "area_id": 3401,
    "area_name": "Ballinode",
    "county_name": "Monaghan",
    "county_id": 26,
    "address_components": [
      {
        "long_name": "Ballinode",
        "short_name": "Ballinode",
        "types": [
          "locality",
          "political"
        ]
      },
      {
        "long_name": "Quiglough",
        "short_name": "Quiglough",
        "types": [
          "neighborhood",
          "political"
        ]
      },
      {
        "long_name": "County Monaghan",
        "short_name": "MN",
        "types": [
          "administrative_area_level_1",
          "political"
        ]
      },
      {
        "long_name": "Ireland",
        "short_name": "IE",
        "types": [
          "country",
          "political"
        ]
      }
    ],
    "formatted_address": "Quiglough, Ballinode, Co. Monaghan, Ireland",
    "geometry": {
      "location": {
        "lat": 54.266922,
        "lng": -7.0364418
      },
      "location_type": "APPROXIMATE",
      "viewport": {
        "northeast": {
          "lat": 54.2682709802915,
          "lng": -7.035092819708497
        },
        "southwest": {
          "lat": 54.2655730197085,
          "lng": -7.037790780291502
        }
      }
    },
    "place_id": "ChIJ7zxDcrSfYEgReBJ0H2iwKuM",
    "types": [
      "locality",
      "political"
    ]
  },
  {
    "area_id": 3416,
    "area_name": "Glaslough",
    "county_name": "Monaghan",
    "county_id": 26,
    "address_components": [
      {
        "long_name": "Glaslough",
        "short_name": "Glaslough",
        "types": [
          "locality",
          "political"
        ]
      },
      {
        "long_name": "Glaslough",
        "short_name": "Glaslough",
        "types": [
          "neighborhood",
          "political"
        ]
      },
      {
        "long_name": "County Monaghan",
        "short_name": "MN",
        "types": [
          "administrative_area_level_1",
          "political"
        ]
      },
      {
        "long_name": "Ireland",
        "short_name": "IE",
        "types": [
          "country",
          "political"
        ]
      }
    ],
    "formatted_address": "Glaslough, Co. Monaghan, Ireland",
    "geometry": {
      "location": {
        "lat": 54.31727840000001,
        "lng": -6.8971168
      },
      "location_type": "APPROXIMATE",
      "viewport": {
        "northeast": {
          "lat": 54.31862738029151,
          "lng": -6.895767819708498
        },
        "southwest": {
          "lat": 54.31592941970851,
          "lng": -6.898465780291502
        }
      }
    },
    "place_id": "ChIJdR2WUYSZYEgRoHcxl6nHAAo",
    "types": [
      "locality",
      "political"
    ]
  },
  {
    "area_id": 2080,
    "area_name": "Mullan",
    "county_name": "Monaghan",
    "county_id": 26,
    "address_components": [
      {
        "long_name": "Monaghan",
        "short_name": "Monaghan",
        "types": [
          "locality",
          "political"
        ]
      },
      {
        "long_name": "County Monaghan",
        "short_name": "MN",
        "types": [
          "administrative_area_level_1",
          "political"
        ]
      },
      {
        "long_name": "Ireland",
        "short_name": "IE",
        "types": [
          "country",
          "political"
        ]
      }
    ],
    "formatted_address": "Monaghan, Ireland",
    "geometry": {
      "bounds": {
        "northeast": {
          "lat": 54.26408,
          "lng": -6.942600000000001
        },
        "southwest": {
          "lat": 54.22737,
          "lng": -6.9994099
        }
      },
      "location": {
        "lat": 54.2492434,
        "lng": -6.9683082
      },
      "location_type": "APPROXIMATE",
      "viewport": {
        "northeast": {
          "lat": 54.26408,
          "lng": -6.942600000000001
        },
        "southwest": {
          "lat": 54.22737,
          "lng": -6.9994099
        }
      }
    },
    "partial_match": true,
    "place_id": "ChIJXQivX0KfYEgRkHIxl6nHAAo",
    "types": [
      "locality",
      "political"
    ]
  },
  {
    "area_id": 3432,
    "area_name": "Creaghanroe",
    "county_name": "Monaghan",
    "county_id": 26,
    "address_components": [
      {
        "long_name": "Creaghanroe",
        "short_name": "Creaghanroe",
        "types": [
          "locality",
          "political"
        ]
      },
      {
        "long_name": "Creaghanroe",
        "short_name": "Creaghanroe",
        "types": [
          "neighborhood",
          "political"
        ]
      },
      {
        "long_name": "County Monaghan",
        "short_name": "MN",
        "types": [
          "administrative_area_level_1",
          "political"
        ]
      },
      {
        "long_name": "Ireland",
        "short_name": "IE",
        "types": [
          "country",
          "political"
        ]
      }
    ],
    "formatted_address": "Creaghanroe, Co. Monaghan, Ireland",
    "geometry": {
      "location": {
        "lat": 54.17212110000001,
        "lng": -6.7379433
      },
      "location_type": "APPROXIMATE",
      "viewport": {
        "northeast": {
          "lat": 54.17347008029151,
          "lng": -6.736594319708497
        },
        "southwest": {
          "lat": 54.17077211970851,
          "lng": -6.739292280291502
        }
      }
    },
    "place_id": "ChIJ3ZaKf2W8YEgRFG9zJMo01Is",
    "types": [
      "locality",
      "political"
    ]
  },
  {
    "area_id": 3125,
    "area_name": "Carrickashedoge",
    "county_name": "Monaghan",
    "county_id": 26,
    "address_components": [
      {
        "long_name": "Carrickashedoge",
        "short_name": "Carrickashedoge",
        "types": [
          "neighborhood",
          "political"
        ]
      },
      {
        "long_name": "The Wood",
        "short_name": "The Wood",
        "types": [
          "political",
          "sublocality",
          "sublocality_level_1"
        ]
      },
      {
        "long_name": "County Monaghan",
        "short_name": "MN",
        "types": [
          "administrative_area_level_1",
          "political"
        ]
      },
      {
        "long_name": "Ireland",
        "short_name": "IE",
        "types": [
          "country",
          "political"
        ]
      }
    ],
    "formatted_address": "Carrickashedoge, The Wood, Co. Monaghan, Ireland",
    "geometry": {
      "bounds": {
        "northeast": {
          "lat": 53.9387699,
          "lng": -6.7069221
        },
        "southwest": {
          "lat": 53.93015450000001,
          "lng": -6.721973999999999
        }
      },
      "location": {
        "lat": 53.93439189999999,
        "lng": -6.714541400000001
      },
      "location_type": "APPROXIMATE",
      "viewport": {
        "northeast": {
          "lat": 53.9387699,
          "lng": -6.7069221
        },
        "southwest": {
          "lat": 53.93015450000001,
          "lng": -6.721973999999999
        }
      }
    },
    "place_id": "ChIJqdLxI_SyYEgRoqG6GajHACY",
    "types": [
      "neighborhood",
      "political"
    ]
  },
  {
    "area_id": 3400,
    "area_name": "Scotstown",
    "county_name": "Monaghan",
    "county_id": 26,
    "address_components": [
      {
        "long_name": "Scotstown",
        "short_name": "Scotstown",
        "types": [
          "locality",
          "political"
        ]
      },
      {
        "long_name": "Carrowhatta",
        "short_name": "Carrowhatta",
        "types": [
          "neighborhood",
          "political"
        ]
      },
      {
        "long_name": "County Monaghan",
        "short_name": "MN",
        "types": [
          "administrative_area_level_1",
          "political"
        ]
      },
      {
        "long_name": "Ireland",
        "short_name": "IE",
        "types": [
          "country",
          "political"
        ]
      }
    ],
    "formatted_address": "Carrowhatta, Scotstown, Co. Monaghan, Ireland",
    "geometry": {
      "location": {
        "lat": 54.2778889,
        "lng": -7.066951400000001
      },
      "location_type": "APPROXIMATE",
      "viewport": {
        "northeast": {
          "lat": 54.2792378802915,
          "lng": -7.065602419708499
        },
        "southwest": {
          "lat": 54.2765399197085,
          "lng": -7.068300380291503
        }
      }
    },
    "place_id": "ChIJ5XxEVymeYEgREHgxl6nHAAo",
    "types": [
      "locality",
      "political"
    ]
  },
  {
    "area_id": 3436,
    "area_name": "Shantonagh",
    "county_name": "Monaghan",
    "county_id": 26,
    "address_components": [
      {
        "long_name": "Shantonagh",
        "short_name": "Shantonagh",
        "types": [
          "locality",
          "political"
        ]
      },
      {
        "long_name": "Tullyrain",
        "short_name": "Tullyrain",
        "types": [
          "neighborhood",
          "political"
        ]
      },
      {
        "long_name": "County Monaghan",
        "short_name": "MN",
        "types": [
          "administrative_area_level_1",
          "political"
        ]
      },
      {
        "long_name": "Ireland",
        "short_name": "IE",
        "types": [
          "country",
          "political"
        ]
      }
    ],
    "formatted_address": "Tullyrain, Shantonagh, Co. Monaghan, Ireland",
    "geometry": {
      "location": {
        "lat": 54.04533259999999,
        "lng": -6.8641668
      },
      "location_type": "APPROXIMATE",
      "viewport": {
        "northeast": {
          "lat": 54.04668158029149,
          "lng": -6.862817819708499
        },
        "southwest": {
          "lat": 54.04398361970849,
          "lng": -6.865515780291503
        }
      }
    },
    "place_id": "ChIJY4eQQmqvYEgR75Q90wCvFIw",
    "types": [
      "locality",
      "political"
    ]
  },
  {
    "area_id": 2077,
    "area_name": "Shanco",
    "county_name": "Monaghan",
    "county_id": 26,
    "address_components": [
      {
        "long_name": "Shanco",
        "short_name": "Shanco",
        "types": [
          "neighborhood",
          "political"
        ]
      },
      {
        "long_name": "County Monaghan",
        "short_name": "MN",
        "types": [
          "administrative_area_level_1",
          "political"
        ]
      },
      {
        "long_name": "Ireland",
        "short_name": "IE",
        "types": [
          "country",
          "political"
        ]
      }
    ],
    "formatted_address": "Shanco, Co. Monaghan, Ireland",
    "geometry": {
      "bounds": {
        "northeast": {
          "lat": 54.0088056,
          "lng": -6.821322899999999
        },
        "southwest": {
          "lat": 53.99664869999999,
          "lng": -6.84478
        }
      },
      "location": {
        "lat": 54.00308829999999,
        "lng": -6.832390699999999
      },
      "location_type": "APPROXIMATE",
      "viewport": {
        "northeast": {
          "lat": 54.0088056,
          "lng": -6.821322899999999
        },
        "southwest": {
          "lat": 53.99664869999999,
          "lng": -6.84478
        }
      }
    },
    "place_id": "ChIJjZ3WYvSuYEgRhpdZi8ALGBQ",
    "types": [
      "neighborhood",
      "political"
    ]
  },
  {
    "area_id": 3435,
    "area_name": "Loughmorne",
    "county_name": "Monaghan",
    "county_id": 26,
    "address_components": [
      {
        "long_name": "Loughmorne",
        "short_name": "Loughmorne",
        "types": [
          "locality",
          "political"
        ]
      },
      {
        "long_name": "Ullinagh",
        "short_name": "Ullinagh",
        "types": [
          "neighborhood",
          "political"
        ]
      },
      {
        "long_name": "County Monaghan",
        "short_name": "MN",
        "types": [
          "administrative_area_level_1",
          "political"
        ]
      },
      {
        "long_name": "Ireland",
        "short_name": "IE",
        "types": [
          "country",
          "political"
        ]
      }
    ],
    "formatted_address": "Ullinagh, Loughmorne, Co. Monaghan, Ireland",
    "geometry": {
      "location": {
        "lat": 54.0769737,
        "lng": -6.8422648
      },
      "location_type": "APPROXIMATE",
      "viewport": {
        "northeast": {
          "lat": 54.07832268029149,
          "lng": -6.840915819708497
        },
        "southwest": {
          "lat": 54.07562471970849,
          "lng": -6.843613780291502
        }
      }
    },
    "place_id": "ChIJgZ5el3elYEgRx6fOqoeY0Qg",
    "types": [
      "locality",
      "political"
    ]
  },
  {
    "area_id": 3403,
    "area_name": "Killeevan",
    "county_name": "Monaghan",
    "county_id": 26,
    "address_components": [
      {
        "long_name": "Killeevan",
        "short_name": "Killeevan",
        "types": [
          "locality",
          "political"
        ]
      },
      {
        "long_name": "Shanco",
        "short_name": "Shanco",
        "types": [
          "neighborhood",
          "political"
        ]
      },
      {
        "long_name": "County Monaghan",
        "short_name": "MN",
        "types": [
          "administrative_area_level_1",
          "political"
        ]
      },
      {
        "long_name": "Ireland",
        "short_name": "IE",
        "types": [
          "country",
          "political"
        ]
      }
    ],
    "formatted_address": "Shanco, Killeevan, Co. Monaghan, Ireland",
    "geometry": {
      "location": {
        "lat": 54.1733394,
        "lng": -7.1516465
      },
      "location_type": "APPROXIMATE",
      "viewport": {
        "northeast": {
          "lat": 54.17468838029149,
          "lng": -7.150297519708498
        },
        "southwest": {
          "lat": 54.1719904197085,
          "lng": -7.152995480291502
        }
      }
    },
    "place_id": "ChIJXZYPSNEeXkgRoZ26GajHACY",
    "types": [
      "locality",
      "political"
    ]
  },
  {
    "area_id": 3402,
    "area_name": "Smithborough",
    "county_name": "Monaghan",
    "county_id": 26,
    "address_components": [
      {
        "long_name": "Smithborough",
        "short_name": "Smithborough",
        "types": [
          "locality",
          "political"
        ]
      },
      {
        "long_name": "Mulladuff",
        "short_name": "Mulladuff",
        "types": [
          "neighborhood",
          "political"
        ]
      },
      {
        "long_name": "County Monaghan",
        "short_name": "MN",
        "types": [
          "administrative_area_level_1",
          "political"
        ]
      },
      {
        "long_name": "Ireland",
        "short_name": "IE",
        "types": [
          "country",
          "political"
        ]
      }
    ],
    "formatted_address": "Mulladuff, Smithborough, Co. Monaghan, Ireland",
    "geometry": {
      "location": {
        "lat": 54.2213027,
        "lng": -7.0981545
      },
      "location_type": "APPROXIMATE",
      "viewport": {
        "northeast": {
          "lat": 54.2226516802915,
          "lng": -7.096805519708497
        },
        "southwest": {
          "lat": 54.2199537197085,
          "lng": -7.099503480291502
        }
      }
    },
    "place_id": "ChIJv6Wc4IgfXkgRQLIxl6nHAAo",
    "types": [
      "locality",
      "political"
    ]
  },
  {
    "area_id": 3405,
    "area_name": "Scotshouse",
    "county_name": "Monaghan",
    "county_id": 26,
    "address_components": [
      {
        "long_name": "Scotshouse",
        "short_name": "Scotshouse",
        "types": [
          "locality",
          "political"
        ]
      },
      {
        "long_name": "Killyfargy",
        "short_name": "Killyfargy",
        "types": [
          "neighborhood",
          "political"
        ]
      },
      {
        "long_name": "County Monaghan",
        "short_name": "MN",
        "types": [
          "administrative_area_level_1",
          "political"
        ]
      },
      {
        "long_name": "Ireland",
        "short_name": "IE",
        "types": [
          "country",
          "political"
        ]
      }
    ],
    "formatted_address": "Killyfargy, Scotshouse, Co. Monaghan, Ireland",
    "geometry": {
      "location": {
        "lat": 54.1226216,
        "lng": -7.2471111
      },
      "location_type": "APPROXIMATE",
      "viewport": {
        "northeast": {
          "lat": 54.12397058029149,
          "lng": -7.245762119708497
        },
        "southwest": {
          "lat": 54.12127261970849,
          "lng": -7.248460080291502
        }
      }
    },
    "place_id": "ChIJvfwFaBsaXkgRcHoxl6nHAAo",
    "types": [
      "locality",
      "political"
    ]
  },
  {
    "area_id": 3398,
    "area_name": "Stone Bridge",
    "county_name": "Monaghan",
    "county_id": 26,
    "address_components": [
      {
        "long_name": "Stone Bridge",
        "short_name": "Stone Bridge",
        "types": [
          "locality",
          "political"
        ]
      },
      {
        "long_name": "Latgallan",
        "short_name": "Latgallan",
        "types": [
          "neighborhood",
          "political"
        ]
      },
      {
        "long_name": "County Monaghan",
        "short_name": "MN",
        "types": [
          "administrative_area_level_1",
          "political"
        ]
      },
      {
        "long_name": "Ireland",
        "short_name": "IE",
        "types": [
          "country",
          "political"
        ]
      }
    ],
    "formatted_address": "Latgallan, Stone Bridge, Co. Monaghan, Ireland",
    "geometry": {
      "location": {
        "lat": 54.20164,
        "lng": -7.167890000000001
      },
      "location_type": "APPROXIMATE",
      "viewport": {
        "northeast": {
          "lat": 54.20298898029149,
          "lng": -7.166541019708498
        },
        "southwest": {
          "lat": 54.20029101970849,
          "lng": -7.169238980291503
        }
      }
    },
    "place_id": "ChIJxSHH3UofXkgRerbYQPAq3OQ",
    "types": [
      "locality",
      "political"
    ]
  },
  {
    "area_id": 3399,
    "area_name": "Tydavnet",
    "county_name": "Monaghan",
    "county_id": 26,
    "address_components": [
      {
        "long_name": "Tedavnet",
        "short_name": "Tedavnet",
        "types": [
          "locality",
          "political"
        ]
      },
      {
        "long_name": "Tedavnet",
        "short_name": "Tedavnet",
        "types": [
          "neighborhood",
          "political"
        ]
      },
      {
        "long_name": "County Monaghan",
        "short_name": "MN",
        "types": [
          "administrative_area_level_1",
          "political"
        ]
      },
      {
        "long_name": "Ireland",
        "short_name": "IE",
        "types": [
          "country",
          "political"
        ]
      }
    ],
    "formatted_address": "Tedavnet, Co. Monaghan, Ireland",
    "geometry": {
      "location": {
        "lat": 54.2962737,
        "lng": -7.0154365
      },
      "location_type": "APPROXIMATE",
      "viewport": {
        "northeast": {
          "lat": 54.2976226802915,
          "lng": -7.014087519708498
        },
        "southwest": {
          "lat": 54.2949247197085,
          "lng": -7.016785480291502
        }
      }
    },
    "place_id": "ChIJx7ydzYqeYEgRmKidg9pXZ68",
    "types": [
      "locality",
      "political"
    ]
  },
  {
    "area_id": 3438,
    "area_name": "Mill Town",
    "county_name": "Monaghan",
    "county_id": 26,
    "address_components": [
      {
        "long_name": "Milltown",
        "short_name": "Milltown",
        "types": [
          "political",
          "sublocality",
          "sublocality_level_1"
        ]
      },
      {
        "long_name": "Drumhillock",
        "short_name": "Drumhillock",
        "types": [
          "locality",
          "political"
        ]
      },
      {
        "long_name": "County Monaghan",
        "short_name": "MN",
        "types": [
          "administrative_area_level_1",
          "political"
        ]
      },
      {
        "long_name": "Ireland",
        "short_name": "IE",
        "types": [
          "country",
          "political"
        ]
      }
    ],
    "formatted_address": "Milltown, Drumhillock, Co. Monaghan, Ireland",
    "geometry": {
      "location": {
        "lat": 54.2668344,
        "lng": -6.9868128
      },
      "location_type": "APPROXIMATE",
      "viewport": {
        "northeast": {
          "lat": 54.2681833802915,
          "lng": -6.985463819708499
        },
        "southwest": {
          "lat": 54.2654854197085,
          "lng": -6.988161780291502
        }
      }
    },
    "place_id": "ChIJd7KblxmfYEgRcqfAdlIfL0E",
    "types": [
      "political",
      "sublocality",
      "sublocality_level_1"
    ]
  },
  {
    "area_id": 3439,
    "area_name": "Tullyamalra",
    "county_name": "Monaghan",
    "county_id": 26,
    "address_components": [
      {
        "long_name": "Tullynamalra",
        "short_name": "Tullynamalra",
        "types": [
          "neighborhood",
          "political"
        ]
      },
      {
        "long_name": "Lakeview",
        "short_name": "Lakeview",
        "types": [
          "political",
          "sublocality",
          "sublocality_level_1"
        ]
      },
      {
        "long_name": "County Monaghan",
        "short_name": "MN",
        "types": [
          "administrative_area_level_1",
          "political"
        ]
      },
      {
        "long_name": "Ireland",
        "short_name": "IE",
        "types": [
          "country",
          "political"
        ]
      }
    ],
    "formatted_address": "Tullynamalra, Lakeview, Co. Monaghan, Ireland",
    "geometry": {
      "bounds": {
        "northeast": {
          "lat": 54.1684026,
          "lng": -6.7108514
        },
        "southwest": {
          "lat": 54.1568599,
          "lng": -6.7303795
        }
      },
      "location": {
        "lat": 54.16354490000001,
        "lng": -6.7212866
      },
      "location_type": "APPROXIMATE",
      "viewport": {
        "northeast": {
          "lat": 54.1684026,
          "lng": -6.7108514
        },
        "southwest": {
          "lat": 54.1568599,
          "lng": -6.7303795
        }
      }
    },
    "partial_match": true,
    "place_id": "ChIJKc5xQwu8YEgRdFpk38FIXEg",
    "types": [
      "neighborhood",
      "political"
    ]
  },
  {
    "area_id": 3417,
    "area_name": "Tirnaneill",
    "county_name": "Monaghan",
    "county_id": 26,
    "address_components": [
      {
        "long_name": "Tirnaneill",
        "short_name": "Tirnaneill",
        "types": [
          "neighborhood",
          "political"
        ]
      },
      {
        "long_name": "County Monaghan",
        "short_name": "MN",
        "types": [
          "administrative_area_level_1",
          "political"
        ]
      },
      {
        "long_name": "Ireland",
        "short_name": "IE",
        "types": [
          "country",
          "political"
        ]
      }
    ],
    "formatted_address": "Tirnaneill, Co. Monaghan, Ireland",
    "geometry": {
      "bounds": {
        "northeast": {
          "lat": 54.2862563,
          "lng": -6.9646043
        },
        "southwest": {
          "lat": 54.2764463,
          "lng": -6.9806829
        }
      },
      "location": {
        "lat": 54.2809248,
        "lng": -6.972936199999999
      },
      "location_type": "APPROXIMATE",
      "viewport": {
        "northeast": {
          "lat": 54.2862563,
          "lng": -6.9646043
        },
        "southwest": {
          "lat": 54.2764463,
          "lng": -6.9806829
        }
      }
    },
    "place_id": "ChIJrcoPktCeYEgRQqFTu6fHACY",
    "types": [
      "neighborhood",
      "political"
    ]
  },
  {
    "area_id": 3404,
    "area_name": "Newbliss",
    "county_name": "Monaghan",
    "county_id": 26,
    "address_components": [
      {
        "long_name": "Newbliss",
        "short_name": "Newbliss",
        "types": [
          "locality",
          "political"
        ]
      },
      {
        "long_name": "Lisdarragh",
        "short_name": "Lisdarragh",
        "types": [
          "neighborhood",
          "political"
        ]
      },
      {
        "long_name": "County Monaghan",
        "short_name": "MN",
        "types": [
          "administrative_area_level_1",
          "political"
        ]
      },
      {
        "long_name": "Ireland",
        "short_name": "IE",
        "types": [
          "country",
          "political"
        ]
      }
    ],
    "formatted_address": "Lisdarragh, Newbliss, Co. Monaghan, Ireland",
    "geometry": {
      "location": {
        "lat": 54.1576466,
        "lng": -7.1368133
      },
      "location_type": "APPROXIMATE",
      "viewport": {
        "northeast": {
          "lat": 54.1589955802915,
          "lng": -7.135464319708498
        },
        "southwest": {
          "lat": 54.1562976197085,
          "lng": -7.138162280291502
        }
      }
    },
    "place_id": "ChIJ69fWRMceXkgRQBgyl6nHAAo",
    "types": [
      "locality",
      "political"
    ]
  },
  {
    "area_id": 3466,
    "area_name": "Inniskeen",
    "county_name": "Monaghan",
    "county_id": 26,
    "address_components": [
      {
        "long_name": "Inniskeen",
        "short_name": "Inniskeen",
        "types": [
          "locality",
          "political"
        ]
      },
      {
        "long_name": "Candlefort",
        "short_name": "Candlefort",
        "types": [
          "neighborhood",
          "political"
        ]
      },
      {
        "long_name": "County Monaghan",
        "short_name": "MN",
        "types": [
          "administrative_area_level_1",
          "political"
        ]
      },
      {
        "long_name": "Ireland",
        "short_name": "IE",
        "types": [
          "country",
          "political"
        ]
      }
    ],
    "formatted_address": "Candlefort, Inniskeen, Co. Monaghan, Ireland",
    "geometry": {
      "location": {
        "lat": 54.00315999999999,
        "lng": -6.58406
      },
      "location_type": "APPROXIMATE",
      "viewport": {
        "northeast": {
          "lat": 54.0045089802915,
          "lng": -6.582711019708499
        },
        "southwest": {
          "lat": 54.0018110197085,
          "lng": -6.585408980291502
        }
      }
    },
    "place_id": "ChIJ36Bd4222YEgR8K7qN6nHABg",
    "types": [
      "locality",
      "political"
    ]
  },
  {
    "area_id": 3415,
    "area_name": "Rockcorry",
    "county_name": "Monaghan",
    "county_id": 26,
    "address_components": [
      {
        "long_name": "Rockcorry",
        "short_name": "Rockcorry",
        "types": [
          "locality",
          "political"
        ]
      },
      {
        "long_name": "Corkeeran",
        "short_name": "Corkeeran",
        "types": [
          "neighborhood",
          "political"
        ]
      },
      {
        "long_name": "County Monaghan",
        "short_name": "MN",
        "types": [
          "administrative_area_level_1",
          "political"
        ]
      },
      {
        "long_name": "Ireland",
        "short_name": "IE",
        "types": [
          "country",
          "political"
        ]
      }
    ],
    "formatted_address": "Corkeeran, Rockcorry, Co. Monaghan, Ireland",
    "geometry": {
      "location": {
        "lat": 54.1178982,
        "lng": -7.0148381
      },
      "location_type": "APPROXIMATE",
      "viewport": {
        "northeast": {
          "lat": 54.1192471802915,
          "lng": -7.013489119708498
        },
        "southwest": {
          "lat": 54.1165492197085,
          "lng": -7.016187080291502
        }
      }
    },
    "place_id": "ChIJb6U4sGinYEgR0B0yl6nHAAo",
    "types": [
      "locality",
      "political"
    ]
  },
  {
    "area_id": 4010,
    "area_name": "Threemilehouse",
    "county_name": "Monaghan",
    "county_id": 26,
    "address_components": [
      {
        "long_name": "Three Mile House",
        "short_name": "Three Mile House",
        "types": [
          "locality",
          "political"
        ]
      },
      {
        "long_name": "Kilnaclay",
        "short_name": "Kilnaclay",
        "types": [
          "neighborhood",
          "political"
        ]
      },
      {
        "long_name": "County Monaghan",
        "short_name": "MN",
        "types": [
          "administrative_area_level_1",
          "political"
        ]
      },
      {
        "long_name": "Ireland",
        "short_name": "IE",
        "types": [
          "country",
          "political"
        ]
      }
    ],
    "formatted_address": "Kilnaclay, Three Mile House, Co. Monaghan, Ireland",
    "geometry": {
      "location": {
        "lat": 54.21667,
        "lng": -7.042671299999999
      },
      "location_type": "APPROXIMATE",
      "viewport": {
        "northeast": {
          "lat": 54.2180189802915,
          "lng": -7.041322319708497
        },
        "southwest": {
          "lat": 54.2153210197085,
          "lng": -7.044020280291502
        }
      }
    },
    "place_id": "ChIJP_Hn-g-gYEgR0Hcxl6nHAAo",
    "types": [
      "locality",
      "political"
    ]
  }
]