[
  {
    "area_id": 691,
    "area_name": "Ballycullane",
    "county_name": "Wexford",
    "county_id": 13,
    "address_components": [
      {
        "long_name": "Ballycullane",
        "short_name": "Ballycullane",
        "types": [
          "locality",
          "political"
        ]
      },
      {
        "long_name": "Ballycullane",
        "short_name": "Ballycullane",
        "types": [
          "neighborhood",
          "political"
        ]
      },
      {
        "long_name": "County Wexford",
        "short_name": "WX",
        "types": [
          "administrative_area_level_1",
          "political"
        ]
      },
      {
        "long_name": "Ireland",
        "short_name": "IE",
        "types": [
          "country",
          "political"
        ]
      }
    ],
    "formatted_address": "Ballycullane, Co. Wexford, Ireland",
    "geometry": {
      "location": {
        "lat": 52.2803179,
        "lng": -6.8397818
      },
      "location_type": "APPROXIMATE",
      "viewport": {
        "northeast": {
          "lat": 52.2816668802915,
          "lng": -6.838432819708498
        },
        "southwest": {
          "lat": 52.2789689197085,
          "lng": -6.841130780291502
        }
      }
    },
    "place_id": "ChIJ8eBX_AW7QkgRoIkxl6nHAAo",
    "types": [
      "locality",
      "political"
    ]
  },
  {
    "area_id": 1067,
    "area_name": "Adamstown",
    "county_name": "Wexford",
    "county_id": 13,
    "address_components": [
      {
        "long_name": "Adamstown",
        "short_name": "Adamstown",
        "types": [
          "locality",
          "political"
        ]
      },
      {
        "long_name": "Adamstown",
        "short_name": "Adamstown",
        "types": [
          "neighborhood",
          "political"
        ]
      },
      {
        "long_name": "County Wexford",
        "short_name": "WX",
        "types": [
          "administrative_area_level_1",
          "political"
        ]
      },
      {
        "long_name": "Ireland",
        "short_name": "IE",
        "types": [
          "country",
          "political"
        ]
      }
    ],
    "formatted_address": "Adamstown, Co. Wexford, Ireland",
    "geometry": {
      "location": {
        "lat": 52.3935687,
        "lng": -6.7185567
      },
      "location_type": "APPROXIMATE",
      "viewport": {
        "northeast": {
          "lat": 52.39491768029149,
          "lng": -6.717207719708497
        },
        "southwest": {
          "lat": 52.39221971970849,
          "lng": -6.719905680291502
        }
      }
    },
    "place_id": "ChIJJ1qJLdKuQkgRkBEyl6nHAAo",
    "types": [
      "locality",
      "political"
    ]
  },
  {
    "area_id": 1100,
    "area_name": "Ballaghkeen",
    "county_name": "Wexford",
    "county_id": 13,
    "address_components": [
      {
        "long_name": "The Ballagh",
        "short_name": "The Ballagh",
        "types": [
          "locality",
          "political"
        ]
      },
      {
        "long_name": "Ballymacoonoge",
        "short_name": "Ballymacoonoge",
        "types": [
          "neighborhood",
          "political"
        ]
      },
      {
        "long_name": "County Wexford",
        "short_name": "WX",
        "types": [
          "administrative_area_level_1",
          "political"
        ]
      },
      {
        "long_name": "Ireland",
        "short_name": "IE",
        "types": [
          "country",
          "political"
        ]
      }
    ],
    "formatted_address": "Ballymacoonoge, The Ballagh, Co. Wexford, Ireland",
    "geometry": {
      "location": {
        "lat": 52.47257,
        "lng": -6.43323
      },
      "location_type": "APPROXIMATE",
      "viewport": {
        "northeast": {
          "lat": 52.47391898029149,
          "lng": -6.431881019708498
        },
        "southwest": {
          "lat": 52.47122101970849,
          "lng": -6.434578980291502
        }
      }
    },
    "place_id": "ChIJkSYm-yUGaEgRQJ_fN6nHABg",
    "types": [
      "locality",
      "political"
    ]
  },
  {
    "area_id": 1046,
    "area_name": "Ballindaggan",
    "county_name": "Wexford",
    "county_id": 13,
    "address_components": [
      {
        "long_name": "Ballindaggan",
        "short_name": "Ballindaggan",
        "types": [
          "locality",
          "political"
        ]
      },
      {
        "long_name": "Ballindaggan",
        "short_name": "Ballindaggan",
        "types": [
          "neighborhood",
          "political"
        ]
      },
      {
        "long_name": "County Wexford",
        "short_name": "WX",
        "types": [
          "administrative_area_level_1",
          "political"
        ]
      },
      {
        "long_name": "Ireland",
        "short_name": "IE",
        "types": [
          "country",
          "political"
        ]
      }
    ],
    "formatted_address": "Ballindaggan, Co. Wexford, Ireland",
    "geometry": {
      "location": {
        "lat": 52.568545,
        "lng": -6.680261000000001
      },
      "location_type": "APPROXIMATE",
      "viewport": {
        "northeast": {
          "lat": 52.5698939802915,
          "lng": -6.678912019708499
        },
        "southwest": {
          "lat": 52.5671960197085,
          "lng": -6.681609980291503
        }
      }
    },
    "place_id": "ChIJC2gYKbtVXUgRZf7xXc5AUVc",
    "types": [
      "locality",
      "political"
    ]
  },
  {
    "area_id": 3901,
    "area_name": "Boolavogue",
    "county_name": "Wexford",
    "county_id": 13,
    "address_components": [
      {
        "long_name": "Boolavogue",
        "short_name": "Boolavogue",
        "types": [
          "locality",
          "political"
        ]
      },
      {
        "long_name": "Tobergal",
        "short_name": "Tobergal",
        "types": [
          "neighborhood",
          "political"
        ]
      },
      {
        "long_name": "County Wexford",
        "short_name": "WX",
        "types": [
          "administrative_area_level_1",
          "political"
        ]
      },
      {
        "long_name": "Ireland",
        "short_name": "IE",
        "types": [
          "country",
          "political"
        ]
      }
    ],
    "formatted_address": "Tobergal, Boolavogue, Co. Wexford, Ireland",
    "geometry": {
      "location": {
        "lat": 52.55466,
        "lng": -6.419969999999999
      },
      "location_type": "APPROXIMATE",
      "viewport": {
        "northeast": {
          "lat": 52.55600898029149,
          "lng": -6.418621019708498
        },
        "southwest": {
          "lat": 52.5533110197085,
          "lng": -6.421318980291502
        }
      }
    },
    "place_id": "ChIJq-m0TMriZ0gRYMXfN6nHABg",
    "types": [
      "locality",
      "political"
    ]
  },
  {
    "area_id": 1792,
    "area_name": "Craanford",
    "county_name": "Wexford",
    "county_id": 13,
    "address_components": [
      {
        "long_name": "Craanford",
        "short_name": "Craanford",
        "types": [
          "locality",
          "political"
        ]
      },
      {
        "long_name": "Ballinacoola",
        "short_name": "Ballinacoola",
        "types": [
          "neighborhood",
          "political"
        ]
      },
      {
        "long_name": "County Wexford",
        "short_name": "WX",
        "types": [
          "administrative_area_level_1",
          "political"
        ]
      },
      {
        "long_name": "Ireland",
        "short_name": "IE",
        "types": [
          "country",
          "political"
        ]
      }
    ],
    "formatted_address": "Ballinacoola, Craanford, Co. Wexford, Ireland",
    "geometry": {
      "location": {
        "lat": 52.68234,
        "lng": -6.387169999999999
      },
      "location_type": "APPROXIMATE",
      "viewport": {
        "northeast": {
          "lat": 52.68368898029149,
          "lng": -6.385821019708497
        },
        "southwest": {
          "lat": 52.6809910197085,
          "lng": -6.388518980291502
        }
      }
    },
    "place_id": "ChIJbUMrMp_lZ0gREsS0uqfHACY",
    "types": [
      "locality",
      "political"
    ]
  },
  {
    "area_id": 1089,
    "area_name": "Enniscorthy",
    "county_name": "Wexford",
    "county_id": 13,
    "address_components": [
      {
        "long_name": "Enniscorthy",
        "short_name": "Enniscorthy",
        "types": [
          "locality",
          "political"
        ]
      },
      {
        "long_name": "County Wexford",
        "short_name": "WX",
        "types": [
          "administrative_area_level_1",
          "political"
        ]
      },
      {
        "long_name": "Ireland",
        "short_name": "IE",
        "types": [
          "country",
          "political"
        ]
      }
    ],
    "formatted_address": "Enniscorthy, Co. Wexford, Ireland",
    "geometry": {
      "bounds": {
        "northeast": {
          "lat": 52.5238783,
          "lng": -6.547808799999999
        },
        "southwest": {
          "lat": 52.4921448,
          "lng": -6.595453900000001
        }
      },
      "location": {
        "lat": 52.5031135,
        "lng": -6.5727721
      },
      "location_type": "APPROXIMATE",
      "viewport": {
        "northeast": {
          "lat": 52.5238783,
          "lng": -6.547808799999999
        },
        "southwest": {
          "lat": 52.4921448,
          "lng": -6.595453900000001
        }
      }
    },
    "place_id": "ChIJP18JtYAAaEgRMJExl6nHAAo",
    "types": [
      "locality",
      "political"
    ]
  },
  {
    "area_id": 1079,
    "area_name": "Ballyduff",
    "county_name": "Wexford",
    "county_id": 13,
    "address_components": [
      {
        "long_name": "Ballyduff",
        "short_name": "Ballyduff",
        "types": [
          "neighborhood",
          "political"
        ]
      },
      {
        "long_name": "The Glebe",
        "short_name": "The Glebe",
        "types": [
          "political",
          "sublocality",
          "sublocality_level_1"
        ]
      },
      {
        "long_name": "County Wexford",
        "short_name": "WX",
        "types": [
          "administrative_area_level_1",
          "political"
        ]
      },
      {
        "long_name": "Ireland",
        "short_name": "IE",
        "types": [
          "country",
          "political"
        ]
      }
    ],
    "formatted_address": "Ballyduff, The Glebe, Co. Wexford, Ireland",
    "geometry": {
      "bounds": {
        "northeast": {
          "lat": 52.49982749999999,
          "lng": -6.3109126
        },
        "southwest": {
          "lat": 52.4899018,
          "lng": -6.326482899999999
        }
      },
      "location": {
        "lat": 52.49435709999999,
        "lng": -6.3188547
      },
      "location_type": "APPROXIMATE",
      "viewport": {
        "northeast": {
          "lat": 52.49982749999999,
          "lng": -6.3109126
        },
        "southwest": {
          "lat": 52.4899018,
          "lng": -6.326482899999999
        }
      }
    },
    "place_id": "ChIJzTpJ-Z4JaEgRHNXI0YL1fok",
    "types": [
      "neighborhood",
      "political"
    ]
  },
  {
    "area_id": 1066,
    "area_name": "Newbarn",
    "county_name": "Wexford",
    "county_id": 13,
    "address_components": [
      {
        "long_name": "Wexford",
        "short_name": "Wexford",
        "types": [
          "locality",
          "political"
        ]
      },
      {
        "long_name": "County Wexford",
        "short_name": "WX",
        "types": [
          "administrative_area_level_1",
          "political"
        ]
      },
      {
        "long_name": "Ireland",
        "short_name": "IE",
        "types": [
          "country",
          "political"
        ]
      }
    ],
    "formatted_address": "Wexford, Ireland",
    "geometry": {
      "bounds": {
        "northeast": {
          "lat": 52.3470099,
          "lng": -6.4464301
        },
        "southwest": {
          "lat": 52.32044,
          "lng": -6.49995
        }
      },
      "location": {
        "lat": 52.336916,
        "lng": -6.4633381
      },
      "location_type": "APPROXIMATE",
      "viewport": {
        "northeast": {
          "lat": 52.3470099,
          "lng": -6.4464301
        },
        "southwest": {
          "lat": 52.32044,
          "lng": -6.49995
        }
      }
    },
    "partial_match": true,
    "place_id": "ChIJb0o5tGEbaEgRgHIxl6nHAAo",
    "types": [
      "locality",
      "political"
    ]
  },
  {
    "area_id": 730,
    "area_name": "Drinagh",
    "county_name": "Wexford",
    "county_id": 13,
    "address_components": [
      {
        "long_name": "Drinagh",
        "short_name": "Drinagh",
        "types": [
          "locality",
          "political"
        ]
      },
      {
        "long_name": "Roughmead",
        "short_name": "Roughmead",
        "types": [
          "neighborhood",
          "political"
        ]
      },
      {
        "long_name": "County Wexford",
        "short_name": "WX",
        "types": [
          "administrative_area_level_1",
          "political"
        ]
      },
      {
        "long_name": "Ireland",
        "short_name": "IE",
        "types": [
          "country",
          "political"
        ]
      }
    ],
    "formatted_address": "Roughmead, Drinagh, Co. Wexford, Ireland",
    "geometry": {
      "location": {
        "lat": 52.30757999999999,
        "lng": -6.45759
      },
      "location_type": "APPROXIMATE",
      "viewport": {
        "northeast": {
          "lat": 52.3089289802915,
          "lng": -6.456241019708497
        },
        "southwest": {
          "lat": 52.3062310197085,
          "lng": -6.458938980291502
        }
      }
    },
    "place_id": "ChIJ70A_gmscaEgRcKvqN6nHABg",
    "types": [
      "locality",
      "political"
    ]
  },
  {
    "area_id": 1055,
    "area_name": "Dunganstown",
    "county_name": "Wexford",
    "county_id": 13,
    "address_components": [
      {
        "long_name": "Dunganstown",
        "short_name": "Dunganstown",
        "types": [
          "neighborhood",
          "political"
        ]
      },
      {
        "long_name": "County Wexford",
        "short_name": "WX",
        "types": [
          "administrative_area_level_1",
          "political"
        ]
      },
      {
        "long_name": "Ireland",
        "short_name": "IE",
        "types": [
          "country",
          "political"
        ]
      }
    ],
    "formatted_address": "Dunganstown, Co. Wexford, Ireland",
    "geometry": {
      "bounds": {
        "northeast": {
          "lat": 52.3529724,
          "lng": -6.969950799999999
        },
        "southwest": {
          "lat": 52.33804809999999,
          "lng": -6.997103399999999
        }
      },
      "location": {
        "lat": 52.3451481,
        "lng": -6.9849565
      },
      "location_type": "APPROXIMATE",
      "viewport": {
        "northeast": {
          "lat": 52.3529724,
          "lng": -6.969950799999999
        },
        "southwest": {
          "lat": 52.33804809999999,
          "lng": -6.997103399999999
        }
      }
    },
    "place_id": "ChIJdzSy0pi3QkgR8gC7GajHACY",
    "types": [
      "neighborhood",
      "political"
    ]
  },
  {
    "area_id": 1060,
    "area_name": "Donard",
    "county_name": "Wexford",
    "county_id": 13,
    "address_components": [
      {
        "long_name": "Wexford",
        "short_name": "Wexford",
        "types": [
          "locality",
          "political"
        ]
      },
      {
        "long_name": "County Wexford",
        "short_name": "WX",
        "types": [
          "administrative_area_level_1",
          "political"
        ]
      },
      {
        "long_name": "Ireland",
        "short_name": "IE",
        "types": [
          "country",
          "political"
        ]
      }
    ],
    "formatted_address": "Wexford, Ireland",
    "geometry": {
      "bounds": {
        "northeast": {
          "lat": 52.3470099,
          "lng": -6.4464301
        },
        "southwest": {
          "lat": 52.32044,
          "lng": -6.49995
        }
      },
      "location": {
        "lat": 52.336916,
        "lng": -6.4633381
      },
      "location_type": "APPROXIMATE",
      "viewport": {
        "northeast": {
          "lat": 52.3470099,
          "lng": -6.4464301
        },
        "southwest": {
          "lat": 52.32044,
          "lng": -6.49995
        }
      }
    },
    "partial_match": true,
    "place_id": "ChIJb0o5tGEbaEgRgHIxl6nHAAo",
    "types": [
      "locality",
      "political"
    ]
  },
  {
    "area_id": 1065,
    "area_name": "Ballinaboola",
    "county_name": "Wexford",
    "county_id": 13,
    "address_components": [
      {
        "long_name": "Ballinaboola",
        "short_name": "Ballinaboola",
        "types": [
          "locality",
          "political"
        ]
      },
      {
        "long_name": "Ballynabola",
        "short_name": "Ballynabola",
        "types": [
          "neighborhood",
          "political"
        ]
      },
      {
        "long_name": "County Wexford",
        "short_name": "WX",
        "types": [
          "administrative_area_level_1",
          "political"
        ]
      },
      {
        "long_name": "Ireland",
        "short_name": "IE",
        "types": [
          "country",
          "political"
        ]
      }
    ],
    "formatted_address": "Ballynabola, Ballinaboola, Co. Wexford, Ireland",
    "geometry": {
      "location": {
        "lat": 52.3686046,
        "lng": -6.8359599
      },
      "location_type": "APPROXIMATE",
      "viewport": {
        "northeast": {
          "lat": 52.3699535802915,
          "lng": -6.834610919708497
        },
        "southwest": {
          "lat": 52.3672556197085,
          "lng": -6.837308880291502
        }
      }
    },
    "place_id": "ChIJrybi_jawQkgRoNsxl6nHAAo",
    "types": [
      "locality",
      "political"
    ]
  },
  {
    "area_id": 700,
    "area_name": "Cullenstown",
    "county_name": "Wexford",
    "county_id": 13,
    "address_components": [
      {
        "long_name": "Cullenstown",
        "short_name": "Cullenstown",
        "types": [
          "neighborhood",
          "political"
        ]
      },
      {
        "long_name": "County Wexford",
        "short_name": "WX",
        "types": [
          "administrative_area_level_1",
          "political"
        ]
      },
      {
        "long_name": "Ireland",
        "short_name": "IE",
        "types": [
          "country",
          "political"
        ]
      }
    ],
    "formatted_address": "Cullenstown, Co. Wexford, Ireland",
    "geometry": {
      "bounds": {
        "northeast": {
          "lat": 52.2257101,
          "lng": -6.711211899999999
        },
        "southwest": {
          "lat": 52.2150016,
          "lng": -6.7329995
        }
      },
      "location": {
        "lat": 52.2198846,
        "lng": -6.721164099999999
      },
      "location_type": "APPROXIMATE",
      "viewport": {
        "northeast": {
          "lat": 52.2257101,
          "lng": -6.711211899999999
        },
        "southwest": {
          "lat": 52.2150016,
          "lng": -6.7329995
        }
      }
    },
    "place_id": "ChIJW0YU566jQkgREPgxl6nHAAo",
    "types": [
      "neighborhood",
      "political"
    ]
  },
  {
    "area_id": 1108,
    "area_name": "Courtown",
    "county_name": "Wexford",
    "county_id": 13,
    "address_components": [
      {
        "long_name": "Courtown",
        "short_name": "Courtown",
        "types": [
          "locality",
          "political"
        ]
      },
      {
        "long_name": "Seamount",
        "short_name": "Seamount",
        "types": [
          "neighborhood",
          "political"
        ]
      },
      {
        "long_name": "County Wexford",
        "short_name": "WX",
        "types": [
          "administrative_area_level_1",
          "political"
        ]
      },
      {
        "long_name": "Ireland",
        "short_name": "IE",
        "types": [
          "country",
          "political"
        ]
      }
    ],
    "formatted_address": "Seamount, Courtown, Co. Wexford, Ireland",
    "geometry": {
      "location": {
        "lat": 52.6448624,
        "lng": -6.2286169
      },
      "location_type": "APPROXIMATE",
      "viewport": {
        "northeast": {
          "lat": 52.6462113802915,
          "lng": -6.227267919708499
        },
        "southwest": {
          "lat": 52.6435134197085,
          "lng": -6.229965880291503
        }
      }
    },
    "place_id": "ChIJ5_4MvULnZ0gRYIwxl6nHAAo",
    "types": [
      "locality",
      "political"
    ]
  },
  {
    "area_id": 1104,
    "area_name": "Screen",
    "county_name": "Wexford",
    "county_id": 13,
    "address_components": [
      {
        "long_name": "Screen",
        "short_name": "Screen",
        "types": [
          "locality",
          "political"
        ]
      },
      {
        "long_name": "Glebe",
        "short_name": "Glebe",
        "types": [
          "neighborhood",
          "political"
        ]
      },
      {
        "long_name": "County Wexford",
        "short_name": "WX",
        "types": [
          "administrative_area_level_1",
          "political"
        ]
      },
      {
        "long_name": "Ireland",
        "short_name": "IE",
        "types": [
          "country",
          "political"
        ]
      }
    ],
    "formatted_address": "Glebe, Screen, Co. Wexford, Ireland",
    "geometry": {
      "location": {
        "lat": 52.4131,
        "lng": -6.408939999999999
      },
      "location_type": "APPROXIMATE",
      "viewport": {
        "northeast": {
          "lat": 52.4144489802915,
          "lng": -6.407591019708497
        },
        "southwest": {
          "lat": 52.4117510197085,
          "lng": -6.410288980291502
        }
      }
    },
    "place_id": "ChIJ62p2BNkFaEgRkJLfN6nHABg",
    "types": [
      "locality",
      "political"
    ]
  },
  {
    "area_id": 1851,
    "area_name": "Ballyfad",
    "county_name": "Wexford",
    "county_id": 13,
    "address_components": [
      {
        "long_name": "Ballyfad",
        "short_name": "Ballyfad",
        "types": [
          "locality",
          "political"
        ]
      },
      {
        "long_name": "Oulart",
        "short_name": "Oulart",
        "types": [
          "neighborhood",
          "political"
        ]
      },
      {
        "long_name": "County Wexford",
        "short_name": "WX",
        "types": [
          "administrative_area_level_1",
          "political"
        ]
      },
      {
        "long_name": "Ireland",
        "short_name": "IE",
        "types": [
          "country",
          "political"
        ]
      }
    ],
    "formatted_address": "Oulart, Ballyfad, Co. Wexford, Ireland",
    "geometry": {
      "location": {
        "lat": 52.7676604,
        "lng": -6.268040699999999
      },
      "location_type": "APPROXIMATE",
      "viewport": {
        "northeast": {
          "lat": 52.76900938029151,
          "lng": -6.266691719708497
        },
        "southwest": {
          "lat": 52.76631141970851,
          "lng": -6.269389680291502
        }
      }
    },
    "place_id": "ChIJ66jkZrHpZ0gRkK_fN6nHABg",
    "types": [
      "locality",
      "political"
    ]
  },
  {
    "area_id": 4073,
    "area_name": "Coolree",
    "county_name": "Wexford",
    "county_id": 13,
    "address_components": [
      {
        "long_name": "Coolree",
        "short_name": "Coolree",
        "types": [
          "neighborhood",
          "political"
        ]
      },
      {
        "long_name": "Ballinlug",
        "short_name": "Ballinlug",
        "types": [
          "political",
          "sublocality",
          "sublocality_level_1"
        ]
      },
      {
        "long_name": "County Wexford",
        "short_name": "WX",
        "types": [
          "administrative_area_level_1",
          "political"
        ]
      },
      {
        "long_name": "Ireland",
        "short_name": "IE",
        "types": [
          "country",
          "political"
        ]
      }
    ],
    "formatted_address": "Coolree, Ballinlug, Co. Wexford, Ireland",
    "geometry": {
      "bounds": {
        "northeast": {
          "lat": 52.5619549,
          "lng": -6.6899451
        },
        "southwest": {
          "lat": 52.5471857,
          "lng": -6.7126715
        }
      },
      "location": {
        "lat": 52.553528,
        "lng": -6.702193299999999
      },
      "location_type": "APPROXIMATE",
      "viewport": {
        "northeast": {
          "lat": 52.5619549,
          "lng": -6.6899451
        },
        "southwest": {
          "lat": 52.5471857,
          "lng": -6.7126715
        }
      }
    },
    "place_id": "ChIJr6lekP1UXUgR8lpUu6fHACY",
    "types": [
      "neighborhood",
      "political"
    ]
  },
  {
    "area_id": 1790,
    "area_name": "Askamore",
    "county_name": "Wexford",
    "county_id": 13,
    "address_components": [
      {
        "long_name": "Askamore",
        "short_name": "Askamore",
        "types": [
          "locality",
          "political"
        ]
      },
      {
        "long_name": "Aska More",
        "short_name": "Aska More",
        "types": [
          "neighborhood",
          "political"
        ]
      },
      {
        "long_name": "County Wexford",
        "short_name": "WX",
        "types": [
          "administrative_area_level_1",
          "political"
        ]
      },
      {
        "long_name": "Ireland",
        "short_name": "IE",
        "types": [
          "country",
          "political"
        ]
      }
    ],
    "formatted_address": "Aska More, Askamore, Co. Wexford, Ireland",
    "geometry": {
      "location": {
        "lat": 52.6724098,
        "lng": -6.479752299999999
      },
      "location_type": "APPROXIMATE",
      "viewport": {
        "northeast": {
          "lat": 52.6737587802915,
          "lng": -6.478403319708497
        },
        "southwest": {
          "lat": 52.6710608197085,
          "lng": -6.481101280291502
        }
      }
    },
    "place_id": "ChIJqZ5ZZuz6Z0gRYcq6GajHACY",
    "types": [
      "locality",
      "political"
    ]
  },
  {
    "area_id": 4004,
    "area_name": "Ardamine",
    "county_name": "Wexford",
    "county_id": 13,
    "address_components": [
      {
        "long_name": "Ardamine",
        "short_name": "Ardamine",
        "types": [
          "locality",
          "political"
        ]
      },
      {
        "long_name": "Glen (Richards)",
        "short_name": "Glen (Richards)",
        "types": [
          "neighborhood",
          "political"
        ]
      },
      {
        "long_name": "County Wexford",
        "short_name": "WX",
        "types": [
          "administrative_area_level_1",
          "political"
        ]
      },
      {
        "long_name": "Ireland",
        "short_name": "IE",
        "types": [
          "country",
          "political"
        ]
      }
    ],
    "formatted_address": "Glen (Richards), Ardamine, Co. Wexford, Ireland",
    "geometry": {
      "location": {
        "lat": 52.61825,
        "lng": -6.229019999999999
      },
      "location_type": "APPROXIMATE",
      "viewport": {
        "northeast": {
          "lat": 52.6195989802915,
          "lng": -6.227671019708497
        },
        "southwest": {
          "lat": 52.6169010197085,
          "lng": -6.230368980291502
        }
      }
    },
    "place_id": "ChIJO__xU5jgZ0gRsNExl6nHAAo",
    "types": [
      "locality",
      "political"
    ]
  },
  {
    "area_id": 1106,
    "area_name": "Curracloe",
    "county_name": "Wexford",
    "county_id": 13,
    "address_components": [
      {
        "long_name": "Curracloe",
        "short_name": "Curracloe",
        "types": [
          "locality",
          "political"
        ]
      },
      {
        "long_name": "Barnahask",
        "short_name": "Barnahask",
        "types": [
          "neighborhood",
          "political"
        ]
      },
      {
        "long_name": "County Wexford",
        "short_name": "WX",
        "types": [
          "administrative_area_level_1",
          "political"
        ]
      },
      {
        "long_name": "Ireland",
        "short_name": "IE",
        "types": [
          "country",
          "political"
        ]
      }
    ],
    "formatted_address": "Barnahask, Curracloe, Co. Wexford, Ireland",
    "geometry": {
      "location": {
        "lat": 52.3931816,
        "lng": -6.3921174
      },
      "location_type": "APPROXIMATE",
      "viewport": {
        "northeast": {
          "lat": 52.3945305802915,
          "lng": -6.390768419708499
        },
        "southwest": {
          "lat": 52.3918326197085,
          "lng": -6.393466380291502
        }
      }
    },
    "place_id": "ChIJOUXad3kFaEgR0Iwxl6nHAAo",
    "types": [
      "locality",
      "political"
    ]
  },
  {
    "area_id": 709,
    "area_name": "Duncormick",
    "county_name": "Wexford",
    "county_id": 13,
    "address_components": [
      {
        "long_name": "Duncormick",
        "short_name": "Duncormick",
        "types": [
          "locality",
          "political"
        ]
      },
      {
        "long_name": "Duncormick",
        "short_name": "Duncormick",
        "types": [
          "neighborhood",
          "political"
        ]
      },
      {
        "long_name": "County Wexford",
        "short_name": "WX",
        "types": [
          "administrative_area_level_1",
          "political"
        ]
      },
      {
        "long_name": "Ireland",
        "short_name": "IE",
        "types": [
          "country",
          "political"
        ]
      }
    ],
    "formatted_address": "Duncormick, Co. Wexford, Ireland",
    "geometry": {
      "location": {
        "lat": 52.2285412,
        "lng": -6.655054199999999
      },
      "location_type": "APPROXIMATE",
      "viewport": {
        "northeast": {
          "lat": 52.2298901802915,
          "lng": -6.653705219708497
        },
        "southwest": {
          "lat": 52.2271922197085,
          "lng": -6.656403180291502
        }
      }
    },
    "place_id": "ChIJgVGIam6hQkgRMP4xl6nHAAo",
    "types": [
      "locality",
      "political"
    ]
  },
  {
    "area_id": 1110,
    "area_name": "Ballycanew",
    "county_name": "Wexford",
    "county_id": 13,
    "address_components": [
      {
        "long_name": "Ballycanew",
        "short_name": "Ballycanew",
        "types": [
          "locality",
          "political"
        ]
      },
      {
        "long_name": "Ballycanew",
        "short_name": "Ballycanew",
        "types": [
          "neighborhood",
          "political"
        ]
      },
      {
        "long_name": "County Wexford",
        "short_name": "WX",
        "types": [
          "administrative_area_level_1",
          "political"
        ]
      },
      {
        "long_name": "Ireland",
        "short_name": "IE",
        "types": [
          "country",
          "political"
        ]
      }
    ],
    "formatted_address": "Ballycanew, Co. Wexford, Ireland",
    "geometry": {
      "location": {
        "lat": 52.6106782,
        "lng": -6.3049672
      },
      "location_type": "APPROXIMATE",
      "viewport": {
        "northeast": {
          "lat": 52.61202718029149,
          "lng": -6.303618219708498
        },
        "southwest": {
          "lat": 52.6093292197085,
          "lng": -6.306316180291502
        }
      }
    },
    "place_id": "ChIJQYHvjE_hZ0gRUIkxl6nHAAo",
    "types": [
      "locality",
      "political"
    ]
  },
  {
    "area_id": 689,
    "area_name": "Duncannon",
    "county_name": "Wexford",
    "county_id": 13,
    "address_components": [
      {
        "long_name": "Duncannon",
        "short_name": "Duncannon",
        "types": [
          "locality",
          "political"
        ]
      },
      {
        "long_name": "Duncannon",
        "short_name": "Duncannon",
        "types": [
          "neighborhood",
          "political"
        ]
      },
      {
        "long_name": "County Wexford",
        "short_name": "WX",
        "types": [
          "administrative_area_level_1",
          "political"
        ]
      },
      {
        "long_name": "Ireland",
        "short_name": "IE",
        "types": [
          "country",
          "political"
        ]
      }
    ],
    "formatted_address": "Duncannon, Co. Wexford, Ireland",
    "geometry": {
      "location": {
        "lat": 52.2206117,
        "lng": -6.9325606
      },
      "location_type": "APPROXIMATE",
      "viewport": {
        "northeast": {
          "lat": 52.2219606802915,
          "lng": -6.931211619708497
        },
        "southwest": {
          "lat": 52.2192627197085,
          "lng": -6.933909580291502
        }
      }
    },
    "place_id": "ChIJT8tuBOi-QkgR8P4xl6nHAAo",
    "types": [
      "locality",
      "political"
    ]
  },
  {
    "area_id": 1069,
    "area_name": "Bunclody",
    "county_name": "Wexford",
    "county_id": 13,
    "address_components": [
      {
        "long_name": "Bunclody",
        "short_name": "Bunclody",
        "types": [
          "locality",
          "political"
        ]
      },
      {
        "long_name": "Ballinapark",
        "short_name": "Ballinapark",
        "types": [
          "neighborhood",
          "political"
        ]
      },
      {
        "long_name": "County Wexford",
        "short_name": "WX",
        "types": [
          "administrative_area_level_1",
          "political"
        ]
      },
      {
        "long_name": "Ireland",
        "short_name": "IE",
        "types": [
          "country",
          "political"
        ]
      }
    ],
    "formatted_address": "Ballinapark, Bunclody, Co. Wexford, Ireland",
    "geometry": {
      "location": {
        "lat": 52.6550857,
        "lng": -6.652193
      },
      "location_type": "APPROXIMATE",
      "viewport": {
        "northeast": {
          "lat": 52.6564346802915,
          "lng": -6.650844019708498
        },
        "southwest": {
          "lat": 52.6537367197085,
          "lng": -6.653541980291502
        }
      }
    },
    "place_id": "ChIJPQpZo3j4Z0gRgIIxl6nHAAo",
    "types": [
      "locality",
      "political"
    ]
  },
  {
    "area_id": 687,
    "area_name": "Arthurstown",
    "county_name": "Wexford",
    "county_id": 13,
    "address_components": [
      {
        "long_name": "Arthurstown",
        "short_name": "Arthurstown",
        "types": [
          "locality",
          "political"
        ]
      },
      {
        "long_name": "County Wexford",
        "short_name": "WX",
        "types": [
          "administrative_area_level_1",
          "political"
        ]
      },
      {
        "long_name": "Ireland",
        "short_name": "IE",
        "types": [
          "country",
          "political"
        ]
      }
    ],
    "formatted_address": "Arthurstown, Co. Wexford, Ireland",
    "geometry": {
      "bounds": {
        "northeast": {
          "lat": 52.2462019,
          "lng": -6.949897699999999
        },
        "southwest": {
          "lat": 52.23986859999999,
          "lng": -6.9571423
        }
      },
      "location": {
        "lat": 52.24206059999999,
        "lng": -6.9517472
      },
      "location_type": "APPROXIMATE",
      "viewport": {
        "northeast": {
          "lat": 52.2462019,
          "lng": -6.949897699999999
        },
        "southwest": {
          "lat": 52.23986859999999,
          "lng": -6.9571423
        }
      }
    },
    "place_id": "ChIJabFNx9S4QkgR4Igxl6nHAAo",
    "types": [
      "locality",
      "political"
    ]
  },
  {
    "area_id": 3809,
    "area_name": "Carne",
    "county_name": "Wexford",
    "county_id": 13,
    "address_components": [
      {
        "long_name": "Carne",
        "short_name": "Carne",
        "types": [
          "locality",
          "political"
        ]
      },
      {
        "long_name": "Ballytra",
        "short_name": "Ballytra",
        "types": [
          "neighborhood",
          "political"
        ]
      },
      {
        "long_name": "County Wexford",
        "short_name": "WX",
        "types": [
          "administrative_area_level_1",
          "political"
        ]
      },
      {
        "long_name": "Ireland",
        "short_name": "IE",
        "types": [
          "country",
          "political"
        ]
      }
    ],
    "formatted_address": "Ballytra, Carne, Co. Wexford, Ireland",
    "geometry": {
      "location": {
        "lat": 52.1977,
        "lng": -6.3592
      },
      "location_type": "APPROXIMATE",
      "viewport": {
        "northeast": {
          "lat": 52.1990489802915,
          "lng": -6.357851019708497
        },
        "southwest": {
          "lat": 52.1963510197085,
          "lng": -6.360548980291502
        }
      }
    },
    "place_id": "ChIJmS9jt50iaEgR0NDfN6nHABg",
    "types": [
      "locality",
      "political"
    ]
  },
  {
    "area_id": 1086,
    "area_name": "Ballyedmond",
    "county_name": "Wexford",
    "county_id": 13,
    "address_components": [
      {
        "long_name": "Ballyedmond",
        "short_name": "Ballyedmond",
        "types": [
          "neighborhood",
          "political"
        ]
      },
      {
        "long_name": "County Wexford",
        "short_name": "WX",
        "types": [
          "administrative_area_level_1",
          "political"
        ]
      },
      {
        "long_name": "Ireland",
        "short_name": "IE",
        "types": [
          "country",
          "political"
        ]
      }
    ],
    "formatted_address": "Ballyedmond, Co. Wexford, Ireland",
    "geometry": {
      "bounds": {
        "northeast": {
          "lat": 52.5465633,
          "lng": -6.3365347
        },
        "southwest": {
          "lat": 52.5399852,
          "lng": -6.3472459
        }
      },
      "location": {
        "lat": 52.5421445,
        "lng": -6.342574099999999
      },
      "location_type": "APPROXIMATE",
      "viewport": {
        "northeast": {
          "lat": 52.5465633,
          "lng": -6.3365347
        },
        "southwest": {
          "lat": 52.5399852,
          "lng": -6.3472459
        }
      }
    },
    "place_id": "ChIJrbTW6G3iZ0gRAN4xl6nHAAo",
    "types": [
      "neighborhood",
      "political"
    ]
  },
  {
    "area_id": 1794,
    "area_name": "Brideswell",
    "county_name": "Wexford",
    "county_id": 13,
    "address_components": [
      {
        "long_name": "Brideswell",
        "short_name": "Brideswell",
        "types": [
          "locality",
          "political"
        ]
      },
      {
        "long_name": "Garrycleary",
        "short_name": "Garrycleary",
        "types": [
          "neighborhood",
          "political"
        ]
      },
      {
        "long_name": "County Wexford",
        "short_name": "WX",
        "types": [
          "administrative_area_level_1",
          "political"
        ]
      },
      {
        "long_name": "Ireland",
        "short_name": "IE",
        "types": [
          "country",
          "political"
        ]
      }
    ],
    "formatted_address": "Garrycleary, Brideswell, Co. Wexford, Ireland",
    "geometry": {
      "location": {
        "lat": 52.39656,
        "lng": -6.524699999999999
      },
      "location_type": "APPROXIMATE",
      "viewport": {
        "northeast": {
          "lat": 52.3979089802915,
          "lng": -6.523351019708497
        },
        "southwest": {
          "lat": 52.3952110197085,
          "lng": -6.526048980291502
        }
      }
    },
    "place_id": "ChIJjUqIxKADaEgRawgjY4eAKL0",
    "types": [
      "locality",
      "political"
    ]
  },
  {
    "area_id": 1080,
    "area_name": "Camolin",
    "county_name": "Wexford",
    "county_id": 13,
    "address_components": [
      {
        "long_name": "Camolin",
        "short_name": "Camolin",
        "types": [
          "locality",
          "political"
        ]
      },
      {
        "long_name": "Camolin",
        "short_name": "Camolin",
        "types": [
          "neighborhood",
          "political"
        ]
      },
      {
        "long_name": "County Wexford",
        "short_name": "WX",
        "types": [
          "administrative_area_level_1",
          "political"
        ]
      },
      {
        "long_name": "Ireland",
        "short_name": "IE",
        "types": [
          "country",
          "political"
        ]
      }
    ],
    "formatted_address": "Camolin, Co. Wexford, Ireland",
    "geometry": {
      "location": {
        "lat": 52.6156787,
        "lng": -6.4263356
      },
      "location_type": "APPROXIMATE",
      "viewport": {
        "northeast": {
          "lat": 52.6170276802915,
          "lng": -6.424986619708497
        },
        "southwest": {
          "lat": 52.6143297197085,
          "lng": -6.427684580291502
        }
      }
    },
    "place_id": "ChIJJahqN6rkZ0gR0Ocxl6nHAAo",
    "types": [
      "locality",
      "political"
    ]
  },
  {
    "area_id": 1085,
    "area_name": "Balloughter",
    "county_name": "Wexford",
    "county_id": 13,
    "address_components": [
      {
        "long_name": "Balloughter",
        "short_name": "Balloughter",
        "types": [
          "neighborhood",
          "political"
        ]
      },
      {
        "long_name": "County Wexford",
        "short_name": "WX",
        "types": [
          "administrative_area_level_1",
          "political"
        ]
      },
      {
        "long_name": "Ireland",
        "short_name": "IE",
        "types": [
          "country",
          "political"
        ]
      }
    ],
    "formatted_address": "Balloughter, Co. Wexford, Ireland",
    "geometry": {
      "bounds": {
        "northeast": {
          "lat": 52.6204693,
          "lng": -6.363385399999999
        },
        "southwest": {
          "lat": 52.6107234,
          "lng": -6.380984799999999
        }
      },
      "location": {
        "lat": 52.6150252,
        "lng": -6.3733236
      },
      "location_type": "APPROXIMATE",
      "viewport": {
        "northeast": {
          "lat": 52.6204693,
          "lng": -6.363385399999999
        },
        "southwest": {
          "lat": 52.6107234,
          "lng": -6.380984799999999
        }
      }
    },
    "partial_match": true,
    "place_id": "ChIJJ6uV0YDjZ0gRGCOms_wo4AM",
    "types": [
      "neighborhood",
      "political"
    ]
  },
  {
    "area_id": 3903,
    "area_name": "Cahore",
    "county_name": "Wexford",
    "county_id": 13,
    "address_components": [
      {
        "long_name": "Cahore",
        "short_name": "Cahore",
        "types": [
          "neighborhood",
          "political"
        ]
      },
      {
        "long_name": "New Road",
        "short_name": "New Road",
        "types": [
          "political",
          "sublocality",
          "sublocality_level_1"
        ]
      },
      {
        "long_name": "County Wexford",
        "short_name": "WX",
        "types": [
          "administrative_area_level_1",
          "political"
        ]
      },
      {
        "long_name": "Ireland",
        "short_name": "IE",
        "types": [
          "country",
          "political"
        ]
      }
    ],
    "formatted_address": "Cahore, New Road, Co. Wexford, Ireland",
    "geometry": {
      "bounds": {
        "northeast": {
          "lat": 52.5676442,
          "lng": -6.1933729
        },
        "southwest": {
          "lat": 52.5538473,
          "lng": -6.2122654
        }
      },
      "location": {
        "lat": 52.5602786,
        "lng": -6.2026666
      },
      "location_type": "APPROXIMATE",
      "viewport": {
        "northeast": {
          "lat": 52.5676442,
          "lng": -6.1933729
        },
        "southwest": {
          "lat": 52.5538473,
          "lng": -6.2122654
        }
      }
    },
    "place_id": "ChIJf5Ne1XTgZ0gRgK8xl6nHAAo",
    "types": [
      "neighborhood",
      "political"
    ]
  },
  {
    "area_id": 699,
    "area_name": "Bannow",
    "county_name": "Wexford",
    "county_id": 13,
    "address_components": [
      {
        "long_name": "Bannow",
        "short_name": "Bannow",
        "types": [
          "neighborhood",
          "political"
        ]
      },
      {
        "long_name": "County Wexford",
        "short_name": "WX",
        "types": [
          "administrative_area_level_1",
          "political"
        ]
      },
      {
        "long_name": "Ireland",
        "short_name": "IE",
        "types": [
          "country",
          "political"
        ]
      }
    ],
    "formatted_address": "Bannow, Co. Wexford, Ireland",
    "geometry": {
      "bounds": {
        "northeast": {
          "lat": 52.2149187,
          "lng": -6.7705712
        },
        "southwest": {
          "lat": 52.2043002,
          "lng": -6.7989235
        }
      },
      "location": {
        "lat": 52.210453,
        "lng": -6.784547700000001
      },
      "location_type": "APPROXIMATE",
      "viewport": {
        "northeast": {
          "lat": 52.2149187,
          "lng": -6.7705712
        },
        "southwest": {
          "lat": 52.2043002,
          "lng": -6.7989235
        }
      }
    },
    "place_id": "ChIJw0sJFT6jQkgRALzfN6nHABg",
    "types": [
      "neighborhood",
      "political"
    ]
  },
  {
    "area_id": 1098,
    "area_name": "Crossabeg",
    "county_name": "Wexford",
    "county_id": 13,
    "address_components": [
      {
        "long_name": "Crossabeg",
        "short_name": "Crossabeg",
        "types": [
          "neighborhood",
          "political"
        ]
      },
      {
        "long_name": "County Wexford",
        "short_name": "WX",
        "types": [
          "administrative_area_level_1",
          "political"
        ]
      },
      {
        "long_name": "Ireland",
        "short_name": "IE",
        "types": [
          "country",
          "political"
        ]
      }
    ],
    "formatted_address": "Crossabeg, Co. Wexford, Ireland",
    "geometry": {
      "bounds": {
        "northeast": {
          "lat": 52.388037,
          "lng": -6.4971638
        },
        "southwest": {
          "lat": 52.3816247,
          "lng": -6.507687
        }
      },
      "location": {
        "lat": 52.3847761,
        "lng": -6.5006134
      },
      "location_type": "APPROXIMATE",
      "viewport": {
        "northeast": {
          "lat": 52.388037,
          "lng": -6.4971638
        },
        "southwest": {
          "lat": 52.3816247,
          "lng": -6.507687
        }
      }
    },
    "place_id": "ChIJXdLvf2UDaEgRAvu6GajHACY",
    "types": [
      "neighborhood",
      "political"
    ]
  },
  {
    "area_id": 1073,
    "area_name": "Strahart",
    "county_name": "Wexford",
    "county_id": 13,
    "address_components": [
      {
        "long_name": "Strahart",
        "short_name": "Strahart",
        "types": [
          "neighborhood",
          "political"
        ]
      },
      {
        "long_name": "County Wexford",
        "short_name": "WX",
        "types": [
          "administrative_area_level_1",
          "political"
        ]
      },
      {
        "long_name": "Ireland",
        "short_name": "IE",
        "types": [
          "country",
          "political"
        ]
      }
    ],
    "formatted_address": "Strahart, Co. Wexford, Ireland",
    "geometry": {
      "bounds": {
        "northeast": {
          "lat": 52.6210909,
          "lng": -6.583044399999999
        },
        "southwest": {
          "lat": 52.6073254,
          "lng": -6.6011522
        }
      },
      "location": {
        "lat": 52.6141107,
        "lng": -6.593081499999999
      },
      "location_type": "APPROXIMATE",
      "viewport": {
        "northeast": {
          "lat": 52.6210909,
          "lng": -6.583044399999999
        },
        "southwest": {
          "lat": 52.6073254,
          "lng": -6.6011522
        }
      }
    },
    "place_id": "ChIJZzucpSj5Z0gRotK6GajHACY",
    "types": [
      "neighborhood",
      "political"
    ]
  },
  {
    "area_id": 724,
    "area_name": "Burrow",
    "county_name": "Wexford",
    "county_id": 13,
    "address_components": [
      {
        "long_name": "Wexford",
        "short_name": "Wexford",
        "types": [
          "locality",
          "political"
        ]
      },
      {
        "long_name": "County Wexford",
        "short_name": "WX",
        "types": [
          "administrative_area_level_1",
          "political"
        ]
      },
      {
        "long_name": "Ireland",
        "short_name": "IE",
        "types": [
          "country",
          "political"
        ]
      }
    ],
    "formatted_address": "Wexford, Ireland",
    "geometry": {
      "bounds": {
        "northeast": {
          "lat": 52.3470099,
          "lng": -6.4464301
        },
        "southwest": {
          "lat": 52.32044,
          "lng": -6.49995
        }
      },
      "location": {
        "lat": 52.336916,
        "lng": -6.4633381
      },
      "location_type": "APPROXIMATE",
      "viewport": {
        "northeast": {
          "lat": 52.3470099,
          "lng": -6.4464301
        },
        "southwest": {
          "lat": 52.32044,
          "lng": -6.49995
        }
      }
    },
    "place_id": "ChIJb0o5tGEbaEgRgHIxl6nHAAo",
    "types": [
      "locality",
      "political"
    ]
  },
  {
    "area_id": 1076,
    "area_name": "Ballycarney",
    "county_name": "Wexford",
    "county_id": 13,
    "address_components": [
      {
        "long_name": "Ballycarney",
        "short_name": "Ballycarney",
        "types": [
          "locality",
          "political"
        ]
      },
      {
        "long_name": "Ballycarney",
        "short_name": "Ballycarney",
        "types": [
          "neighborhood",
          "political"
        ]
      },
      {
        "long_name": "County Wexford",
        "short_name": "WX",
        "types": [
          "administrative_area_level_1",
          "political"
        ]
      },
      {
        "long_name": "Ireland",
        "short_name": "IE",
        "types": [
          "country",
          "political"
        ]
      }
    ],
    "formatted_address": "Ballycarney, Co. Wexford, Ireland",
    "geometry": {
      "location": {
        "lat": 52.5826751,
        "lng": -6.5713532
      },
      "location_type": "APPROXIMATE",
      "viewport": {
        "northeast": {
          "lat": 52.58402408029149,
          "lng": -6.570004219708498
        },
        "southwest": {
          "lat": 52.5813261197085,
          "lng": -6.572702180291502
        }
      }
    },
    "place_id": "ChIJNfeLQtz-Z0gRwKHfN6nHABg",
    "types": [
      "locality",
      "political"
    ]
  },
  {
    "area_id": 3770,
    "area_name": "Carrigbyrne",
    "county_name": "Wexford",
    "county_id": 13,
    "address_components": [
      {
        "long_name": "Carrickbyrne",
        "short_name": "Carrickbyrne",
        "types": [
          "locality",
          "political"
        ]
      },
      {
        "long_name": "Scullaboge",
        "short_name": "Scullaboge",
        "types": [
          "neighborhood",
          "political"
        ]
      },
      {
        "long_name": "County Wexford",
        "short_name": "WX",
        "types": [
          "administrative_area_level_1",
          "political"
        ]
      },
      {
        "long_name": "Ireland",
        "short_name": "IE",
        "types": [
          "country",
          "political"
        ]
      }
    ],
    "formatted_address": "Scullaboge, Carrickbyrne, Co. Wexford, Ireland",
    "geometry": {
      "location": {
        "lat": 52.36478,
        "lng": -6.77724
      },
      "location_type": "APPROXIMATE",
      "viewport": {
        "northeast": {
          "lat": 52.36612898029149,
          "lng": -6.775891019708498
        },
        "southwest": {
          "lat": 52.36343101970849,
          "lng": -6.778588980291502
        }
      }
    },
    "place_id": "ChIJCfxY87uvQkgRNr-7n2eQGb4",
    "types": [
      "locality",
      "political"
    ]
  },
  {
    "area_id": 711,
    "area_name": "Bridgetown",
    "county_name": "Wexford",
    "county_id": 13,
    "address_components": [
      {
        "long_name": "Bridgetown",
        "short_name": "Bridgetown",
        "types": [
          "locality",
          "political"
        ]
      },
      {
        "long_name": "Lake",
        "short_name": "Lake",
        "types": [
          "neighborhood",
          "political"
        ]
      },
      {
        "long_name": "County Wexford",
        "short_name": "WX",
        "types": [
          "administrative_area_level_1",
          "political"
        ]
      },
      {
        "long_name": "Ireland",
        "short_name": "IE",
        "types": [
          "country",
          "political"
        ]
      }
    ],
    "formatted_address": "Lake, Bridgetown, Co. Wexford, Ireland",
    "geometry": {
      "location": {
        "lat": 52.2302422,
        "lng": -6.549064
      },
      "location_type": "APPROXIMATE",
      "viewport": {
        "northeast": {
          "lat": 52.2315911802915,
          "lng": -6.547715019708497
        },
        "southwest": {
          "lat": 52.2288932197085,
          "lng": -6.550412980291502
        }
      }
    },
    "place_id": "ChIJPRdi0jEeaEgRQNkxl6nHAAo",
    "types": [
      "locality",
      "political"
    ]
  },
  {
    "area_id": 728,
    "area_name": "Broadway",
    "county_name": "Wexford",
    "county_id": 13,
    "address_components": [
      {
        "long_name": "Broadway",
        "short_name": "Broadway",
        "types": [
          "locality",
          "political"
        ]
      },
      {
        "long_name": "St. Iberius",
        "short_name": "St. Iberius",
        "types": [
          "neighborhood",
          "political"
        ]
      },
      {
        "long_name": "County Wexford",
        "short_name": "WX",
        "types": [
          "administrative_area_level_1",
          "political"
        ]
      },
      {
        "long_name": "Ireland",
        "short_name": "IE",
        "types": [
          "country",
          "political"
        ]
      }
    ],
    "formatted_address": "St. Iberius, Broadway, Co. Wexford, Ireland",
    "geometry": {
      "location": {
        "lat": 52.21909,
        "lng": -6.38716
      },
      "location_type": "APPROXIMATE",
      "viewport": {
        "northeast": {
          "lat": 52.2204389802915,
          "lng": -6.385811019708497
        },
        "southwest": {
          "lat": 52.21774101970851,
          "lng": -6.388508980291502
        }
      }
    },
    "place_id": "ChIJ-y4GoFcYaEgRMfa6GajHACY",
    "types": [
      "locality",
      "political"
    ]
  },
  {
    "area_id": 723,
    "area_name": "Rosslare Strand",
    "county_name": "Wexford",
    "county_id": 13,
    "address_components": [
      {
        "long_name": "Rosslare",
        "short_name": "Rosslare",
        "types": [
          "locality",
          "political"
        ]
      },
      {
        "long_name": "Walsheslough",
        "short_name": "Walsheslough",
        "types": [
          "neighborhood",
          "political"
        ]
      },
      {
        "long_name": "County Wexford",
        "short_name": "WX",
        "types": [
          "administrative_area_level_1",
          "political"
        ]
      },
      {
        "long_name": "Ireland",
        "short_name": "IE",
        "types": [
          "country",
          "political"
        ]
      }
    ],
    "formatted_address": "Walsheslough, Rosslare, Co. Wexford, Ireland",
    "geometry": {
      "location": {
        "lat": 52.2720275,
        "lng": -6.3892254
      },
      "location_type": "APPROXIMATE",
      "viewport": {
        "northeast": {
          "lat": 52.2733764802915,
          "lng": -6.387876419708499
        },
        "southwest": {
          "lat": 52.2706785197085,
          "lng": -6.390574380291502
        }
      }
    },
    "place_id": "ChIJPYh3hCcaaEgRQB4yl6nHAAo",
    "types": [
      "locality",
      "political"
    ]
  },
  {
    "area_id": 727,
    "area_name": "Tagoat",
    "county_name": "Wexford",
    "county_id": 13,
    "address_components": [
      {
        "long_name": "Tagoat",
        "short_name": "Tagoat",
        "types": [
          "locality",
          "political"
        ]
      },
      {
        "long_name": "Grahormack",
        "short_name": "Grahormack",
        "types": [
          "neighborhood",
          "political"
        ]
      },
      {
        "long_name": "County Wexford",
        "short_name": "WX",
        "types": [
          "administrative_area_level_1",
          "political"
        ]
      },
      {
        "long_name": "Ireland",
        "short_name": "IE",
        "types": [
          "country",
          "political"
        ]
      }
    ],
    "formatted_address": "Grahormack, Tagoat, Co. Wexford, Ireland",
    "geometry": {
      "location": {
        "lat": 52.2454387,
        "lng": -6.388300099999999
      },
      "location_type": "APPROXIMATE",
      "viewport": {
        "northeast": {
          "lat": 52.2467876802915,
          "lng": -6.386951119708497
        },
        "southwest": {
          "lat": 52.2440897197085,
          "lng": -6.389649080291502
        }
      }
    },
    "place_id": "ChIJsTcpI7sZaEgR4CMyl6nHAAo",
    "types": [
      "locality",
      "political"
    ]
  },
  {
    "area_id": 4211,
    "area_name": "Camross",
    "county_name": "Wexford",
    "county_id": 13,
    "address_components": [
      {
        "long_name": "Camross",
        "short_name": "Camross",
        "types": [
          "neighborhood",
          "political"
        ]
      },
      {
        "long_name": "County Wexford",
        "short_name": "WX",
        "types": [
          "administrative_area_level_1",
          "political"
        ]
      },
      {
        "long_name": "Ireland",
        "short_name": "IE",
        "types": [
          "country",
          "political"
        ]
      }
    ],
    "formatted_address": "Camross, Co. Wexford, Ireland",
    "geometry": {
      "bounds": {
        "northeast": {
          "lat": 52.38462819999999,
          "lng": -6.6894459
        },
        "southwest": {
          "lat": 52.3612501,
          "lng": -6.7114148
        }
      },
      "location": {
        "lat": 52.3738146,
        "lng": -6.6987625
      },
      "location_type": "APPROXIMATE",
      "viewport": {
        "northeast": {
          "lat": 52.38462819999999,
          "lng": -6.6894459
        },
        "southwest": {
          "lat": 52.3612501,
          "lng": -6.7114148
        }
      }
    },
    "place_id": "ChIJLzAesM2oQkgRZQNJb0YWpec",
    "types": [
      "neighborhood",
      "political"
    ]
  },
  {
    "area_id": 698,
    "area_name": "Carrick",
    "county_name": "Wexford",
    "county_id": 13,
    "address_components": [
      {
        "long_name": "Carrick",
        "short_name": "Carrick",
        "types": [
          "locality",
          "political"
        ]
      },
      {
        "long_name": "Danescastle",
        "short_name": "Danescastle",
        "types": [
          "neighborhood",
          "political"
        ]
      },
      {
        "long_name": "County Wexford",
        "short_name": "WX",
        "types": [
          "administrative_area_level_1",
          "political"
        ]
      },
      {
        "long_name": "Ireland",
        "short_name": "IE",
        "types": [
          "country",
          "political"
        ]
      }
    ],
    "formatted_address": "Danescastle, Carrick, Co. Wexford, Ireland",
    "geometry": {
      "location": {
        "lat": 52.2394931,
        "lng": -6.7318286
      },
      "location_type": "APPROXIMATE",
      "viewport": {
        "northeast": {
          "lat": 52.2408420802915,
          "lng": -6.730479619708498
        },
        "southwest": {
          "lat": 52.2381441197085,
          "lng": -6.733177580291502
        }
      }
    },
    "place_id": "ChIJqXNghXajQkgRsVdd_fb9HZo",
    "types": [
      "locality",
      "political"
    ]
  },
  {
    "area_id": 1045,
    "area_name": "Templeshanbo",
    "county_name": "Wexford",
    "county_id": 13,
    "address_components": [
      {
        "long_name": "Templeshanbo",
        "short_name": "Templeshanbo",
        "types": [
          "locality",
          "political"
        ]
      },
      {
        "long_name": "Ballindaggan",
        "short_name": "Ballindaggan",
        "types": [
          "neighborhood",
          "political"
        ]
      },
      {
        "long_name": "County Wexford",
        "short_name": "WX",
        "types": [
          "administrative_area_level_1",
          "political"
        ]
      },
      {
        "long_name": "Ireland",
        "short_name": "IE",
        "types": [
          "country",
          "political"
        ]
      }
    ],
    "formatted_address": "Ballindaggan, Templeshanbo, Co. Wexford, Ireland",
    "geometry": {
      "location": {
        "lat": 52.5792081,
        "lng": -6.678273600000001
      },
      "location_type": "APPROXIMATE",
      "viewport": {
        "northeast": {
          "lat": 52.58055708029149,
          "lng": -6.676924619708498
        },
        "southwest": {
          "lat": 52.5778591197085,
          "lng": -6.679622580291503
        }
      }
    },
    "place_id": "ChIJz9t1C_tVXUgRkJ7fN6nHABg",
    "types": [
      "locality",
      "political"
    ]
  },
  {
    "area_id": 685,
    "area_name": "Campile",
    "county_name": "Wexford",
    "county_id": 13,
    "address_components": [
      {
        "long_name": "Campile",
        "short_name": "Campile",
        "types": [
          "locality",
          "political"
        ]
      },
      {
        "long_name": "County Wexford",
        "short_name": "WX",
        "types": [
          "administrative_area_level_1",
          "political"
        ]
      },
      {
        "long_name": "Ireland",
        "short_name": "IE",
        "types": [
          "country",
          "political"
        ]
      }
    ],
    "formatted_address": "Campile, Co. Wexford, Ireland",
    "geometry": {
      "bounds": {
        "northeast": {
          "lat": 52.2970663,
          "lng": -6.935708699999999
        },
        "southwest": {
          "lat": 52.2803804,
          "lng": -6.945918
        }
      },
      "location": {
        "lat": 52.2881507,
        "lng": -6.9413872
      },
      "location_type": "APPROXIMATE",
      "viewport": {
        "northeast": {
          "lat": 52.2970663,
          "lng": -6.935708699999999
        },
        "southwest": {
          "lat": 52.2803804,
          "lng": -6.945918
        }
      }
    },
    "place_id": "ChIJ7WP866a5QkgR4Ooxl6nHAAo",
    "types": [
      "locality",
      "political"
    ]
  },
  {
    "area_id": 4166,
    "area_name": "Tara Hill",
    "county_name": "Wexford",
    "county_id": 13,
    "address_components": [
      {
        "long_name": "Tara Hill",
        "short_name": "Tara Hill",
        "types": [
          "establishment",
          "natural_feature"
        ]
      },
      {
        "long_name": "Tarahill",
        "short_name": "Tarahill",
        "types": [
          "neighborhood",
          "political"
        ]
      },
      {
        "long_name": "County Wexford",
        "short_name": "WX",
        "types": [
          "administrative_area_level_1",
          "political"
        ]
      },
      {
        "long_name": "Ireland",
        "short_name": "IE",
        "types": [
          "country",
          "political"
        ]
      }
    ],
    "formatted_address": "Tara Hill, Tarahill, Co. Wexford, Ireland",
    "geometry": {
      "location": {
        "lat": 52.69911980000001,
        "lng": -6.2177194
      },
      "location_type": "APPROXIMATE",
      "viewport": {
        "northeast": {
          "lat": 52.70046878029151,
          "lng": -6.216370419708498
        },
        "southwest": {
          "lat": 52.69777081970851,
          "lng": -6.219068380291502
        }
      }
    },
    "place_id": "ChIJ58E1VUTdZ0gRCCEvfAeTPCY",
    "plus_code": {
      "compound_code": "MQXJ+JW Tara Hill, County Wexford, Ireland",
      "global_code": "9C4MMQXJ+JW"
    },
    "types": [
      "establishment",
      "natural_feature"
    ]
  },
  {
    "area_id": 1101,
    "area_name": "Castleellis",
    "county_name": "Wexford",
    "county_id": 13,
    "address_components": [
      {
        "long_name": "Castle Ellis",
        "short_name": "Castle Ellis",
        "types": [
          "locality",
          "political"
        ]
      },
      {
        "long_name": "Askunshin",
        "short_name": "Askunshin",
        "types": [
          "neighborhood",
          "political"
        ]
      },
      {
        "long_name": "County Wexford",
        "short_name": "WX",
        "types": [
          "administrative_area_level_1",
          "political"
        ]
      },
      {
        "long_name": "Ireland",
        "short_name": "IE",
        "types": [
          "country",
          "political"
        ]
      }
    ],
    "formatted_address": "Askunshin, Castle Ellis, Co. Wexford, Ireland",
    "geometry": {
      "location": {
        "lat": 52.52144,
        "lng": -6.61987
      },
      "location_type": "APPROXIMATE",
      "viewport": {
        "northeast": {
          "lat": 52.52278898029149,
          "lng": -6.618521019708497
        },
        "southwest": {
          "lat": 52.5200910197085,
          "lng": -6.621218980291502
        }
      }
    },
    "place_id": "ChIJdTFY7vz_Z0gRKq0Fe0Oc2ew",
    "types": [
      "locality",
      "political"
    ]
  },
  {
    "area_id": 1071,
    "area_name": "Kilmyshall",
    "county_name": "Wexford",
    "county_id": 13,
    "address_components": [
      {
        "long_name": "Kilmyshall",
        "short_name": "Kilmyshall",
        "types": [
          "locality",
          "political"
        ]
      },
      {
        "long_name": "Ballyphilip",
        "short_name": "Ballyphilip",
        "types": [
          "neighborhood",
          "political"
        ]
      },
      {
        "long_name": "County Wexford",
        "short_name": "WX",
        "types": [
          "administrative_area_level_1",
          "political"
        ]
      },
      {
        "long_name": "Ireland",
        "short_name": "IE",
        "types": [
          "country",
          "political"
        ]
      }
    ],
    "formatted_address": "Ballyphilip, Kilmyshall, Co. Wexford, Ireland",
    "geometry": {
      "location": {
        "lat": 52.62625000000001,
        "lng": -6.64934
      },
      "location_type": "APPROXIMATE",
      "viewport": {
        "northeast": {
          "lat": 52.62759898029151,
          "lng": -6.647991019708497
        },
        "southwest": {
          "lat": 52.62490101970851,
          "lng": -6.650688980291502
        }
      }
    },
    "place_id": "ChIJC-UuAJ_4Z0gRMAsyl6nHAAo",
    "types": [
      "locality",
      "political"
    ]
  },
  {
    "area_id": 1112,
    "area_name": "Ballygarrett",
    "county_name": "Wexford",
    "county_id": 13,
    "address_components": [
      {
        "long_name": "Ballygarrett",
        "short_name": "Ballygarrett",
        "types": [
          "locality",
          "political"
        ]
      },
      {
        "long_name": "Ballygarrett",
        "short_name": "Ballygarrett",
        "types": [
          "neighborhood",
          "political"
        ]
      },
      {
        "long_name": "County Wexford",
        "short_name": "WX",
        "types": [
          "administrative_area_level_1",
          "political"
        ]
      },
      {
        "long_name": "Ireland",
        "short_name": "IE",
        "types": [
          "country",
          "political"
        ]
      }
    ],
    "formatted_address": "Ballygarrett, Co. Wexford, Ireland",
    "geometry": {
      "location": {
        "lat": 52.5729847,
        "lng": -6.2299674
      },
      "location_type": "APPROXIMATE",
      "viewport": {
        "northeast": {
          "lat": 52.5743336802915,
          "lng": -6.228618419708497
        },
        "southwest": {
          "lat": 52.5716357197085,
          "lng": -6.231316380291502
        }
      }
    },
    "place_id": "ChIJu-Yqz2DgZ0gRkNUxl6nHAAo",
    "types": [
      "locality",
      "political"
    ]
  },
  {
    "area_id": 3902,
    "area_name": "Poulshone",
    "county_name": "Wexford",
    "county_id": 13,
    "address_components": [
      {
        "long_name": "Poulshone",
        "short_name": "Poulshone",
        "types": [
          "locality",
          "political"
        ]
      },
      {
        "long_name": "Glen (Richards)",
        "short_name": "Glen (Richards)",
        "types": [
          "neighborhood",
          "political"
        ]
      },
      {
        "long_name": "County Wexford",
        "short_name": "WX",
        "types": [
          "administrative_area_level_1",
          "political"
        ]
      },
      {
        "long_name": "Ireland",
        "short_name": "IE",
        "types": [
          "country",
          "political"
        ]
      }
    ],
    "formatted_address": "Glen (Richards), Poulshone, Co. Wexford, Ireland",
    "geometry": {
      "location": {
        "lat": 52.61771,
        "lng": -6.22718
      },
      "location_type": "APPROXIMATE",
      "viewport": {
        "northeast": {
          "lat": 52.61905898029149,
          "lng": -6.225831019708497
        },
        "southwest": {
          "lat": 52.61636101970849,
          "lng": -6.228528980291502
        }
      }
    },
    "place_id": "ChIJHbRA6rHgZ0gRcIPfN6nHABg",
    "types": [
      "locality",
      "political"
    ]
  },
  {
    "area_id": 708,
    "area_name": "Knocktown",
    "county_name": "Wexford",
    "county_id": 13,
    "address_components": [
      {
        "long_name": "Knocktown",
        "short_name": "Knocktown",
        "types": [
          "neighborhood",
          "political"
        ]
      },
      {
        "long_name": "Millbrook",
        "short_name": "Millbrook",
        "types": [
          "political",
          "sublocality",
          "sublocality_level_1"
        ]
      },
      {
        "long_name": "County Wexford",
        "short_name": "WX",
        "types": [
          "administrative_area_level_1",
          "political"
        ]
      },
      {
        "long_name": "Ireland",
        "short_name": "IE",
        "types": [
          "country",
          "political"
        ]
      }
    ],
    "formatted_address": "Knocktown, Millbrook, Co. Wexford, Ireland",
    "geometry": {
      "bounds": {
        "northeast": {
          "lat": 52.2531535,
          "lng": -6.6136104
        },
        "southwest": {
          "lat": 52.24308809999999,
          "lng": -6.6281496
        }
      },
      "location": {
        "lat": 52.2473275,
        "lng": -6.6202675
      },
      "location_type": "APPROXIMATE",
      "viewport": {
        "northeast": {
          "lat": 52.2531535,
          "lng": -6.6136104
        },
        "southwest": {
          "lat": 52.24308809999999,
          "lng": -6.6281496
        }
      }
    },
    "place_id": "ChIJ1yxqgNigQkgR54PrFQcqXM8",
    "types": [
      "neighborhood",
      "political"
    ]
  },
  {
    "area_id": 1057,
    "area_name": "New Ross",
    "county_name": "Wexford",
    "county_id": 13,
    "address_components": [
      {
        "long_name": "New Ross",
        "short_name": "New Ross",
        "types": [
          "locality",
          "political"
        ]
      },
      {
        "long_name": "County Wexford",
        "short_name": "WX",
        "types": [
          "administrative_area_level_1",
          "political"
        ]
      },
      {
        "long_name": "Ireland",
        "short_name": "IE",
        "types": [
          "country",
          "political"
        ]
      }
    ],
    "formatted_address": "New Ross, Co. Wexford, Ireland",
    "geometry": {
      "bounds": {
        "northeast": {
          "lat": 52.41600649999999,
          "lng": -6.919444899999999
        },
        "southwest": {
          "lat": 52.37508889999999,
          "lng": -6.956865499999999
        }
      },
      "location": {
        "lat": 52.3958337,
        "lng": -6.945456699999999
      },
      "location_type": "APPROXIMATE",
      "viewport": {
        "northeast": {
          "lat": 52.41600649999999,
          "lng": -6.919444899999999
        },
        "southwest": {
          "lat": 52.37508889999999,
          "lng": -6.956865499999999
        }
      }
    },
    "place_id": "ChIJX01VQbq2QkgRcB4yl6nHAAo",
    "types": [
      "locality",
      "political"
    ]
  },
  {
    "area_id": 1047,
    "area_name": "Kiltealy",
    "county_name": "Wexford",
    "county_id": 13,
    "address_components": [
      {
        "long_name": "Kiltealy",
        "short_name": "Kiltealy",
        "types": [
          "locality",
          "political"
        ]
      },
      {
        "long_name": "Curraduff",
        "short_name": "Curraduff",
        "types": [
          "neighborhood",
          "political"
        ]
      },
      {
        "long_name": "County Wexford",
        "short_name": "WX",
        "types": [
          "administrative_area_level_1",
          "political"
        ]
      },
      {
        "long_name": "Ireland",
        "short_name": "IE",
        "types": [
          "country",
          "political"
        ]
      }
    ],
    "formatted_address": "Curraduff, Kiltealy, Co. Wexford, Ireland",
    "geometry": {
      "location": {
        "lat": 52.565427,
        "lng": -6.7455835
      },
      "location_type": "APPROXIMATE",
      "viewport": {
        "northeast": {
          "lat": 52.5667759802915,
          "lng": -6.744234519708498
        },
        "southwest": {
          "lat": 52.5640780197085,
          "lng": -6.746932480291502
        }
      }
    },
    "place_id": "ChIJ8aPJx3BUXUgRIIUxl6nHAAo",
    "types": [
      "locality",
      "political"
    ]
  },
  {
    "area_id": 1087,
    "area_name": "Kilnamanagh",
    "county_name": "Wexford",
    "county_id": 13,
    "address_components": [
      {
        "long_name": "Kilnamanagh",
        "short_name": "Kilnamanagh",
        "types": [
          "locality",
          "political"
        ]
      },
      {
        "long_name": "Knockskemolin",
        "short_name": "Knockskemolin",
        "types": [
          "neighborhood",
          "political"
        ]
      },
      {
        "long_name": "County Wexford",
        "short_name": "WX",
        "types": [
          "administrative_area_level_1",
          "political"
        ]
      },
      {
        "long_name": "Ireland",
        "short_name": "IE",
        "types": [
          "country",
          "political"
        ]
      }
    ],
    "formatted_address": "Knockskemolin, Kilnamanagh, Co. Wexford, Ireland",
    "geometry": {
      "location": {
        "lat": 52.51828,
        "lng": -6.374029999999999
      },
      "location_type": "APPROXIMATE",
      "viewport": {
        "northeast": {
          "lat": 52.51962898029149,
          "lng": -6.372681019708498
        },
        "southwest": {
          "lat": 52.51693101970849,
          "lng": -6.375378980291502
        }
      }
    },
    "place_id": "ChIJCSzAdzEIaEgRQhq7GajHACY",
    "types": [
      "locality",
      "political"
    ]
  },
  {
    "area_id": 4071,
    "area_name": "Monamolin",
    "county_name": "Wexford",
    "county_id": 13,
    "address_components": [
      {
        "long_name": "Monamolin",
        "short_name": "Monamolin",
        "types": [
          "locality",
          "political"
        ]
      },
      {
        "long_name": "Glebe",
        "short_name": "Glebe",
        "types": [
          "neighborhood",
          "political"
        ]
      },
      {
        "long_name": "County Wexford",
        "short_name": "WX",
        "types": [
          "administrative_area_level_1",
          "political"
        ]
      },
      {
        "long_name": "Ireland",
        "short_name": "IE",
        "types": [
          "country",
          "political"
        ]
      }
    ],
    "formatted_address": "Glebe, Monamolin, Ireland",
    "geometry": {
      "location": {
        "lat": 52.556856,
        "lng": -6.3496134
      },
      "location_type": "APPROXIMATE",
      "viewport": {
        "northeast": {
          "lat": 52.5582049802915,
          "lng": -6.348264419708498
        },
        "southwest": {
          "lat": 52.5555070197085,
          "lng": -6.350962380291502
        }
      }
    },
    "place_id": "ChIJF8Az-WniZ0gRUKkxl6nHAAo",
    "types": [
      "locality",
      "political"
    ]
  },
  {
    "area_id": 1099,
    "area_name": "Kilcotty",
    "county_name": "Wexford",
    "county_id": 13,
    "address_components": [
      {
        "long_name": "Kilcotty",
        "short_name": "Kilcotty",
        "types": [
          "locality",
          "political"
        ]
      },
      {
        "long_name": "Baurela",
        "short_name": "Baurela",
        "types": [
          "neighborhood",
          "political"
        ]
      },
      {
        "long_name": "County Wexford",
        "short_name": "WX",
        "types": [
          "administrative_area_level_1",
          "political"
        ]
      },
      {
        "long_name": "Ireland",
        "short_name": "IE",
        "types": [
          "country",
          "political"
        ]
      }
    ],
    "formatted_address": "Baurela, Kilcotty, Co. Wexford, Ireland",
    "geometry": {
      "location": {
        "lat": 52.4885895,
        "lng": -6.4769144
      },
      "location_type": "APPROXIMATE",
      "viewport": {
        "northeast": {
          "lat": 52.48993848029151,
          "lng": -6.475565419708498
        },
        "southwest": {
          "lat": 52.48724051970851,
          "lng": -6.478263380291502
        }
      }
    },
    "place_id": "ChIJQV1ZiRsHaEgRadcyo8PVC6s",
    "types": [
      "locality",
      "political"
    ]
  },
  {
    "area_id": 1077,
    "area_name": "Marshalstown",
    "county_name": "Wexford",
    "county_id": 13,
    "address_components": [
      {
        "long_name": "Marshalstown",
        "short_name": "Marshalstown",
        "types": [
          "locality",
          "political"
        ]
      },
      {
        "long_name": "Marshalstown",
        "short_name": "Marshalstown",
        "types": [
          "neighborhood",
          "political"
        ]
      },
      {
        "long_name": "County Wexford",
        "short_name": "WX",
        "types": [
          "administrative_area_level_1",
          "political"
        ]
      },
      {
        "long_name": "Ireland",
        "short_name": "IE",
        "types": [
          "country",
          "political"
        ]
      }
    ],
    "formatted_address": "Marshalstown, Co. Wexford, Ireland",
    "geometry": {
      "location": {
        "lat": 52.549761,
        "lng": -6.5973083
      },
      "location_type": "APPROXIMATE",
      "viewport": {
        "northeast": {
          "lat": 52.5511099802915,
          "lng": -6.595959319708498
        },
        "southwest": {
          "lat": 52.5484120197085,
          "lng": -6.598657280291502
        }
      }
    },
    "place_id": "ChIJG6QPh7n_Z0gRAKcxl6nHAAo",
    "types": [
      "locality",
      "political"
    ]
  },
  {
    "area_id": 3989,
    "area_name": "Ballymoney",
    "county_name": "Wexford",
    "county_id": 13,
    "address_components": [
      {
        "long_name": "Ballymoney",
        "short_name": "Ballymoney",
        "types": [
          "locality",
          "political"
        ]
      },
      {
        "long_name": "Ballymoney Lower",
        "short_name": "Ballymoney Lower",
        "types": [
          "neighborhood",
          "political"
        ]
      },
      {
        "long_name": "County Wexford",
        "short_name": "WX",
        "types": [
          "administrative_area_level_1",
          "political"
        ]
      },
      {
        "long_name": "Ireland",
        "short_name": "IE",
        "types": [
          "country",
          "political"
        ]
      }
    ],
    "formatted_address": "Ballymoney Lower, Ballymoney, Co. Wexford, Ireland",
    "geometry": {
      "location": {
        "lat": 52.68246,
        "lng": -6.22119
      },
      "location_type": "APPROXIMATE",
      "viewport": {
        "northeast": {
          "lat": 52.6838089802915,
          "lng": -6.219841019708498
        },
        "southwest": {
          "lat": 52.6811110197085,
          "lng": -6.222538980291502
        }
      }
    },
    "place_id": "ChIJ3dGiWmXdZ0gR8N4xl6nHAAo",
    "types": [
      "locality",
      "political"
    ]
  },
  {
    "area_id": 1114,
    "area_name": "Kilmuckridge",
    "county_name": "Wexford",
    "county_id": 13,
    "address_components": [
      {
        "long_name": "Kilmuckridge",
        "short_name": "Kilmuckridge",
        "types": [
          "locality",
          "political"
        ]
      },
      {
        "long_name": "Cosher",
        "short_name": "Cosher",
        "types": [
          "neighborhood",
          "political"
        ]
      },
      {
        "long_name": "County Wexford",
        "short_name": "WX",
        "types": [
          "administrative_area_level_1",
          "political"
        ]
      },
      {
        "long_name": "Ireland",
        "short_name": "IE",
        "types": [
          "country",
          "political"
        ]
      }
    ],
    "formatted_address": "Cosher, Kilmuckridge, Co. Wexford, Ireland",
    "geometry": {
      "location": {
        "lat": 52.51308849999999,
        "lng": -6.283934599999999
      },
      "location_type": "APPROXIMATE",
      "viewport": {
        "northeast": {
          "lat": 52.5144374802915,
          "lng": -6.282585619708497
        },
        "southwest": {
          "lat": 52.5117395197085,
          "lng": -6.285283580291502
        }
      }
    },
    "place_id": "ChIJ-S3qJn4JaEgRcKoxl6nHAAo",
    "types": [
      "locality",
      "political"
    ]
  },
  {
    "area_id": 710,
    "area_name": "Killag",
    "county_name": "Wexford",
    "county_id": 13,
    "address_components": [
      {
        "long_name": "Killag",
        "short_name": "Killag",
        "types": [
          "neighborhood",
          "political"
        ]
      },
      {
        "long_name": "County Wexford",
        "short_name": "WX",
        "types": [
          "administrative_area_level_1",
          "political"
        ]
      },
      {
        "long_name": "Ireland",
        "short_name": "IE",
        "types": [
          "country",
          "political"
        ]
      }
    ],
    "formatted_address": "Killag, Co. Wexford, Ireland",
    "geometry": {
      "bounds": {
        "northeast": {
          "lat": 52.2100365,
          "lng": -6.5840117
        },
        "southwest": {
          "lat": 52.19557409999999,
          "lng": -6.6112958
        }
      },
      "location": {
        "lat": 52.2052173,
        "lng": -6.6000546
      },
      "location_type": "APPROXIMATE",
      "viewport": {
        "northeast": {
          "lat": 52.2100365,
          "lng": -6.5840117
        },
        "southwest": {
          "lat": 52.19557409999999,
          "lng": -6.6112958
        }
      }
    },
    "place_id": "ChIJb2VPJ0-gQkgRMiO7GajHACY",
    "types": [
      "neighborhood",
      "political"
    ]
  },
  {
    "area_id": 1049,
    "area_name": "Killanne",
    "county_name": "Wexford",
    "county_id": 13,
    "address_components": [
      {
        "long_name": "Killann",
        "short_name": "Killann",
        "types": [
          "locality",
          "political"
        ]
      },
      {
        "long_name": "Killann",
        "short_name": "Killann",
        "types": [
          "neighborhood",
          "political"
        ]
      },
      {
        "long_name": "County Wexford",
        "short_name": "WX",
        "types": [
          "administrative_area_level_1",
          "political"
        ]
      },
      {
        "long_name": "Ireland",
        "short_name": "IE",
        "types": [
          "country",
          "political"
        ]
      }
    ],
    "formatted_address": "Killann, Co. Wexford, Ireland",
    "geometry": {
      "location": {
        "lat": 52.52337310000001,
        "lng": -6.7430512
      },
      "location_type": "APPROXIMATE",
      "viewport": {
        "northeast": {
          "lat": 52.52472208029151,
          "lng": -6.741702219708498
        },
        "southwest": {
          "lat": 52.52202411970851,
          "lng": -6.744400180291502
        }
      }
    },
    "place_id": "ChIJvdRdcFhTXUgRQAkyl6nHAAo",
    "types": [
      "locality",
      "political"
    ]
  },
  {
    "area_id": 1064,
    "area_name": "Raheen",
    "county_name": "Wexford",
    "county_id": 13,
    "address_components": [
      {
        "long_name": "Raheen",
        "short_name": "Raheen",
        "types": [
          "locality",
          "political"
        ]
      },
      {
        "long_name": "Raheenarostia",
        "short_name": "Raheenarostia",
        "types": [
          "neighborhood",
          "political"
        ]
      },
      {
        "long_name": "County Wexford",
        "short_name": "WX",
        "types": [
          "administrative_area_level_1",
          "political"
        ]
      },
      {
        "long_name": "Ireland",
        "short_name": "IE",
        "types": [
          "country",
          "political"
        ]
      }
    ],
    "formatted_address": "Raheenarostia, Raheen, Co. Wexford, Ireland",
    "geometry": {
      "location": {
        "lat": 52.3920435,
        "lng": -6.7948113
      },
      "location_type": "APPROXIMATE",
      "viewport": {
        "northeast": {
          "lat": 52.3933924802915,
          "lng": -6.793462319708498
        },
        "southwest": {
          "lat": 52.3906945197085,
          "lng": -6.796160280291502
        }
      }
    },
    "place_id": "ChIJ06f8RDiuQkgRDaoHdY4OwIU",
    "types": [
      "locality",
      "political"
    ]
  },
  {
    "area_id": 715,
    "area_name": "Mayglass",
    "county_name": "Wexford",
    "county_id": 13,
    "address_components": [
      {
        "long_name": "Mayglass",
        "short_name": "Mayglass",
        "types": [
          "locality",
          "political"
        ]
      },
      {
        "long_name": "Courtlands East",
        "short_name": "Courtlands East",
        "types": [
          "neighborhood",
          "political"
        ]
      },
      {
        "long_name": "County Wexford",
        "short_name": "WX",
        "types": [
          "administrative_area_level_1",
          "political"
        ]
      },
      {
        "long_name": "Ireland",
        "short_name": "IE",
        "types": [
          "country",
          "political"
        ]
      }
    ],
    "formatted_address": "Courtlands East, Mayglass, Co. Wexford, Ireland",
    "geometry": {
      "location": {
        "lat": 52.2446,
        "lng": -6.51249
      },
      "location_type": "APPROXIMATE",
      "viewport": {
        "northeast": {
          "lat": 52.24594898029149,
          "lng": -6.511141019708497
        },
        "southwest": {
          "lat": 52.2432510197085,
          "lng": -6.513838980291502
        }
      }
    },
    "place_id": "ChIJFQzKoV8eaEgR8Rq7GajHACY",
    "types": [
      "locality",
      "political"
    ]
  },
  {
    "area_id": 1103,
    "area_name": "Ballylucas",
    "county_name": "Wexford",
    "county_id": 13,
    "address_components": [
      {
        "long_name": "Ballylucas",
        "short_name": "Ballylucas",
        "types": [
          "neighborhood",
          "political"
        ]
      },
      {
        "long_name": "County Wexford",
        "short_name": "WX",
        "types": [
          "administrative_area_level_1",
          "political"
        ]
      },
      {
        "long_name": "Ireland",
        "short_name": "IE",
        "types": [
          "country",
          "political"
        ]
      }
    ],
    "formatted_address": "Ballylucas, Co. Wexford, Ireland",
    "geometry": {
      "bounds": {
        "northeast": {
          "lat": 52.4418144,
          "lng": -6.4377068
        },
        "southwest": {
          "lat": 52.4314691,
          "lng": -6.4616416
        }
      },
      "location": {
        "lat": 52.436459,
        "lng": -6.448876900000001
      },
      "location_type": "APPROXIMATE",
      "viewport": {
        "northeast": {
          "lat": 52.4418144,
          "lng": -6.4377068
        },
        "southwest": {
          "lat": 52.4314691,
          "lng": -6.4616416
        }
      }
    },
    "place_id": "ChIJYWUogywEaEgRAvG6GajHACY",
    "types": [
      "neighborhood",
      "political"
    ]
  },
  {
    "area_id": 3780,
    "area_name": "Ferrybank",
    "county_name": "Wexford",
    "county_id": 13,
    "address_components": [
      {
        "long_name": "Ferrybank",
        "short_name": "Ferrybank",
        "types": [
          "locality",
          "political"
        ]
      },
      {
        "long_name": "Ferrybank North",
        "short_name": "Ferrybank North",
        "types": [
          "neighborhood",
          "political"
        ]
      },
      {
        "long_name": "County Wexford",
        "short_name": "WX",
        "types": [
          "administrative_area_level_1",
          "political"
        ]
      },
      {
        "long_name": "Ireland",
        "short_name": "IE",
        "types": [
          "country",
          "political"
        ]
      }
    ],
    "formatted_address": "Ferrybank North, Ferrybank, Co. Wexford, Ireland",
    "geometry": {
      "location": {
        "lat": 52.3482,
        "lng": -6.456099999999999
      },
      "location_type": "APPROXIMATE",
      "viewport": {
        "northeast": {
          "lat": 52.3495489802915,
          "lng": -6.454751019708497
        },
        "southwest": {
          "lat": 52.3468510197085,
          "lng": -6.457448980291502
        }
      }
    },
    "place_id": "ChIJ1SsgqUkbaEgRFzmrnBQSeNQ",
    "types": [
      "locality",
      "political"
    ]
  },
  {
    "area_id": 3771,
    "area_name": "Newbawn",
    "county_name": "Wexford",
    "county_id": 13,
    "address_components": [
      {
        "long_name": "Newbawn",
        "short_name": "Newbawn",
        "types": [
          "locality",
          "political"
        ]
      },
      {
        "long_name": "Newbawn",
        "short_name": "Newbawn",
        "types": [
          "neighborhood",
          "political"
        ]
      },
      {
        "long_name": "County Wexford",
        "short_name": "WX",
        "types": [
          "administrative_area_level_1",
          "political"
        ]
      },
      {
        "long_name": "Ireland",
        "short_name": "IE",
        "types": [
          "country",
          "political"
        ]
      }
    ],
    "formatted_address": "Newbawn, Co. Wexford, Ireland",
    "geometry": {
      "location": {
        "lat": 52.3428304,
        "lng": -6.7912642
      },
      "location_type": "APPROXIMATE",
      "viewport": {
        "northeast": {
          "lat": 52.3441793802915,
          "lng": -6.789915219708497
        },
        "southwest": {
          "lat": 52.3414814197085,
          "lng": -6.792613180291502
        }
      }
    },
    "place_id": "ChIJV76gvvmvQkgRcg67GajHACY",
    "types": [
      "locality",
      "political"
    ]
  },
  {
    "area_id": 1789,
    "area_name": "Graigue More",
    "county_name": "Wexford",
    "county_id": 13,
    "address_components": [
      {
        "long_name": "Graigue More",
        "short_name": "Graigue More",
        "types": [
          "neighborhood",
          "political"
        ]
      },
      {
        "long_name": "County Wexford",
        "short_name": "WX",
        "types": [
          "administrative_area_level_1",
          "political"
        ]
      },
      {
        "long_name": "Ireland",
        "short_name": "IE",
        "types": [
          "country",
          "political"
        ]
      }
    ],
    "formatted_address": "Graigue More, Co. Wexford, Ireland",
    "geometry": {
      "bounds": {
        "northeast": {
          "lat": 52.6745481,
          "lng": -6.5887931
        },
        "southwest": {
          "lat": 52.6535108,
          "lng": -6.6194351
        }
      },
      "location": {
        "lat": 52.6653751,
        "lng": -6.6017524
      },
      "location_type": "APPROXIMATE",
      "viewport": {
        "northeast": {
          "lat": 52.6745481,
          "lng": -6.5887931
        },
        "southwest": {
          "lat": 52.6535108,
          "lng": -6.6194351
        }
      }
    },
    "place_id": "ChIJPeRIrrb5Z0gRf7V2pOsYMVU",
    "types": [
      "neighborhood",
      "political"
    ]
  },
  {
    "area_id": 3688,
    "area_name": "Murrintown",
    "county_name": "Wexford",
    "county_id": 13,
    "address_components": [
      {
        "long_name": "Murntown",
        "short_name": "Murntown",
        "types": [
          "locality",
          "political"
        ]
      },
      {
        "long_name": "Twentyacres",
        "short_name": "Twentyacres",
        "types": [
          "neighborhood",
          "political"
        ]
      },
      {
        "long_name": "County Wexford",
        "short_name": "WX",
        "types": [
          "administrative_area_level_1",
          "political"
        ]
      },
      {
        "long_name": "Ireland",
        "short_name": "IE",
        "types": [
          "country",
          "political"
        ]
      }
    ],
    "formatted_address": "Twentyacres, Murntown, Co. Wexford, Ireland",
    "geometry": {
      "location": {
        "lat": 52.28724,
        "lng": -6.5222437
      },
      "location_type": "APPROXIMATE",
      "viewport": {
        "northeast": {
          "lat": 52.28858898029151,
          "lng": -6.520894719708497
        },
        "southwest": {
          "lat": 52.28589101970851,
          "lng": -6.523592680291502
        }
      }
    },
    "place_id": "ChIJzWaADModaEgRcBYyl6nHAAo",
    "types": [
      "locality",
      "political"
    ]
  },
  {
    "area_id": 1862,
    "area_name": "Gorey",
    "county_name": "Wexford",
    "county_id": 13,
    "address_components": [
      {
        "long_name": "Gorey",
        "short_name": "Gorey",
        "types": [
          "locality",
          "political"
        ]
      },
      {
        "long_name": "Gorey corporation lands",
        "short_name": "Gorey corporation lands",
        "types": [
          "neighborhood",
          "political"
        ]
      },
      {
        "long_name": "County Wexford",
        "short_name": "WX",
        "types": [
          "administrative_area_level_1",
          "political"
        ]
      },
      {
        "long_name": "Ireland",
        "short_name": "IE",
        "types": [
          "country",
          "political"
        ]
      }
    ],
    "formatted_address": "Gorey corporation lands, Gorey, Co. Wexford, Ireland",
    "geometry": {
      "location": {
        "lat": 52.67573549999999,
        "lng": -6.2943022
      },
      "location_type": "APPROXIMATE",
      "viewport": {
        "northeast": {
          "lat": 52.67708448029149,
          "lng": -6.292953219708498
        },
        "southwest": {
          "lat": 52.6743865197085,
          "lng": -6.295651180291502
        }
      }
    },
    "place_id": "ChIJZfqVwE_mZ0gRAAYyl6nHAAo",
    "types": [
      "locality",
      "political"
    ]
  },
  {
    "area_id": 1062,
    "area_name": "Palace",
    "county_name": "Wexford",
    "county_id": 13,
    "address_components": [
      {
        "long_name": "Wexford",
        "short_name": "Wexford",
        "types": [
          "locality",
          "political"
        ]
      },
      {
        "long_name": "County Wexford",
        "short_name": "WX",
        "types": [
          "administrative_area_level_1",
          "political"
        ]
      },
      {
        "long_name": "Ireland",
        "short_name": "IE",
        "types": [
          "country",
          "political"
        ]
      }
    ],
    "formatted_address": "Wexford, Ireland",
    "geometry": {
      "bounds": {
        "northeast": {
          "lat": 52.3470099,
          "lng": -6.4464301
        },
        "southwest": {
          "lat": 52.32044,
          "lng": -6.49995
        }
      },
      "location": {
        "lat": 52.336916,
        "lng": -6.4633381
      },
      "location_type": "APPROXIMATE",
      "viewport": {
        "northeast": {
          "lat": 52.3470099,
          "lng": -6.4464301
        },
        "southwest": {
          "lat": 52.32044,
          "lng": -6.49995
        }
      }
    },
    "partial_match": true,
    "place_id": "ChIJb0o5tGEbaEgRgHIxl6nHAAo",
    "types": [
      "locality",
      "political"
    ]
  },
  {
    "area_id": 1092,
    "area_name": "Killurin",
    "county_name": "Wexford",
    "county_id": 13,
    "address_components": [
      {
        "long_name": "Killurin",
        "short_name": "Killurin",
        "types": [
          "locality",
          "political"
        ]
      },
      {
        "long_name": "Killurin",
        "short_name": "Killurin",
        "types": [
          "neighborhood",
          "political"
        ]
      },
      {
        "long_name": "County Offaly",
        "short_name": "OY",
        "types": [
          "administrative_area_level_1",
          "political"
        ]
      },
      {
        "long_name": "Ireland",
        "short_name": "IE",
        "types": [
          "country",
          "political"
        ]
      }
    ],
    "formatted_address": "Killurin, Co. Offaly, Ireland",
    "geometry": {
      "location": {
        "lat": 53.2173433,
        "lng": -7.5509127
      },
      "location_type": "APPROXIMATE",
      "viewport": {
        "northeast": {
          "lat": 53.21869228029151,
          "lng": -7.549563719708497
        },
        "southwest": {
          "lat": 53.21599431970851,
          "lng": -7.552261680291502
        }
      }
    },
    "place_id": "ChIJIYp98yKpXUgRUAoyl6nHAAo",
    "types": [
      "locality",
      "political"
    ]
  },
  {
    "area_id": 3900,
    "area_name": "Mulgannon",
    "county_name": "Wexford",
    "county_id": 13,
    "address_components": [
      {
        "long_name": "Mulgannon",
        "short_name": "Mulgannon",
        "types": [
          "neighborhood",
          "political"
        ]
      },
      {
        "long_name": "County Wexford",
        "short_name": "WX",
        "types": [
          "administrative_area_level_1",
          "political"
        ]
      },
      {
        "long_name": "Ireland",
        "short_name": "IE",
        "types": [
          "country",
          "political"
        ]
      }
    ],
    "formatted_address": "Mulgannon, Co. Wexford, Ireland",
    "geometry": {
      "bounds": {
        "northeast": {
          "lat": 52.3260686,
          "lng": -6.457650000000001
        },
        "southwest": {
          "lat": 52.3173983,
          "lng": -6.470777300000001
        }
      },
      "location": {
        "lat": 52.321832,
        "lng": -6.4658557
      },