[
  {
    "area_id": 1767,
    "area_name": "Aghavannagh",
    "county_name": "Wicklow",
    "county_id": 4,
    "address_components": [
      {
        "long_name": "Aghavannagh",
        "short_name": "Aghavannagh",
        "types": [
          "locality",
          "political"
        ]
      },
      {
        "long_name": "Farbreaga",
        "short_name": "Farbreaga",
        "types": [
          "neighborhood",
          "political"
        ]
      },
      {
        "long_name": "County Wicklow",
        "short_name": "WW",
        "types": [
          "administrative_area_level_1",
          "political"
        ]
      },
      {
        "long_name": "Ireland",
        "short_name": "IE",
        "types": [
          "country",
          "political"
        ]
      }
    ],
    "formatted_address": "Farbreaga, Aghavannagh, Co. Wicklow, Ireland",
    "geometry": {
      "location": {
        "lat": 52.91482,
        "lng": -6.42836
      },
      "location_type": "APPROXIMATE",
      "viewport": {
        "northeast": {
          "lat": 52.91616898029149,
          "lng": -6.427011019708497
        },
        "southwest": {
          "lat": 52.9134710197085,
          "lng": -6.429708980291502
        }
      }
    },
    "place_id": "ChIJq836mAeTZ0gRUgZVu6fHACY",
    "types": [
      "locality",
      "political"
    ]
  },
  {
    "area_id": 1762,
    "area_name": "Askanagap",
    "county_name": "Wicklow",
    "county_id": 4,
    "address_components": [
      {
        "long_name": "Askanagap",
        "short_name": "Askanagap",
        "types": [
          "locality",
          "political"
        ]
      },
      {
        "long_name": "Coolballintaggart",
        "short_name": "Coolballintaggart",
        "types": [
          "neighborhood",
          "political"
        ]
      },
      {
        "long_name": "County Wicklow",
        "short_name": "WW",
        "types": [
          "administrative_area_level_1",
          "political"
        ]
      },
      {
        "long_name": "Ireland",
        "short_name": "IE",
        "types": [
          "country",
          "political"
        ]
      }
    ],
    "formatted_address": "Coolballintaggart, Askanagap, Co. Wicklow, Ireland",
    "geometry": {
      "location": {
        "lat": 52.8722119,
        "lng": -6.4104982
      },
      "location_type": "APPROXIMATE",
      "viewport": {
        "northeast": {
          "lat": 52.87356088029149,
          "lng": -6.409149219708498
        },
        "southwest": {
          "lat": 52.87086291970849,
          "lng": -6.411847180291502
        }
      }
    },
    "place_id": "ChIJLV7jpsrsZ0gRpZDgQubGBug",
    "types": [
      "locality",
      "political"
    ]
  },
  {
    "area_id": 1736,
    "area_name": "Rathdangan",
    "county_name": "Wicklow",
    "county_id": 4,
    "address_components": [
      {
        "long_name": "Rathdangan",
        "short_name": "Rathdangan",
        "types": [
          "locality",
          "political"
        ]
      },
      {
        "long_name": "Rathdangan",
        "short_name": "Rathdangan",
        "types": [
          "neighborhood",
          "political"
        ]
      },
      {
        "long_name": "County Wicklow",
        "short_name": "WW",
        "types": [
          "administrative_area_level_1",
          "political"
        ]
      },
      {
        "long_name": "Ireland",
        "short_name": "IE",
        "types": [
          "country",
          "political"
        ]
      }
    ],
    "formatted_address": "Rathdangan, Co. Wicklow, Ireland",
    "geometry": {
      "location": {
        "lat": 52.9197876,
        "lng": -6.5459003
      },
      "location_type": "APPROXIMATE",
      "viewport": {
        "northeast": {
          "lat": 52.9211365802915,
          "lng": -6.544551319708497
        },
        "southwest": {
          "lat": 52.9184386197085,
          "lng": -6.547249280291502
        }
      }
    },
    "place_id": "ChIJP_0EK4-NZ0gR4IffN6nHABg",
    "types": [
      "locality",
      "political"
    ]
  },
  {
    "area_id": 2475,
    "area_name": "Ashford",
    "county_name": "Wicklow",
    "county_id": 4,
    "address_components": [
      {
        "long_name": "Ashford",
        "short_name": "Ashford",
        "types": [
          "locality",
          "political"
        ]
      },
      {
        "long_name": "Ashford",
        "short_name": "Ashford",
        "types": [
          "neighborhood",
          "political"
        ]
      },
      {
        "long_name": "County Wicklow",
        "short_name": "WW",
        "types": [
          "administrative_area_level_1",
          "political"
        ]
      },
      {
        "long_name": "Ireland",
        "short_name": "IE",
        "types": [
          "country",
          "political"
        ]
      }
    ],
    "formatted_address": "Ashford, Co. Wicklow, Ireland",
    "geometry": {
      "location": {
        "lat": 53.0107896,
        "lng": -6.108289000000001
      },
      "location_type": "APPROXIMATE",
      "viewport": {
        "northeast": {
          "lat": 53.01213858029149,
          "lng": -6.1069400197085
        },
        "southwest": {
          "lat": 53.00944061970849,
          "lng": -6.109637980291503
        }
      }
    },
    "place_id": "ChIJUw3OGFy6Z0gR8KUxl6nHAAo",
    "types": [
      "locality",
      "political"
    ]
  },
  {
    "area_id": 1833,
    "area_name": "Kilbride",
    "county_name": "Wicklow",
    "county_id": 4,
    "address_components": [
      {
        "long_name": "Kilbride",
        "short_name": "Kilbride",
        "types": [
          "locality",
          "political"
        ]
      },
      {
        "long_name": "Kilbride",
        "short_name": "Kilbride",
        "types": [
          "neighborhood",
          "political"
        ]
      },
      {
        "long_name": "County Wicklow",
        "short_name": "WW",
        "types": [
          "administrative_area_level_1",
          "political"
        ]
      },
      {
        "long_name": "Ireland",
        "short_name": "IE",
        "types": [
          "country",
          "political"
        ]
      }
    ],
    "formatted_address": "Kilbride, Co. Wicklow, Ireland",
    "geometry": {
      "location": {
        "lat": 53.1986734,
        "lng": -6.4669351
      },
      "location_type": "APPROXIMATE",
      "viewport": {
        "northeast": {
          "lat": 53.20002238029149,
          "lng": -6.465586119708497
        },
        "southwest": {
          "lat": 53.1973244197085,
          "lng": -6.468284080291502
        }
      }
    },
    "place_id": "ChIJn8bcigqeZ0gR8rJv6MB1nRM",
    "types": [
      "locality",
      "political"
    ]
  },
  {
    "area_id": 2460,
    "area_name": "Killough",
    "county_name": "Wicklow",
    "county_id": 4,
    "address_components": [
      {
        "long_name": "Killough",
        "short_name": "Killough",
        "types": [
          "locality",
          "political"
        ]
      },
      {
        "long_name": "Killough Lower",
        "short_name": "Killough Lower",
        "types": [
          "neighborhood",
          "political"
        ]
      },
      {
        "long_name": "County Wicklow",
        "short_name": "WW",
        "types": [
          "administrative_area_level_1",
          "political"
        ]
      },
      {
        "long_name": "Ireland",
        "short_name": "IE",
        "types": [
          "country",
          "political"
        ]
      }
    ],
    "formatted_address": "Killough Lower, Killough, Co. Wicklow, Ireland",
    "geometry": {
      "location": {
        "lat": 53.16067,
        "lng": -6.166170000000001
      },
      "location_type": "APPROXIMATE",
      "viewport": {
        "northeast": {
          "lat": 53.1620189802915,
          "lng": -6.1648210197085
        },
        "southwest": {
          "lat": 53.1593210197085,
          "lng": -6.167518980291503
        }
      }
    },
    "place_id": "ChIJ9enSY2GmZ0gRtQnjnpO1Rn4",
    "types": [
      "locality",
      "political"
    ]
  },
  {
    "area_id": 1835,
    "area_name": "Kilpoole",
    "county_name": "Wicklow",
    "county_id": 4,
    "address_components": [
      {
        "long_name": "Kilpoole",
        "short_name": "Kilpoole",
        "types": [
          "premise"
        ]
      },
      {
        "long_name": "Greenhill Road",
        "short_name": "Greenhill Road",
        "types": [
          "route"
        ]
      },
      {
        "long_name": "Corporation Lands",
        "short_name": "Corporation Lands",
        "types": [
          "neighborhood",
          "political"
        ]
      },
      {
        "long_name": "Wicklow",
        "short_name": "Wicklow",
        "types": [
          "locality",
          "political"
        ]
      },
      {
        "long_name": "County Wicklow",
        "short_name": "WW",
        "types": [
          "administrative_area_level_1",
          "political"
        ]
      },
      {
        "long_name": "Ireland",
        "short_name": "IE",
        "types": [
          "country",
          "political"
        ]
      }
    ],
    "formatted_address": "Kilpoole, Greenhill Road, Corporation Lands, Wicklow, Ireland",
    "geometry": {
      "location": {
        "lat": 52.97164739999999,
        "lng": -6.0334223
      },
      "location_type": "ROOFTOP",
      "viewport": {
        "northeast": {
          "lat": 52.97294068029149,
          "lng": -6.032030369708497
        },
        "southwest": {
          "lat": 52.9702427197085,
          "lng": -6.034728330291502
        }
      }
    },
    "place_id": "ChIJM7uDujG3Z0gR-pIuETrFeXI",
    "types": [
      "premise"
    ]
  },
  {
    "area_id": 2453,
    "area_name": "Lacken",
    "county_name": "Wicklow",
    "county_id": 4,
    "address_components": [
      {
        "long_name": "Lacken",
        "short_name": "Lacken",
        "types": [
          "neighborhood",
          "political"
        ]
      },
      {
        "long_name": "County Wicklow",
        "short_name": "WW",
        "types": [
          "administrative_area_level_1",
          "political"
        ]
      },
      {
        "long_name": "Ireland",
        "short_name": "IE",
        "types": [
          "country",
          "political"
        ]
      }
    ],
    "formatted_address": "Lacken, Co. Wicklow, Ireland",
    "geometry": {
      "bounds": {
        "northeast": {
          "lat": 53.1457821,
          "lng": -6.4737465
        },
        "southwest": {
          "lat": 53.1209289,
          "lng": -6.518685199999999
        }
      },
      "location": {
        "lat": 53.1401921,
        "lng": -6.4907238
      },
      "location_type": "APPROXIMATE",
      "viewport": {
        "northeast": {
          "lat": 53.1457821,
          "lng": -6.4737465
        },
        "southwest": {
          "lat": 53.1209289,
          "lng": -6.518685199999999
        }
      }
    },
    "place_id": "ChIJGxp0ZW6cZ0gR0vu6GajHACY",
    "types": [
      "neighborhood",
      "political"
    ]
  },
  {
    "area_id": 1821,
    "area_name": "Avoca",
    "county_name": "Wicklow",
    "county_id": 4,
    "address_components": [
      {
        "long_name": "Avoca",
        "short_name": "Avoca",
        "types": [
          "locality",
          "political"
        ]
      },
      {
        "long_name": "County Wicklow",
        "short_name": "WW",
        "types": [
          "administrative_area_level_1",
          "political"
        ]
      },
      {
        "long_name": "Ireland",
        "short_name": "IE",
        "types": [
          "country",
          "political"
        ]
      }
    ],
    "formatted_address": "Avoca, Co. Wicklow, Ireland",
    "geometry": {
      "bounds": {
        "northeast": {
          "lat": 52.8618083,
          "lng": -6.2085826
        },
        "southwest": {
          "lat": 52.8545203,
          "lng": -6.2185397
        }
      },
      "location": {
        "lat": 52.8586664,
        "lng": -6.2140891
      },
      "location_type": "APPROXIMATE",
      "viewport": {
        "northeast": {
          "lat": 52.8618083,
          "lng": -6.2085826
        },
        "southwest": {
          "lat": 52.8545203,
          "lng": -6.2185397
        }
      }
    },
    "place_id": "ChIJa69u4vbAZ0gRIMYxl6nHAAo",
    "types": [
      "locality",
      "political"
    ]
  },
  {
    "area_id": 1843,
    "area_name": "Arklow",
    "county_name": "Wicklow",
    "county_id": 4,
    "address_components": [
      {
        "long_name": "Arklow",
        "short_name": "Arklow",
        "types": [
          "locality",
          "political"
        ]
      },
      {
        "long_name": "County Wicklow",
        "short_name": "WW",
        "types": [
          "administrative_area_level_1",
          "political"
        ]
      },
      {
        "long_name": "Ireland",
        "short_name": "IE",
        "types": [
          "country",
          "political"
        ]
      }
    ],
    "formatted_address": "Arklow, Co. Wicklow, Ireland",
    "geometry": {
      "bounds": {
        "northeast": {
          "lat": 52.8105549,
          "lng": -6.1334053
        },
        "southwest": {
          "lat": 52.7795899,
          "lng": -6.18126
        }
      },
      "location": {
        "lat": 52.79769349999999,
        "lng": -6.1599293
      },
      "location_type": "APPROXIMATE",
      "viewport": {
        "northeast": {
          "lat": 52.8105549,
          "lng": -6.1334053
        },
        "southwest": {
          "lat": 52.7795899,
          "lng": -6.18126
        }
      }
    },
    "place_id": "ChIJjcXDVOTDZ0gRwNAxl6nHAAo",
    "types": [
      "locality",
      "political"
    ]
  },
  {
    "area_id": 2461,
    "area_name": "Kilmacanogue",
    "county_name": "Wicklow",
    "county_id": 4,
    "address_components": [
      {
        "long_name": "Kilmacanogue",
        "short_name": "Kilmacanogue",
        "types": [
          "locality",
          "political"
        ]
      },
      {
        "long_name": "Kilmacanoge North",
        "short_name": "Kilmacanoge North",
        "types": [
          "neighborhood",
          "political"
        ]
      },
      {
        "long_name": "County Wicklow",
        "short_name": "WW",
        "types": [
          "administrative_area_level_1",
          "political"
        ]
      },
      {
        "long_name": "Ireland",
        "short_name": "IE",
        "types": [
          "country",
          "political"
        ]
      }
    ],
    "formatted_address": "Kilmacanoge North, Kilmacanogue, Co. Wicklow, Ireland",
    "geometry": {
      "location": {
        "lat": 53.16901,
        "lng": -6.13946
      },
      "location_type": "APPROXIMATE",
      "viewport": {
        "northeast": {
          "lat": 53.1703589802915,
          "lng": -6.138111019708497
        },
        "southwest": {
          "lat": 53.1676610197085,
          "lng": -6.140808980291502
        }
      }
    },
    "place_id": "ChIJx2UeAhWmZ0gRgAoyl6nHAAo",
    "types": [
      "locality",
      "political"
    ]
  },
  {
    "area_id": 1672,
    "area_name": "Kilmurry",
    "county_name": "Wicklow",
    "county_id": 4,
    "address_components": [
      {
        "long_name": "Kilmurray",
        "short_name": "Kilmurray",
        "types": [
          "political",
          "sublocality",
          "sublocality_level_1"
        ]
      },
      {
        "long_name": "Old Downs Road",
        "short_name": "Old Downs Road",
        "types": [
          "locality",
          "political"
        ]
      },
      {
        "long_name": "County Wicklow",
        "short_name": "WW",
        "types": [
          "administrative_area_level_1",
          "political"
        ]
      },
      {
        "long_name": "Ireland",
        "short_name": "IE",
        "types": [
          "country",
          "political"
        ]
      }
    ],
    "formatted_address": "Kilmurray, Old Downs Road, Co. Wicklow, Ireland",
    "geometry": {
      "location": {
        "lat": 53.11856110000001,
        "lng": -6.131364800000001
      },
      "location_type": "APPROXIMATE",
      "viewport": {
        "northeast": {
          "lat": 53.11991008029151,
          "lng": -6.130015819708499
        },
        "southwest": {
          "lat": 53.11721211970851,
          "lng": -6.132713780291503
        }
      }
    },
    "place_id": "ChIJhUzrFJalZ0gRScHT-cO_GiA",
    "types": [
      "political",
      "sublocality",
      "sublocality_level_1"
    ]
  },
  {
    "area_id": 2463,
    "area_name": "Annamoe",
    "county_name": "Wicklow",
    "county_id": 4,
    "address_components": [
      {
        "long_name": "Annamoe",
        "short_name": "Annamoe",
        "types": [
          "locality",
          "political"
        ]
      },
      {
        "long_name": "Glebe",
        "short_name": "Glebe",
        "types": [
          "neighborhood",
          "political"
        ]
      },
      {
        "long_name": "County Wicklow",
        "short_name": "WW",
        "types": [
          "administrative_area_level_1",
          "political"
        ]
      },
      {
        "long_name": "Ireland",
        "short_name": "IE",
        "types": [
          "country",
          "political"
        ]
      }
    ],
    "formatted_address": "Glebe, Annamoe, Co. Wicklow, Ireland",
    "geometry": {
      "location": {
        "lat": 53.0315169,
        "lng": -6.2542182
      },
      "location_type": "APPROXIMATE",
      "viewport": {
        "northeast": {
          "lat": 53.0328658802915,
          "lng": -6.252869219708497
        },
        "southwest": {
          "lat": 53.0301679197085,
          "lng": -6.255567180291502
        }
      }
    },
    "place_id": "ChIJZzB8kB-9Z0gRQaW6GajHACY",
    "types": [
      "locality",
      "political"
    ]
  },
  {
    "area_id": 3941,
    "area_name": "Kilquade",
    "county_name": "Wicklow",
    "county_id": 4,
    "address_components": [
      {
        "long_name": "Kilquade",
        "short_name": "Kilquade",
        "types": [
          "neighborhood",
          "political"
        ]
      },
      {
        "long_name": "County Wicklow",
        "short_name": "WW",
        "types": [
          "administrative_area_level_1",
          "political"
        ]
      },
      {
        "long_name": "Ireland",
        "short_name": "IE",
        "types": [
          "country",
          "political"
        ]
      }
    ],
    "formatted_address": "Kilquade, Co. Wicklow, Ireland",
    "geometry": {
      "bounds": {
        "northeast": {
          "lat": 53.11262749999999,
          "lng": -6.0824222
        },
        "southwest": {
          "lat": 53.0997019,
          "lng": -6.0963349
        }
      },
      "location": {
        "lat": 53.1056566,
        "lng": -6.0887606
      },
      "location_type": "APPROXIMATE",
      "viewport": {
        "northeast": {
          "lat": 53.11262749999999,
          "lng": -6.0824222
        },
        "southwest": {
          "lat": 53.0997019,
          "lng": -6.0963349
        }
      }
    },
    "place_id": "ChIJ328whHivZ0gREFXfN6nHABg",
    "types": [
      "neighborhood",
      "political"
    ]
  },
  {
    "area_id": 2473,
    "area_name": "Newcastle",
    "county_name": "Wicklow",
    "county_id": 4,
    "address_components": [
      {
        "long_name": "Newcastle",
        "short_name": "Newcastle",
        "types": [
          "locality",
          "political"
        ]
      },
      {
        "long_name": "Leamore Upper",
        "short_name": "Leamore Upper",
        "types": [
          "neighborhood",
          "political"
        ]
      },
      {
        "long_name": "County Wicklow",
        "short_name": "WW",
        "types": [
          "administrative_area_level_1",
          "political"
        ]
      },
      {
        "long_name": "Ireland",
        "short_name": "IE",
        "types": [
          "country",
          "political"
        ]
      }
    ],
    "formatted_address": "Leamore Upper, Newcastle, Co. Wicklow, Ireland",
    "geometry": {
      "location": {
        "lat": 53.07335519999999,
        "lng": -6.057185
      },
      "location_type": "APPROXIMATE",
      "viewport": {
        "northeast": {
          "lat": 53.07470418029149,
          "lng": -6.055836019708497
        },
        "southwest": {
          "lat": 53.07200621970849,
          "lng": -6.058533980291502
        }
      }
    },
    "place_id": "ChIJFwU0GdqvZ0gRUIIxl6nHAAo",
    "types": [
      "locality",
      "political"
    ]
  },
  {
    "area_id": 1840,
    "area_name": "Ardanairy",
    "county_name": "Wicklow",
    "county_id": 4,
    "address_components": [
      {
        "long_name": "Ardanairy",
        "short_name": "Ardanairy",
        "types": [
          "neighborhood",
          "political"
        ]
      },
      {
        "long_name": "Ocean View",
        "short_name": "Ocean View",
        "types": [
          "political",
          "sublocality",
          "sublocality_level_1"
        ]
      },
      {
        "long_name": "County Wicklow",
        "short_name": "WW",
        "types": [
          "administrative_area_level_1",
          "political"
        ]
      },
      {
        "long_name": "Ireland",
        "short_name": "IE",
        "types": [
          "country",
          "political"
        ]
      }
    ],
    "formatted_address": "Ardanairy, Ocean View, Co. Wicklow, Ireland",
    "geometry": {
      "bounds": {
        "northeast": {
          "lat": 52.8699296,
          "lng": -6.0568672
        },
        "southwest": {
          "lat": 52.8513299,
          "lng": -6.0861094
        }
      },
      "location": {
        "lat": 52.8626307,
        "lng": -6.0747528
      },
      "location_type": "APPROXIMATE",
      "viewport": {
        "northeast": {
          "lat": 52.8699296,
          "lng": -6.0568672
        },
        "southwest": {
          "lat": 52.8513299,
          "lng": -6.0861094
        }
      }
    },
    "place_id": "ChIJWbnDrMfHZ0gRSCWHeD_Ebsw",
    "types": [
      "neighborhood",
      "political"
    ]
  },
  {
    "area_id": 1739,
    "area_name": "Kiltegan",
    "county_name": "Wicklow",
    "county_id": 4,
    "address_components": [
      {
        "long_name": "Kiltegan",
        "short_name": "Kiltegan",
        "types": [
          "locality",
          "political"
        ]
      },
      {
        "long_name": "Kiltegan",
        "short_name": "Kiltegan",
        "types": [
          "neighborhood",
          "political"
        ]
      },
      {
        "long_name": "County Wicklow",
        "short_name": "WW",
        "types": [
          "administrative_area_level_1",
          "political"
        ]
      },
      {
        "long_name": "Ireland",
        "short_name": "IE",
        "types": [
          "country",
          "political"
        ]
      }
    ],
    "formatted_address": "Kiltegan, Co. Wicklow, Ireland",
    "geometry": {
      "location": {
        "lat": 52.9040404,
        "lng": -6.6055961
      },
      "location_type": "APPROXIMATE",
      "viewport": {
        "northeast": {
          "lat": 52.9053893802915,
          "lng": -6.604247119708497
        },
        "southwest": {
          "lat": 52.9026914197085,
          "lng": -6.606945080291502
        }
      }
    },
    "place_id": "ChIJ3zEWjX2MZ0gRAIYxl6nHAAo",
    "types": [
      "locality",
      "political"
    ]
  },
  {
    "area_id": 1775,
    "area_name": "Aghowle",
    "county_name": "Wicklow",
    "county_id": 4,
    "address_components": [
      {
        "long_name": "Aghowle",
        "short_name": "Aghowle",
        "types": [
          "route"
        ]
      },
      {
        "long_name": "County Wicklow",
        "short_name": "WW",
        "types": [
          "administrative_area_level_1",
          "political"
        ]
      },
      {
        "long_name": "Ireland",
        "short_name": "IE",
        "types": [
          "country",
          "political"
        ]
      }
    ],
    "formatted_address": "Aghowle, Co. Wicklow, Ireland",
    "geometry": {
      "bounds": {
        "northeast": {
          "lat": 52.7779715,
          "lng": -6.6053416
        },
        "southwest": {
          "lat": 52.7433073,
          "lng": -6.6369755
        }
      },
      "location": {
        "lat": 52.7607702,
        "lng": -6.6185503
      },
      "location_type": "GEOMETRIC_CENTER",
      "viewport": {
        "northeast": {
          "lat": 52.7779715,
          "lng": -6.6053416
        },
        "southwest": {
          "lat": 52.7433073,
          "lng": -6.6369755
        }
      }
    },
    "place_id": "ChIJdXEOH472Z0gRJFZe6nvM5GE",
    "types": [
      "route"
    ]
  },
  {
    "area_id": 3908,
    "area_name": "Knockrobin",
    "county_name": "Wicklow",
    "county_id": 4,
    "address_components": [
      {
        "long_name": "Knockrobin",
        "short_name": "Knockrobin",
        "types": [
          "neighborhood",
          "political"
        ]
      },
      {
        "long_name": "County Wicklow",
        "short_name": "WW",
        "types": [
          "administrative_area_level_1",
          "political"
        ]
      },
      {
        "long_name": "Ireland",
        "short_name": "IE",
        "types": [
          "country",
          "political"
        ]
      }
    ],
    "formatted_address": "Knockrobin, Co. Wicklow, Ireland",
    "geometry": {
      "bounds": {
        "northeast": {
          "lat": 52.9977064,
          "lng": -6.0567018
        },
        "southwest": {
          "lat": 52.9915388,
          "lng": -6.0729476
        }
      },
      "location": {
        "lat": 52.9944098,
        "lng": -6.0638445
      },
      "location_type": "APPROXIMATE",
      "viewport": {
        "northeast": {
          "lat": 52.9977064,
          "lng": -6.0567018
        },
        "southwest": {
          "lat": 52.9915388,
          "lng": -6.0729476
        }
      }
    },
    "place_id": "ChIJIdXX5aSwZ0gRUv27GajHACY",
    "types": [
      "neighborhood",
      "political"
    ]
  },
  {
    "area_id": 1825,
    "area_name": "Kilmacurragh",
    "county_name": "Wicklow",
    "county_id": 4,
    "address_components": [
      {
        "long_name": "Kilmacurragh",
        "short_name": "Kilmacurragh",
        "types": [
          "locality",
          "political"
        ]
      },
      {
        "long_name": "Tullylusk",
        "short_name": "Tullylusk",
        "types": [
          "neighborhood",
          "political"
        ]
      },
      {
        "long_name": "County Wicklow",
        "short_name": "WW",
        "types": [
          "administrative_area_level_1",
          "political"
        ]
      },
      {
        "long_name": "Ireland",
        "short_name": "IE",
        "types": [
          "country",
          "political"
        ]
      }
    ],
    "formatted_address": "Tullylusk, Kilmacurragh, Co. Wicklow, Ireland",
    "geometry": {
      "location": {
        "lat": 52.92977,
        "lng": -6.18281
      },
      "location_type": "APPROXIMATE",
      "viewport": {
        "northeast": {
          "lat": 52.93111898029149,
          "lng": -6.181461019708498
        },
        "southwest": {
          "lat": 52.92842101970849,
          "lng": -6.184158980291502
        }
      }
    },
    "place_id": "ChIJazj-QNa-Z0gReNFCOkPA30Q",
    "types": [
      "locality",
      "political"
    ]
  },
  {
    "area_id": 1823,
    "area_name": "Kilmacoo",
    "county_name": "Wicklow",
    "county_id": 4,
    "address_components": [
      {
        "long_name": "Kilmacoo",
        "short_name": "Kilmacoo",
        "types": [
          "neighborhood",
          "political"
        ]
      },
      {
        "long_name": "County Wicklow",
        "short_name": "WW",
        "types": [
          "administrative_area_level_1",
          "political"
        ]
      },
      {
        "long_name": "Ireland",
        "short_name": "IE",
        "types": [
          "country",
          "political"
        ]
      }
    ],
    "formatted_address": "Kilmacoo, Co. Wicklow, Ireland",
    "geometry": {
      "bounds": {
        "northeast": {
          "lat": 52.9024569,
          "lng": -6.177682799999999
        },
        "southwest": {
          "lat": 52.8893305,
          "lng": -6.2006507
        }
      },
      "location": {
        "lat": 52.89522789999999,
        "lng": -6.1872881
      },
      "location_type": "APPROXIMATE",
      "viewport": {
        "northeast": {
          "lat": 52.9024569,
          "lng": -6.177682799999999
        },
        "southwest": {
          "lat": 52.8893305,
          "lng": -6.2006507
        }
      }
    },
    "place_id": "ChIJWXSfzVy_Z0gRCfxpaynkiAM",
    "types": [
      "neighborhood",
      "political"
    ]
  },
  {
    "area_id": 2470,
    "area_name": "Kilpedder",
    "county_name": "Wicklow",
    "county_id": 4,
    "address_components": [
      {
        "long_name": "Kilpedder",
        "short_name": "Kilpedder",
        "types": [
          "locality",
          "political"
        ]
      },
      {
        "long_name": "Kilpedder West",
        "short_name": "Kilpedder West",
        "types": [
          "neighborhood",
          "political"
        ]
      },
      {
        "long_name": "County Wicklow",
        "short_name": "WW",
        "types": [
          "administrative_area_level_1",
          "political"
        ]
      },
      {
        "long_name": "Ireland",
        "short_name": "IE",
        "types": [
          "country",
          "political"
        ]
      }
    ],
    "formatted_address": "Kilpedder West, Kilpedder, Co. Wicklow, Ireland",
    "geometry": {
      "location": {
        "lat": 53.11037349999999,
        "lng": -6.1055471
      },
      "location_type": "APPROXIMATE",
      "viewport": {
        "northeast": {
          "lat": 53.11172248029149,
          "lng": -6.104198119708498
        },
        "southwest": {
          "lat": 53.10902451970849,
          "lng": -6.106896080291502
        }
      }
    },
    "place_id": "ChIJP36t1IalZ0gRUAsyl6nHAAo",
    "types": [
      "locality",
      "political"
    ]
  },
  {
    "area_id": 1745,
    "area_name": "Knockananna",
    "county_name": "Wicklow",
    "county_id": 4,
    "address_components": [
      {
        "long_name": "Knockananna",
        "short_name": "Knockananna",
        "types": [
          "locality",
          "political"
        ]
      },
      {
        "long_name": "Ballinasilloge",
        "short_name": "Ballinasilloge",
        "types": [
          "neighborhood",
          "political"
        ]
      },
      {
        "long_name": "County Wicklow",
        "short_name": "WW",
        "types": [
          "administrative_area_level_1",
          "political"
        ]
      },
      {
        "long_name": "Ireland",
        "short_name": "IE",
        "types": [
          "country",
          "political"
        ]
      }
    ],
    "formatted_address": "Ballinasilloge, Knockananna, Co. Wicklow, Ireland",
    "geometry": {
      "location": {
        "lat": 52.87287190000001,
        "lng": -6.4970477
      },
      "location_type": "APPROXIMATE",
      "viewport": {
        "northeast": {
          "lat": 52.87422088029151,
          "lng": -6.495698719708497
        },
        "southwest": {
          "lat": 52.87152291970851,
          "lng": -6.498396680291502
        }
      }
    },
    "place_id": "ChIJCe1NxVWNZ0gRgAwyl6nHAAo",
    "types": [
      "locality",
      "political"
    ]
  },
  {
    "area_id": 2476,
    "area_name": "Ballinalea",
    "county_name": "Wicklow",
    "county_id": 4,
    "address_components": [
      {
        "long_name": "Ballinalea",
        "short_name": "Ballinalea",
        "types": [
          "neighborhood",
          "political"
        ]
      },
      {
        "long_name": "County Wicklow",
        "short_name": "WW",
        "types": [
          "administrative_area_level_1",
          "political"
        ]
      },
      {
        "long_name": "Ireland",
        "short_name": "IE",
        "types": [
          "country",
          "political"
        ]
      }
    ],
    "formatted_address": "Ballinalea, Co. Wicklow, Ireland",
    "geometry": {
      "bounds": {
        "northeast": {
          "lat": 53.0072109,
          "lng": -6.1044296
        },
        "southwest": {
          "lat": 52.9970696,
          "lng": -6.1196842
        }
      },
      "location": {
        "lat": 53.003311,
        "lng": -6.1098824
      },
      "location_type": "APPROXIMATE",
      "viewport": {
        "northeast": {
          "lat": 53.0072109,
          "lng": -6.1044296
        },
        "southwest": {
          "lat": 52.9970696,
          "lng": -6.1196842
        }
      }
    },
    "place_id": "ChIJW8HiiUK6Z0gRwHoxl6nHAAo",
    "types": [
      "neighborhood",
      "political"
    ]
  },
  {
    "area_id": 1774,
    "area_name": "Kilquigguin",
    "county_name": "Wicklow",
    "county_id": 4,
    "address_components": [
      {
        "long_name": "Kilquiggin",
        "short_name": "Kilquiggin",
        "types": [
          "route"
        ]
      },
      {
        "long_name": "County Wicklow",
        "short_name": "WW",
        "types": [
          "administrative_area_level_1",
          "political"
        ]
      },
      {
        "long_name": "Ireland",
        "short_name": "IE",
        "types": [
          "country",
          "political"
        ]
      }
    ],
    "formatted_address": "Kilquiggin, Co. Wicklow, Ireland",
    "geometry": {
      "bounds": {
        "northeast": {
          "lat": 52.790216,
          "lng": -6.570067
        },
        "southwest": {
          "lat": 52.7781782,
          "lng": -6.5845232
        }
      },
      "location": {
        "lat": 52.783509,
        "lng": -6.5748245
      },
      "location_type": "GEOMETRIC_CENTER",
      "viewport": {
        "northeast": {
          "lat": 52.790216,
          "lng": -6.570067
        },
        "southwest": {
          "lat": 52.7781782,
          "lng": -6.5845232
        }
      }
    },
    "place_id": "ChIJ-1NRWvnzZ0gRC_l27HseZ54",
    "types": [
      "route"
    ]
  },
  {
    "area_id": 1836,
    "area_name": "Ballinacor",
    "county_name": "Wicklow",
    "county_id": 4,
    "address_components": [
      {
        "long_name": "Ballinacor",
        "short_name": "Ballinacor",
        "types": [
          "neighborhood",
          "political"
        ]
      },
      {
        "long_name": "County Wicklow",
        "short_name": "WW",
        "types": [
          "administrative_area_level_1",
          "political"
        ]
      },
      {
        "long_name": "Ireland",
        "short_name": "IE",
        "types": [
          "country",
          "political"
        ]
      }
    ],
    "formatted_address": "Ballinacor, Co. Wicklow, Ireland",
    "geometry": {
      "bounds": {
        "northeast": {
          "lat": 52.8106836,
          "lng": -6.455312699999999
        },
        "southwest": {
          "lat": 52.7971644,
          "lng": -6.4782703
        }
      },
      "location": {
        "lat": 52.8031395,
        "lng": -6.4678252
      },
      "location_type": "APPROXIMATE",
      "viewport": {
        "northeast": {
          "lat": 52.8106836,
          "lng": -6.455312699999999
        },
        "southwest": {
          "lat": 52.7971644,
          "lng": -6.4782703
        }
      }
    },
    "place_id": "ChIJ_SRm_O3tZ0gRUvVUu6fHACY",
    "types": [
      "neighborhood",
      "political"
    ]
  },
  {
    "area_id": 2465,
    "area_name": "Laragh",
    "county_name": "Wicklow",
    "county_id": 4,
    "address_components": [
      {
        "long_name": "Laragh",
        "short_name": "Laragh",
        "types": [
          "locality",
          "political"
        ]
      },
      {
        "long_name": "Ballard",
        "short_name": "Ballard",
        "types": [
          "neighborhood",
          "political"
        ]
      },
      {
        "long_name": "County Wicklow",
        "short_name": "WW",
        "types": [
          "administrative_area_level_1",
          "political"
        ]
      },
      {
        "long_name": "Ireland",
        "short_name": "IE",
        "types": [
          "country",
          "political"
        ]
      }
    ],
    "formatted_address": "Ballard, Laragh, Co. Wicklow, Ireland",
    "geometry": {
      "location": {
        "lat": 53.0089293,
        "lng": -6.3004389
      },
      "location_type": "APPROXIMATE",
      "viewport": {
        "northeast": {
          "lat": 53.0102782802915,
          "lng": -6.299089919708497
        },
        "southwest": {
          "lat": 53.0075803197085,
          "lng": -6.301787880291502
        }
      }
    },
    "place_id": "ChIJrQ4F1YG9Z0gR8M0xl6nHAAo",
    "types": [
      "locality",
      "political"
    ]
  },
  {
    "area_id": 1830,
    "area_name": "Rathnew",
    "county_name": "Wicklow",
    "county_id": 4,
    "address_components": [
      {
        "long_name": "Rathnew",
        "short_name": "Rathnew",
        "types": [
          "locality",
          "political"
        ]
      },
      {
        "long_name": "Commons",
        "short_name": "Commons",
        "types": [
          "neighborhood",
          "political"
        ]
      },
      {
        "long_name": "County Wicklow",
        "short_name": "WW",
        "types": [
          "administrative_area_level_1",
          "political"
        ]
      },
      {
        "long_name": "Ireland",
        "short_name": "IE",
        "types": [
          "country",
          "political"
        ]
      }
    ],
    "formatted_address": "Commons, Rathnew, Co. Wicklow, Ireland",
    "geometry": {
      "location": {
        "lat": 52.9946004,
        "lng": -6.082812
      },
      "location_type": "APPROXIMATE",
      "viewport": {
        "northeast": {
          "lat": 52.9959493802915,
          "lng": -6.081463019708497
        },
        "southwest": {
          "lat": 52.9932514197085,
          "lng": -6.084160980291502
        }
      }
    },
    "place_id": "ChIJm8yMOAy6Z0gRkIExl6nHAAo",
    "types": [
      "locality",
      "political"
    ]
  },
  {
    "area_id": 1832,
    "area_name": "Glenealy",
    "county_name": "Wicklow",
    "county_id": 4,
    "address_components": [
      {
        "long_name": "Glenealy",
        "short_name": "Glenealy",
        "types": [
          "locality",
          "political"
        ]
      },
      {
        "long_name": "Ballymanus Lower",
        "short_name": "Ballymanus Lower",
        "types": [
          "neighborhood",
          "political"
        ]
      },
      {
        "long_name": "County Wicklow",
        "short_name": "WW",
        "types": [
          "administrative_area_level_1",
          "political"
        ]
      },
      {
        "long_name": "Ireland",
        "short_name": "IE",
        "types": [
          "country",
          "political"
        ]
      }
    ],
    "formatted_address": "Ballymanus Lower, Glenealy, Co. Wicklow, Ireland",
    "geometry": {
      "location": {
        "lat": 52.9666341,
        "lng": -6.144572900000001
      },
      "location_type": "APPROXIMATE",
      "viewport": {
        "northeast": {
          "lat": 52.9679830802915,
          "lng": -6.143223919708499
        },
        "southwest": {
          "lat": 52.9652851197085,
          "lng": -6.145921880291503
        }
      }
    },
    "place_id": "ChIJI8wbWGa5Z0gRYKwxl6nHAAo",
    "types": [
      "locality",
      "political"
    ]
  },
  {
    "area_id": 4110,
    "area_name": "Athdown",
    "county_name": "Wicklow",
    "county_id": 4,
    "address_components": [
      {
        "long_name": "Athdown",
        "short_name": "Athdown",
        "types": [
          "neighborhood",
          "political"
        ]
      },
      {
        "long_name": "County Wicklow",
        "short_name": "WW",
        "types": [
          "administrative_area_level_1",
          "political"
        ]
      },
      {
        "long_name": "Ireland",
        "short_name": "IE",
        "types": [
          "country",
          "political"
        ]
      }
    ],
    "formatted_address": "Athdown, Co. Wicklow, Ireland",
    "geometry": {
      "bounds": {
        "northeast": {
          "lat": 53.1885151,
          "lng": -6.381247999999999
        },
        "southwest": {
          "lat": 53.1578897,
          "lng": -6.417454299999999
        }
      },
      "location": {
        "lat": 53.1768225,
        "lng": -6.3969078
      },
      "location_type": "APPROXIMATE",
      "viewport": {
        "northeast": {
          "lat": 53.1885151,
          "lng": -6.381247999999999
        },
        "southwest": {
          "lat": 53.1578897,
          "lng": -6.417454299999999
        }
      }
    },
    "place_id": "ChIJ-f84JPaeZ0gRMhNVu6fHACY",
    "types": [
      "neighborhood",
      "political"
    ]
  },
  {
    "area_id": 2448,
    "area_name": "Hollywood",
    "county_name": "Wicklow",
    "county_id": 4,
    "address_components": [
      {
        "long_name": "Hollywood",
        "short_name": "Hollywood",
        "types": [
          "locality",
          "political"
        ]
      },
      {
        "long_name": "Hollywood Upper",
        "short_name": "Hollywood Upper",
        "types": [
          "neighborhood",
          "political"
        ]
      },
      {
        "long_name": "County Wicklow",
        "short_name": "WW",
        "types": [
          "administrative_area_level_1",
          "political"
        ]
      },
      {
        "long_name": "Ireland",
        "short_name": "IE",
        "types": [
          "country",
          "political"
        ]
      }
    ],
    "formatted_address": "Hollywood Upper, Hollywood, Co. Wicklow, Ireland",
    "geometry": {
      "location": {
        "lat": 53.0918211,
        "lng": -6.599053
      },
      "location_type": "APPROXIMATE",
      "viewport": {
        "northeast": {
          "lat": 53.09317008029149,
          "lng": -6.597704019708497
        },
        "southwest": {
          "lat": 53.09047211970849,
          "lng": -6.600401980291502
        }
      }
    },
    "place_id": "ChIJfXT5KfeEZ0gRsAYyl6nHAAo",
    "types": [
      "locality",
      "political"
    ]
  },
  {
    "area_id": 1765,
    "area_name": "Drumgoft",
    "county_name": "Wicklow",
    "county_id": 4,
    "address_components": [
      {
        "long_name": "Drumgoft",
        "short_name": "Drumgoft",
        "types": [
          "locality",
          "political"
        ]
      },
      {
        "long_name": "Ballyboy",
        "short_name": "Ballyboy",
        "types": [
          "neighborhood",
          "political"
        ]
      },
      {
        "long_name": "County Wicklow",
        "short_name": "WW",
        "types": [
          "administrative_area_level_1",
          "political"
        ]
      },
      {
        "long_name": "Ireland",
        "short_name": "IE",
        "types": [
          "country",
          "political"
        ]
      }
    ],
    "formatted_address": "Ballyboy, Drumgoft, Co. Wicklow, Ireland",
    "geometry": {
      "location": {
        "lat": 52.95494,
        "lng": -6.35813
      },
      "location_type": "APPROXIMATE",
      "viewport": {
        "northeast": {
          "lat": 52.9562889802915,
          "lng": -6.356781019708498
        },
        "southwest": {
          "lat": 52.9535910197085,
          "lng": -6.359478980291502
        }
      }
    },
    "place_id": "ChIJ1ydzEy-UZ0gRg0VY9XV1FqU",
    "types": [
      "locality",
      "political"
    ]
  },
  {
    "area_id": 1806,
    "area_name": "Coolboy",
    "county_name": "Wicklow",
    "county_id": 4,
    "address_components": [
      {
        "long_name": "Coolboy",
        "short_name": "Coolboy",
        "types": [
          "locality",
          "political"
        ]
      },
      {
        "long_name": "Raheenglass",
        "short_name": "Raheenglass",
        "types": [
          "neighborhood",
          "political"
        ]
      },
      {
        "long_name": "County Wicklow",
        "short_name": "WW",
        "types": [
          "administrative_area_level_1",
          "political"
        ]
      },
      {
        "long_name": "Ireland",
        "short_name": "IE",
        "types": [
          "country",
          "political"
        ]
      }
    ],
    "formatted_address": "Raheenglass, Coolboy, Co. Wicklow, Ireland",
    "geometry": {
      "location": {
        "lat": 52.7620319,
        "lng": -6.462780299999999
      },
      "location_type": "APPROXIMATE",
      "viewport": {
        "northeast": {
          "lat": 52.76338088029149,
          "lng": -6.461431319708497
        },
        "southwest": {
          "lat": 52.7606829197085,
          "lng": -6.464129280291502
        }
      }
    },
    "place_id": "ChIJEUxVwCHuZ0gRkHgxl6nHAAo",
    "types": [
      "locality",
      "political"
    ]
  },
  {
    "area_id": 2455,
    "area_name": "Glendalough",
    "county_name": "Wicklow",
    "county_id": 4,
    "address_components": [
      {
        "long_name": "Glendalough",
        "short_name": "Glendalough",
        "types": [
          "locality",
          "political"
        ]
      },
      {
        "long_name": "Derrybawn",
        "short_name": "Derrybawn",
        "types": [
          "neighborhood",
          "political"
        ]
      },
      {
        "long_name": "County Wicklow",
        "short_name": "WW",
        "types": [
          "administrative_area_level_1",
          "political"
        ]
      },
      {
        "long_name": "Ireland",
        "short_name": "IE",
        "types": [
          "country",
          "political"
        ]
      }
    ],
    "formatted_address": "Derrybawn, Glendalough, Co. Wicklow, Ireland",
    "geometry": {
      "location": {
        "lat": 53.01197999999999,
        "lng": -6.32984
      },
      "location_type": "APPROXIMATE",
      "viewport": {
        "northeast": {
          "lat": 53.0133289802915,
          "lng": -6.328491019708498
        },
        "southwest": {
          "lat": 53.0106310197085,
          "lng": -6.331188980291502
        }
      }
    },
    "place_id": "ChIJe_Z5QtmXZ0gRoDbfN6nHABg",
    "types": [
      "locality",
      "political"
    ]
  },
  {
    "area_id": 3932,
    "area_name": "Ballyconnell",
    "county_name": "Wicklow",
    "county_id": 4,
    "address_components": [
      {
        "long_name": "Ballyconnell",
        "short_name": "Ballyconnell",
        "types": [
          "locality",
          "political"
        ]
      },
      {
        "long_name": "Ballyconnell",
        "short_name": "Ballyconnell",
        "types": [
          "neighborhood",
          "political"
        ]
      },
      {
        "long_name": "County Wicklow",
        "short_name": "WW",
        "types": [
          "administrative_area_level_1",
          "political"
        ]
      },
      {
        "long_name": "Ireland",
        "short_name": "IE",
        "types": [
          "country",
          "political"
        ]
      }
    ],
    "formatted_address": "Ballyconnell, Co. Wicklow, Ireland",
    "geometry": {
      "location": {
        "lat": 52.8130196,
        "lng": -6.6289793
      },
      "location_type": "APPROXIMATE",
      "viewport": {
        "northeast": {
          "lat": 52.81436858029151,
          "lng": -6.627630319708498
        },
        "southwest": {
          "lat": 52.81167061970851,
          "lng": -6.630328280291502
        }
      }
    },
    "place_id": "ChIJT5YZgln0Z0gR7UcrkwWQW7Q",
    "types": [
      "locality",
      "political"
    ]
  },
  {
    "area_id": 2449,
    "area_name": "Valleymount",
    "county_name": "Wicklow",
    "county_id": 4,
    "address_components": [
      {
        "long_name": "Valleymount",
        "short_name": "Valleymount",
        "types": [
          "locality",
          "political"
        ]
      },
      {
        "long_name": "Valleymount",
        "short_name": "Valleymount",
        "types": [
          "neighborhood",
          "political"
        ]
      },
      {
        "long_name": "County Wicklow",
        "short_name": "WW",
        "types": [
          "administrative_area_level_1",
          "political"
        ]
      },
      {
        "long_name": "Ireland",
        "short_name": "IE",
        "types": [
          "country",
          "political"
        ]
      }
    ],
    "formatted_address": "Valleymount, Co. Wicklow, Ireland",
    "geometry": {
      "location": {
        "lat": 53.1060864,
        "lng": -6.525047799999999
      },
      "location_type": "APPROXIMATE",
      "viewport": {
        "northeast": {
          "lat": 53.1074353802915,
          "lng": -6.523698819708497
        },
        "southwest": {
          "lat": 53.1047374197085,
          "lng": -6.526396780291502
        }
      }
    },
    "place_id": "ChIJE_cY11uaZ0gRsKrfN6nHABg",
    "types": [
      "locality",
      "political"
    ]
  },
  {
    "area_id": 2472,
    "area_name": "Newtownmountkennedy",
    "county_name": "Wicklow",
    "county_id": 4,
    "address_components": [
      {
        "long_name": "Newtown Mount Kennedy",
        "short_name": "Newtown Mount Kennedy",
        "types": [
          "locality",
          "political"
        ]
      },
      {
        "long_name": "Kilmacullagh",
        "short_name": "Kilmacullagh",
        "types": [
          "neighborhood",
          "political"
        ]
      },
      {
        "long_name": "County Wicklow",
        "short_name": "WW",
        "types": [
          "administrative_area_level_1",
          "political"
        ]
      },
      {
        "long_name": "Ireland",
        "short_name": "IE",
        "types": [
          "country",
          "political"
        ]
      }
    ],
    "formatted_address": "Kilmacullagh, Newtown Mount Kennedy, Co. Wicklow, Ireland",
    "geometry": {
      "location": {
        "lat": 53.0927815,
        "lng": -6.112023
      },
      "location_type": "APPROXIMATE",
      "viewport": {
        "northeast": {
          "lat": 53.0941304802915,
          "lng": -6.110674019708497
        },
        "southwest": {
          "lat": 53.0914325197085,
          "lng": -6.113371980291502
        }
      }
    },
    "place_id": "ChIJWepUaWOlZ0gRsIIxl6nHAAo",
    "types": [
      "locality",
      "political"
    ]
  },
  {
    "area_id": 4046,
    "area_name": "Barnadarrig",
    "county_name": "Wicklow",
    "county_id": 4,
    "address_components": [
      {
        "long_name": "Barndarrig",
        "short_name": "Barndarrig",
        "types": [
          "locality",
          "political"
        ]
      },
      {
        "long_name": "Ballyhara",
        "short_name": "Ballyhara",
        "types": [
          "neighborhood",
          "political"
        ]
      },
      {
        "long_name": "County Wicklow",
        "short_name": "WW",
        "types": [
          "administrative_area_level_1",
          "political"
        ]
      },
      {
        "long_name": "Ireland",
        "short_name": "IE",
        "types": [
          "country",
          "political"
        ]
      }
    ],
    "formatted_address": "Ballyhara, Barndarrig, Co. Wicklow, Ireland",
    "geometry": {
      "location": {
        "lat": 52.90998,
        "lng": -6.11336
      },
      "location_type": "APPROXIMATE",
      "viewport": {
        "northeast": {
          "lat": 52.91132898029151,
          "lng": -6.112011019708498
        },
        "southwest": {
          "lat": 52.90863101970851,
          "lng": -6.114708980291502
        }
      }
    },
    "partial_match": true,
    "place_id": "ChIJaWbiBWC4Z0gRmRvRtInd9Zg",
    "types": [
      "locality",
      "political"
    ]
  },
  {
    "area_id": 2450,
    "area_name": "Donard",
    "county_name": "Wicklow",
    "county_id": 4,
    "address_components": [
      {
        "long_name": "Donard",
        "short_name": "Donard",
        "types": [
          "locality",
          "political"
        ]
      },
      {
        "long_name": "Donard Demesne East",
        "short_name": "Donard Demesne East",
        "types": [
          "neighborhood",
          "political"
        ]
      },
      {
        "long_name": "County Wicklow",
        "short_name": "WW",
        "types": [
          "administrative_area_level_1",
          "political"
        ]
      },
      {
        "long_name": "Ireland",
        "short_name": "IE",
        "types": [
          "country",
          "political"
        ]
      }
    ],
    "formatted_address": "Donard Demesne East, Donard, Co. Wicklow, Ireland",
    "geometry": {
      "location": {
        "lat": 53.0222351,
        "lng": -6.6130978
      },
      "location_type": "APPROXIMATE",
      "viewport": {
        "northeast": {
          "lat": 53.02358408029149,
          "lng": -6.611748819708499
        },
        "southwest": {
          "lat": 53.0208861197085,
          "lng": -6.614446780291503
        }
      }
    },
    "place_id": "ChIJPcI-eUKPZ0gRwP4xl6nHAAo",
    "types": [
      "locality",
      "political"
    ]
  },
  {
    "area_id": 193,
    "area_name": "Greystones",
    "county_name": "Wicklow",
    "county_id": 4,
    "address_components": [
      {
        "long_name": "Greystones",
        "short_name": "Greystones",
        "types": [
          "locality",
          "political"
        ]
      },
      {
        "long_name": "County Wicklow",
        "short_name": "WW",
        "types": [
          "administrative_area_level_1",
          "political"
        ]
      },
      {
        "long_name": "Ireland",
        "short_name": "IE",
        "types": [
          "country",
          "political"
        ]
      }
    ],
    "formatted_address": "Greystones, Co. Wicklow, Ireland",
    "geometry": {
      "bounds": {
        "northeast": {
          "lat": 53.16058,
          "lng": -6.056159999999999
        },
        "southwest": {
          "lat": 53.12935,
          "lng": -6.104829899999999
        }
      },
      "location": {
        "lat": 53.1491175,
        "lng": -6.0793414
      },
      "location_type": "APPROXIMATE",
      "viewport": {
        "northeast": {
          "lat": 53.16058,
          "lng": -6.056159999999999
        },
        "southwest": {
          "lat": 53.12935,
          "lng": -6.104829899999999
        }
      }
    },
    "place_id": "ChIJKcXgkDGvZ0gRIBcyl6nHAAo",
    "types": [
      "locality",
      "political"
    ]
  },
  {
    "area_id": 3704,
    "area_name": "Aughrim",
    "county_name": "Wicklow",
    "county_id": 4,
    "address_components": [
      {
        "long_name": "Aughrim",
        "short_name": "Aughrim",
        "types": [
          "locality",
          "political"
        ]
      },
      {
        "long_name": "Aughrim Lower",
        "short_name": "Aughrim Lower",
        "types": [
          "neighborhood",
          "political"
        ]
      },
      {
        "long_name": "County Wicklow",
        "short_name": "WW",
        "types": [
          "administrative_area_level_1",
          "political"
        ]
      },
      {
        "long_name": "Ireland",
        "short_name": "IE",
        "types": [
          "country",
          "political"
        ]
      }
    ],
    "formatted_address": "Aughrim Lower, Aughrim, Co. Wicklow, Ireland",
    "geometry": {
      "location": {
        "lat": 52.8559337,
        "lng": -6.325933099999999
      },
      "location_type": "APPROXIMATE",
      "viewport": {
        "northeast": {
          "lat": 52.8572826802915,
          "lng": -6.324584119708497
        },
        "southwest": {
          "lat": 52.85458471970851,
          "lng": -6.327282080291502
        }
      }
    },
    "place_id": "ChIJ1yJcOB_rZ0gRAHoxl6nHAAo",
    "types": [
      "locality",
      "political"
    ]
  },
  {
    "area_id": 4015,
    "area_name": "Glenmalure",
    "county_name": "Wicklow",
    "county_id": 4,
    "address_components": [
      {
        "long_name": "Glenmalure",
        "short_name": "Glenmalure",
        "types": [
          "locality",
          "political"
        ]
      },
      {
        "long_name": "Carriglinneen",
        "short_name": "Carriglinneen",
        "types": [
          "neighborhood",
          "political"
        ]
      },
      {
        "long_name": "County Wicklow",
        "short_name": "WW",
        "types": [
          "administrative_area_level_1",
          "political"
        ]
      },
      {
        "long_name": "Ireland",
        "short_name": "IE",
        "types": [
          "country",
          "political"
        ]
      }
    ],
    "formatted_address": "Carriglinneen, Glenmalure, Co. Wicklow, Ireland",
    "geometry": {
      "location": {
        "lat": 52.95771999999999,
        "lng": -6.354369999999999
      },
      "location_type": "APPROXIMATE",
      "viewport": {
        "northeast": {
          "lat": 52.95906898029149,
          "lng": -6.353021019708497
        },
        "southwest": {
          "lat": 52.95637101970849,
          "lng": -6.355718980291502
        }
      }
    },
    "place_id": "ChIJ008WD7eWZ0gRMDffN6nHABg",
    "types": [
      "locality",
      "political"
    ]
  },
  {
    "area_id": 1776,
    "area_name": "Ballard",
    "county_name": "Wicklow",
    "county_id": 4,
    "address_components": [
      {
        "long_name": "Wicklow",
        "short_name": "Wicklow",
        "types": [
          "locality",
          "political"
        ]
      },
      {
        "long_name": "County Wicklow",
        "short_name": "WW",
        "types": [
          "administrative_area_level_1",
          "political"
        ]
      },
      {
        "long_name": "Ireland",
        "short_name": "IE",
        "types": [
          "country",
          "political"
        ]
      }
    ],
    "formatted_address": "Wicklow, Ireland",
    "geometry": {
      "bounds": {
        "northeast": {
          "lat": 52.99892,
          "lng": -6.0154599
        },
        "southwest": {
          "lat": 52.9661001,
          "lng": -6.07004
        }
      },
      "location": {
        "lat": 52.9808207,
        "lng": -6.044588999999999
      },
      "location_type": "APPROXIMATE",
      "viewport": {
        "northeast": {
          "lat": 52.99892,
          "lng": -6.0154599
        },
        "southwest": {
          "lat": 52.9661001,
          "lng": -6.07004
        }
      }
    },
    "partial_match": true,
    "place_id": "ChIJWShQ2bWwZ0gR56NB9ft5Tig",
    "types": [
      "locality",
      "political"
    ]
  },
  {
    "area_id": 2468,
    "area_name": "Carriggower",
    "county_name": "Wicklow",
    "county_id": 4,
    "address_components": [
      {
        "long_name": "Carriggower",
        "short_name": "Carriggower",
        "types": [
          "neighborhood",
          "political"
        ]
      },
      {
        "long_name": "Kilmurray",
        "short_name": "Kilmurray",
        "types": [
          "political",
          "sublocality",
          "sublocality_level_1"
        ]
      },
      {
        "long_name": "County Wicklow",
        "short_name": "WW",
        "types": [
          "administrative_area_level_1",
          "political"
        ]
      },
      {
        "long_name": "Ireland",
        "short_name": "IE",
        "types": [
          "country",
          "political"
        ]
      }
    ],
    "formatted_address": "Carriggower, Kilmurray, Co. Wicklow, Ireland",
    "geometry": {
      "bounds": {
        "northeast": {
          "lat": 53.1253085,
          "lng": -6.158971999999999
        },
        "southwest": {
          "lat": 53.10315379999999,
          "lng": -6.2014999
        }
      },
      "location": {
        "lat": 53.1144457,
        "lng": -6.1734466
      },
      "location_type": "APPROXIMATE",
      "viewport": {
        "northeast": {
          "lat": 53.1253085,
          "lng": -6.158971999999999
        },
        "southwest": {
          "lat": 53.10315379999999,
          "lng": -6.2014999
        }
      }
    },
    "place_id": "ChIJdaKbe1qkZ0gRMq66GajHACY",
    "types": [
      "neighborhood",
      "political"
    ]
  },
  {
    "area_id": 2462,
    "area_name": "Sraghmore",
    "county_name": "Wicklow",
    "county_id": 4,
    "address_components": [
      {
        "long_name": "Sraghmore",
        "short_name": "Sraghmore",
        "types": [
          "neighborhood",
          "political"
        ]
      },
      {
        "long_name": "Oldtown",
        "short_name": "Oldtown",
        "types": [
          "political",
          "sublocality",
          "sublocality_level_1"
        ]
      },
      {
        "long_name": "County Wicklow",
        "short_name": "WW",
        "types": [
          "administrative_area_level_1",
          "political"
        ]
      },
      {
        "long_name": "Ireland",
        "short_name": "IE",
        "types": [
          "country",
          "political"
        ]
      }
    ],
    "formatted_address": "Sraghmore, Oldtown, Co. Wicklow, Ireland",
    "geometry": {
      "bounds": {
        "northeast": {
          "lat": 53.11273869999999,
          "lng": -6.1995854
        },
        "southwest": {
          "lat": 53.08608419999999,
          "lng": -6.255935699999999
        }
      },
      "location": {
        "lat": 53.0949526,
        "lng": -6.229853899999999
      },
      "location_type": "APPROXIMATE",
      "viewport": {
        "northeast": {
          "lat": 53.11273869999999,
          "lng": -6.1995854
        },
        "southwest": {
          "lat": 53.08608419999999,
          "lng": -6.255935699999999
        }
      }
    },
    "place_id": "ChIJRy6CRHGjZ0gRMby6GajHACY",
    "types": [
      "neighborhood",
      "political"
    ]
  },
  {
    "area_id": 1667,
    "area_name": "Stratford",
    "county_name": "Wicklow",
    "county_id": 4,
    "address_components": [
      {
        "long_name": "Stratford-on-Slaney",
        "short_name": "Stratford-on-Slaney",
        "types": [
          "locality",
          "political"
        ]
      },
      {
        "long_name": "Ballynatone",
        "short_name": "Ballynatone",
        "types": [
          "neighborhood",
          "political"
        ]
      },
      {
        "long_name": "County Kildare",
        "short_name": "County Kildare",
        "types": [
          "administrative_area_level_1",
          "political"
        ]
      },
      {
        "long_name": "Ireland",
        "short_name": "IE",
        "types": [
          "country",
          "political"
        ]
      }
    ],
    "formatted_address": "Ballynatone, Stratford-on-Slaney, Co. Kildare, Ireland",
    "geometry": {
      "location": {
        "lat": 52.9878852,
        "lng": -6.675076499999999
      },
      "location_type": "APPROXIMATE",
      "viewport": {
        "northeast": {
          "lat": 52.9892341802915,
          "lng": -6.673727519708497
        },
        "southwest": {
          "lat": 52.9865362197085,
          "lng": -6.676425480291502
        }
      }
    },
    "place_id": "ChIJAcMEgaBhXUgRZ2xd39pV2F0",
    "types": [
      "locality",
      "political"
    ]
  },
  {
    "area_id": 1737,
    "area_name": "Talbotstown",
    "county_name": "Wicklow",
    "county_id": 4,
    "address_components": [
      {
        "long_name": "Talbotstown House",
        "short_name": "Talbotstown House",
        "types": [
          "premise"
        ]
      },
      {
        "long_name": "Talbotstown Lower",
        "short_name": "Talbotstown Lower",
        "types": [
          "neighborhood",
          "political"
        ]
      },
      {
        "long_name": "Kiltegan",
        "short_name": "Kiltegan",
        "types": [
          "locality",
          "political"
        ]
      },
      {
        "long_name": "County Wicklow",
        "short_name": "WW",
        "types": [
          "administrative_area_level_1",
          "political"
        ]
      },
      {
        "long_name": "Ireland",
        "short_name": "IE",
        "types": [
          "country",
          "political"
        ]
      }
    ],
    "formatted_address": "Talbotstown House, Talbotstown Lower, Kiltegan, Co. Wicklow, Ireland",
    "geometry": {
      "location": {
        "lat": 52.92588629999999,
        "lng": -6.635288
      },
      "location_type": "ROOFTOP",
      "viewport": {
        "northeast": {
          "lat": 52.9272828302915,
          "lng": -6.633838019708498
        },
        "southwest": {
          "lat": 52.9245848697085,
          "lng": -6.636535980291502
        }
      }
    },
    "place_id": "ChIJjQPU1-yLZ0gRuIIriz2DWCs",
    "types": [
      "premise"
    ]
  },
  {
    "area_id": 2437,
    "area_name": "Toberbeg",
    "county_name": "Wicklow",
    "county_id": 4,
    "address_components": [
      {
        "long_name": "Toberbeg",
        "short_name": "Toberbeg",
        "types": [
          "neighborhood",
          "political"
        ]
      },
      {
        "long_name": "Beech Hill",
        "short_name": "Beech Hill",
        "types": [
          "political",
          "sublocality",
          "sublocality_level_1"
        ]
      },
      {
        "long_name": "County Wicklow",
        "short_name": "WW",
        "types": [
          "administrative_area_level_1",
          "political"
        ]
      },
      {
        "long_name": "Ireland",
        "short_name": "IE",
        "types": [
          "country",
          "political"
        ]
      }
    ],
    "formatted_address": "Toberbeg, Beech Hill, Co. Wicklow, Ireland",
    "geometry": {
      "bounds": {
        "northeast": {
          "lat": 53.0446026,
          "lng": -6.661349899999999
        },
        "southwest": {
          "lat": 53.0329622,
          "lng": -6.6825508
        }
      },
      "location": {
        "lat": 53.03954150000001,
        "lng": -6.671239399999999
      },
      "location_type": "APPROXIMATE",
      "viewport": {
        "northeast": {
          "lat": 53.0446026,
          "lng": -6.661349899999999
        },
        "southwest": {
          "lat": 53.0329622,
          "lng": -6.6825508
        }
      }
    },
    "place_id": "ChIJ-_sdcCKGZ0gRUdS6GajHACY",
    "types": [
      "neighborhood",
      "political"
    ]
  },
  {
    "area_id": 1780,
    "area_name": "Bridgeland",
    "county_name": "Wicklow",
    "county_id": 4,
    "address_components": [
      {
        "long_name": "Bridgeland",
        "short_name": "Bridgeland",
        "types": [
          "neighborhood",
          "political"
        ]
      },
      {
        "long_name": "Mullins",
        "short_name": "Mullins",
        "types": [
          "political",
          "sublocality",
          "sublocality_level_1"
        ]
      },
      {
        "long_name": "County Wicklow",
        "short_name": "WW",
        "types": [
          "administrative_area_level_1",
          "political"
        ]
      },
      {
        "long_name": "Ireland",
        "short_name": "IE",
        "types": [
          "country",
          "political"
        ]
      }
    ],
    "formatted_address": "Bridgeland, Mullins, Co. Wicklow, Ireland",
    "geometry": {
      "bounds": {
        "northeast": {
          "lat": 52.8208571,
          "lng": -6.4952901
        },
        "southwest": {
          "lat": 52.80993429999999,
          "lng": -6.5140762
        }
      },
      "location": {
        "lat": 52.81404569999999,
        "lng": -6.5070136
      },
      "location_type": "APPROXIMATE",
      "viewport": {
        "northeast": {
          "lat": 52.8208571,
          "lng": -6.4952901
        },
        "southwest": {
          "lat": 52.80993429999999,
          "lng": -6.5140762
        }
      }
    },
    "place_id": "ChIJ_48H12XyZ0gRMq26GajHACY",
    "types": [
      "neighborhood",
      "political"
    ]
  },
  {
    "area_id": 270,
    "area_name": "Oldcourt",
    "county_name": "Wicklow",
    "county_id": 4,
    "address_components": [
      {
        "long_name": "Oldcourt",
        "short_name": "Oldcourt",
        "types": [
          "neighborhood",
          "political"
        ]
      },
      {
        "long_name": "Bray",
        "short_name": "Bray",
        "types": [
          "locality",
          "political"
        ]
      },
      {
        "long_name": "County Wicklow",
        "short_name": "WW",
        "types": [
          "administrative_area_level_1",
          "political"
        ]
      },
      {
        "long_name": "Ireland",
        "short_name": "IE",
        "types": [
          "country",
          "political"
        ]
      }
    ],
    "formatted_address": "Oldcourt, Bray, Co. Wicklow, Ireland",
    "geometry": {
      "bounds": {
        "northeast": {
          "lat": 53.19747719999999,
          "lng": -6.1050282
        },
        "southwest": {
          "lat": 53.1858587,
          "lng": -6.1240435
        }
      },
      "location": {
        "lat": 53.1916754,
        "lng": -6.1168516
      },
      "location_type": "APPROXIMATE",
      "viewport": {
        "northeast": {
          "lat": 53.19747719999999,
          "lng": -6.1050282
        },
        "southwest": {
          "lat": 53.1858587,
          "lng": -6.1240435
        }
      }
    },
    "place_id": "ChIJ-17fCX6oZ0gRc4_y8qzat00",
    "types": [
      "neighborhood",
      "political"
    ]
  },
  {
    "area_id": 2469,
    "area_name": "Delgany",
    "county_name": "Wicklow",
    "county_id": 4,
    "address_components": [
      {
        "long_name": "Delgany",
        "short_name": "Delgany",
        "types": [
          "locality",
          "political"
        ]
      },
      {
        "long_name": "Delgany",
        "short_name": "Delgany",
        "types": [
          "neighborhood",
          "political"
        ]
      },
      {
        "long_name": "County Wicklow",
        "short_name": "WW",
        "types": [
          "administrative_area_level_1",
          "political"
        ]
      },
      {
        "long_name": "Ireland",
        "short_name": "IE",
        "types": [
          "country",
          "political"
        ]
      }
    ],
    "formatted_address": "Delgany, Co. Wicklow, Ireland",
    "geometry": {
      "location": {
        "lat": 53.1326111,
        "lng": -6.0923308
      },
      "location_type": "APPROXIMATE",
      "viewport": {
        "northeast": {
          "lat": 53.1339600802915,
          "lng": -6.090981819708498
        },
        "southwest": {
          "lat": 53.1312621197085,
          "lng": -6.093679780291502
        }
      }
    },
    "place_id": "ChIJYVGhZE-vZ0gRwPkxl6nHAAo",
    "types": [
      "locality",
      "political"
    ]
  },
  {
    "area_id": 1846,
    "area_name": "Ferrybank",
    "county_name": "Wicklow",
    "county_id": 4,
    "address_components": [
      {
        "long_name": "Ferrybank",
        "short_name": "Ferrybank",
        "types": [
          "route"
        ]
      },
      {
        "long_name": "Ferrybank",
        "short_name": "Ferrybank",
        "types": [
          "neighborhood",
          "political"
        ]
      },
      {
        "long_name": "Arklow",
        "short_name": "Arklow",
        "types": [
          "locality",
          "political"
        ]
      },
      {
        "long_name": "County Wicklow",
        "short_name": "WW",
        "types": [
          "administrative_area_level_1",
          "political"
        ]
      },
      {
        "long_name": "Ireland",
        "short_name": "IE",
        "types": [
          "country",
          "political"
        ]
      }
    ],
    "formatted_address": "Ferrybank, Arklow, Co. Wicklow, Ireland",
    "geometry": {
      "bounds": {
        "northeast": {
          "lat": 52.8023293,
          "lng": -6.146917900000001
        },
        "southwest": {
          "lat": 52.7991414,
          "lng": -6.1503038
        }
      },
      "location": {
        "lat": 52.8007807,
        "lng": -6.1483569
      },
      "location_type": "GEOMETRIC_CENTER",
      "viewport": {
        "northeast": {
          "lat": 52.8023293,
          "lng": -6.146917900000001
        },
        "southwest": {
          "lat": 52.7991414,
          "lng": -6.1503038
        }
      }
    },
    "place_id": "ChIJObNXPP7DZ0gRB1u6NNSMwas",
    "types": [
      "route"
    ]
  },
  {
    "area_id": 1812,
    "area_name": "Ballinderry",
    "county_name": "Wicklow",
    "county_id": 4,
    "address_components": [
      {
        "long_name": "Ballinderry",
        "short_name": "Ballinderry",
        "types": [
          "locality",
          "political"
        ]
      },
      {
        "long_name": "Ballinderry Upper",
        "short_name": "Ballinderry Upper",
        "types": [
          "neighborhood",
          "political"
        ]
      },
      {
        "long_name": "County Wicklow",
        "short_name": "WW",
        "types": [
          "administrative_area_level_1",
          "political"
        ]
      },
      {
        "long_name": "Ireland",
        "short_name": "IE",
        "types": [
          "country",
          "political"
        ]
      }
    ],
    "formatted_address": "Ballinderry Upper, Ballinderry, Co. Wicklow, Ireland",
    "geometry": {
      "location": {
        "lat": 52.94683,
        "lng": -6.27996
      },
      "location_type": "APPROXIMATE",
      "viewport": {
        "northeast": {
          "lat": 52.94817898029149,
          "lng": -6.278611019708498
        },
        "southwest": {
          "lat": 52.9454810197085,
          "lng": -6.281308980291502
        }
      }
    },
    "place_id": "ChIJxV-R5xi-Z0gRllST-ydBqMY",
    "types": [
      "locality",
      "political"
    ]
  },
  {
    "area_id": 2459,
    "area_name": "Enniskerry",
    "county_name": "Wicklow",
    "county_id": 4,
    "address_components": [
      {
        "long_name": "Enniskerry",
        "short_name": "Enniskerry",
        "types": [
          "locality",
          "political"
        ]
      },
      {
        "long_name": "Enniskerry",
        "short_name": "Enniskerry",
        "types": [
          "neighborhood",
          "political"
        ]
      },
      {
        "long_name": "County Wicklow",
        "short_name": "WW",
        "types": [
          "administrative_area_level_1",
          "political"
        ]
      },
      {
        "long_name": "Ireland",
        "short_name": "IE",
        "types": [
          "country",
          "political"
        ]
      }
    ],
    "formatted_address": "Enniskerry, Co. Wicklow, Ireland",
    "geometry": {
      "location": {
        "lat": 53.1935037,
        "lng": -6.1707299
      },
      "location_type": "APPROXIMATE",
      "viewport": {
        "northeast": {
          "lat": 53.1948526802915,
          "lng": -6.169380919708497
        },
        "southwest": {
          "lat": 53.1921547197085,
          "lng": -6.172078880291502
        }
      }
    },
    "place_id": "ChIJDZnUWainZ0gRgNMxl6nHAAo",
    "types": [
      "locality",
      "political"
    ]
  },
  {
    "area_id": 2471,
    "area_name": "Kilcoole",
    "county_name": "Wicklow",
    "county_id": 4,
    "address_components": [
      {
        "long_name": "Kilcoole",
        "short_name": "Kilcoole",
        "types": [
          "locality",
          "political"
        ]
      },
      {
        "long_name": "Cooldross Upper",
        "short_name": "Cooldross Upper",
        "types": [
          "neighborhood",
          "political"
        ]
      },
      {
        "long_name": "County Wicklow",
        "short_name": "WW",
        "types": [
          "administrative_area_level_1",
          "political"
        ]
      },
      {
        "long_name": "Ireland",
        "short_name": "IE",
        "types": [
          "country",
          "political"
        ]
      }
    ],
    "formatted_address": "Cooldross Upper, Kilcoole, Co. Wicklow, Ireland",
    "geometry": {
      "location": {
        "lat": 53.1062723,
        "lng": -6.064586100000001
      },
      "location_type": "APPROXIMATE",
      "viewport": {
        "northeast": {
          "lat": 53.1076212802915,
          "lng": -6.063237119708499
        },
        "southwest": {
          "lat": 53.1049233197085,
          "lng": -6.065935080291503
        }
      }
    },
    "place_id": "ChIJB43R-KevZ0gRIOwxl6nHAAo",
    "types": [
      "locality",
      "political"
    ]
  },
  {
    "area_id": 1770,
    "area_name": "Craffield",
    "county_name": "Wicklow",
    "county_id": 4,
    "address_components": [
      {
        "long_name": "Craffield",
        "short_name": "Craffield",
        "types": [
          "neighborhood",
          "political"
        ]
      },
      {
        "long_name": "County Wicklow",
        "short_name": "WW",
        "types": [
          "administrative_area_level_1",
          "political"
        ]
      },
      {
        "long_name": "Ireland",
        "short_name": "IE",
        "types": [
          "country",
          "political"
        ]
      }
    ],
    "formatted_address": "Craffield, Co. Wicklow, Ireland",
    "geometry": {
      "bounds": {
        "northeast": {
          "lat": 52.8800281,
          "lng": -6.346878299999999
        },
        "southwest": {
          "lat": 52.8640789,
          "lng": -6.3742167
        }
      },
      "location": {
        "lat": 52.8720009,
        "lng": -6.356726600000001
      },
      "location_type": "APPROXIMATE",
      "viewport": {
        "northeast": {
          "lat": 52.8800281,
          "lng": -6.346878299999999
        },
        "southwest": {
          "lat": 52.8640789,
          "lng": -6.3742167
        }
      }
    },
    "place_id": "ChIJrbEEtk3rZ0gRAq-6GajHACY",
    "types": [
      "neighborhood",
      "political"
    ]
  },
  {
    "area_id": 1763,
    "area_name": "Sheeanamore",
    "county_name": "Wicklow",
    "county_id": 4,
    "address_components": [
      {
        "long_name": "Sheeanamore",
        "short_name": "Sheeanamore",
        "types": [
          "locality",
          "political"
        ]
      },
      {
        "long_name": "Sheeanabeg (Whaley)",
        "short_name": "Sheeanabeg (Whaley)",
        "types": [
          "neighborhood",
          "political"
        ]
      },
      {
        "long_name": "County Wicklow",
        "short_name": "WW",
        "types": [
          "administrative_area_level_1",
          "political"
        ]
      },
      {
        "long_name": "Ireland",
        "short_name": "IE",
        "types": [
          "country",
          "political"
        ]
      }
    ],
    "formatted_address": "Sheeanabeg (Whaley), Sheeanamore, Co. Wicklow, Ireland",
    "geometry": {
      "location": {
        "lat": 52.88787,
        "lng": -6.35148
      },
      "location_type": "APPROXIMATE",
      "viewport": {
        "northeast": {
          "lat": 52.8892189802915,
          "lng": -6.350131019708497
        },
        "southwest": {
          "lat": 52.8865210197085,
          "lng": -6.352828980291502
        }
      }
    },
    "place_id": "ChIJ55ArCMaUZ0gRZnJkPF_9YJ0",
    "types": [
      "locality",
      "political"
    ]
  },
  {
    "area_id": 1758,
    "area_name": "Moyne",
    "county_name": "Wicklow",
    "county_id": 4,
    "address_components": [
      {
        "long_name": "Moyne",
        "short_name": "Moyne",
        "types": [
          "locality",
          "political"
        ]
      },
      {
        "long_name": "Moyne",
        "short_name": "Moyne",
        "types": [
          "neighborhood",
          "political"
        ]
      },
      {
        "long_name": "County Wicklow",
        "short_name": "WW",
        "types": [
          "administrative_area_level_1",
          "political"
        ]
      },
      {
        "long_name": "Ireland",
        "short_name": "IE",
        "types": [
          "country",
          "political"
        ]
      }
    ],
    "formatted_address": "Moyne, Co. Wicklow, Ireland",
    "geometry": {
      "location": {
        "lat": 52.8635824,
        "lng": -6.464255499999999
      },
      "location_type": "APPROXIMATE",
      "viewport": {
        "northeast": {
          "lat": 52.8649313802915,
          "lng": -6.462906519708497
        },
        "southwest": {
          "lat": 52.8622334197085,
          "lng": -6.465604480291502
        }
      }
    },
    "place_id": "ChIJGVsl50ntZ0gRuFbvL3WkBaA",
    "types": [
      "locality",
      "political"
    ]
  },
  {
    "area_id": 2435,
    "area_name": "Dunlavin",
    "county_name": "Wicklow",
    "county_id": 4,
    "address_components": [
      {
        "long_name": "Dunlavin",
        "short_name": "Dunlavin",
        "types": [
          "locality",
          "political"
        ]
      },
      {
        "long_name": "Dunlavin Upper",
        "short_name": "Dunlavin Upper",
        "types": [
          "neighborhood",
          "political"
        ]
      },
      {
        "long_name": "County Wicklow",
        "short_name": "WW",
        "types": [
          "administrative_area_level_1",
          "political"
        ]
      },
      {
        "long_name": "Ireland",
        "short_name": "IE",
        "types": [
          "country",
          "political"
        ]
      }
    ],
    "formatted_address": "Dunlavin Upper, Dunlavin, Co. Wicklow, Ireland",
    "geometry": {
      "location": {
        "lat": 53.0578764,
        "lng": -6.7016395
      },
      "location_type": "APPROXIMATE",
      "viewport": {
        "northeast": {
          "lat": 53.05922538029149,
          "lng": -6.700290519708497
        },
        "southwest": {
          "lat": 53.05652741970849,
          "lng": -6.702988480291502
        }
      }
    },
    "place_id": "ChIJGZNfGUyGZ0gRgP8xl6nHAAo",
    "types": [
      "locality",
      "political"
    ]
  },
  {
    "area_id": 3909,
    "area_name": "Glencree",
    "county_name": "Wicklow",
    "county_id": 4,
    "address_components": [
      {
        "long_name": "Glencree",
        "short_name": "Glencree",
        "types": [
          "locality",
          "political"
        ]
      },
      {
        "long_name": "Oldboleys",
        "short_name": "Oldboleys",
        "types": [
          "neighborhood",
          "political"
        ]
      },
      {
        "long_name": "County Wicklow",
        "short_name": "WW",
        "types": [
          "administrative_area_level_1",
          "political"
        ]
      },
      {
        "long_name": "Ireland",
        "short_name": "IE",
        "types": [
          "country",
          "political"
        ]
      }
    ],
    "formatted_address": "Oldboleys, Glencree, Co. Wicklow, Ireland",
    "geometry": {
      "location": {
        "lat": 53.2005852,
        "lng": -6.292384500000001
      },
      "location_type": "APPROXIMATE",
      "viewport": {
        "northeast": {
          "lat": 53.2019341802915,
          "lng": -6.291035519708499
        },
        "southwest": {
          "lat": 53.1992362197085,
          "lng": -6.293733480291503
        }
      }
    },
    "place_id": "ChIJE93TklmgZ0gRYDbfN6nHABg",
    "types": [
      "locality",
      "political"
    ]
  },
  {
    "area_id": 185,
    "area_name": "Ballymorris",
    "county_name": "Wicklow",
    "county_id": 4,
    "address_components": [
      {
        "long_name": "Ballymorris",
        "short_name": "Ballymorris",
        "types": [
          "neighborhood",
          "political"
        ]
      },
      {
        "long_name": "Bray",
        "short_name": "Bray",
        "types": [
          "locality",
          "political"
        ]
      },
      {
        "long_name": "County Wicklow",
        "short_name": "WW",
        "types": [
          "administrative_area_level_1",
          "political"
        ]
      },
      {
        "long_name": "Ireland",
        "short_name": "IE",
        "types": [
          "country",
          "political"
        ]
      }
    ],
    "formatted_address": "Ballymorris, Bray, Co. Wicklow, Ireland",
    "geometry": {
      "bounds": {
        "northeast": {
          "lat": 53.1906344,
          "lng": -6.118498499999999
        },
        "southwest": {
          "lat": 53.1821476,
          "lng": -6.13004
        }
      },
      "location": {
        "lat": 53.18640569999999,
        "lng": -6.1263136
      },
      "location_type": "APPROXIMATE",
      "viewport": {
        "northeast": {
          "lat": 53.1906344,
          "lng": -6.118498499999999
        },
        "southwest": {
          "lat": 53.1821476,
          "lng": -6.13004
        }
      }
    },
    "place_id": "ChIJ_5JisCumZ0gR-xbHE05RxI8",
    "types": [
      "neighborhood",
      "political"
    ]
  },
  {
    "area_id": 1828,
    "area_name": "Wicklow Town",
    "county_name": "Wicklow",
    "county_id": 4,
    "address_components": [
      {
        "long_name": "Wicklow",
        "short_name": "Wicklow",
        "types": [
          "locality",
          "political"
        ]
      },
      {
        "long_name": "County Wicklow",
        "short_name": "WW",
        "types": [
          "administrative_area_level_1",
          "political"
        ]
      },
      {
        "long_name": "Ireland",
        "short_name": "IE",
        "types": [
          "country",
          "political"
        ]
      }
    ],
    "formatted_address": "Wicklow, Ireland",
    "geometry": {
      "bounds": {
        "northeast": {
          "lat": 52.99892,
          "lng": -6.0154599
        },
        "southwest": {
          "lat": 52.9661001,
          "lng": -6.07004
        }
      },
      "location": {
        "lat": 52.9808207,
        "lng": -6.044588999999999
      },
      "location_type": "APPROXIMATE",
      "viewport": {
        "northeast": {
          "lat": 52.99892,
          "lng": -6.0154599
        },
        "southwest": {
          "lat": 52.9661001,
          "lng": -6.07004
        }
      }
    },
    "place_id": "ChIJWShQ2bWwZ0gR56NB9ft5Tig",
    "types": [
      "locality",
      "political"
    ]
  },
  {
    "area_id": 1815,
    "area_name": "Rathdrum",
    "county_name": "Wicklow",
    "county_id": 4,
    "address_components": [
      {
        "long_name": "Rathdrum",
        "short_name": "Rathdrum",
        "types": [
          "locality",
          "political"
        ]
      },
      {
        "long_name": "Rathdrum",
        "short_name": "Rathdrum",
        "types": [
          "neighborhood",
          "political"
        ]
      },
      {
        "long_name": "County Wicklow",
        "short_name": "WW",
        "types": [
          "administrative_area_level_1",
          "political"
        ]
      },
      {
        "long_name": "Ireland",
        "short_name": "IE",
        "types": [
          "country",
          "political"
        ]
      }
    ],
    "formatted_address": "Rathdrum, Co. Wicklow, Ireland",
    "geometry": {
      "location": {
        "lat": 52.93231230000001,
        "lng": -6.231101199999999
      },
      "location_type": "APPROXIMATE",
      "viewport": {
        "northeast": {
          "lat": 52.93366128029151,
          "lng": -6.229752219708497
        },
        "southwest": {
          "lat": 52.93096331970851,
          "lng": -6.232450180291502
        }
      }
    },
    "place_id": "ChIJicXnEFG-Z0gRwHgxl6nHAAo",
    "types": [
      "locality",
      "political"
    ]
  },
  {
    "area_id": 1841,
    "area_name": "Woodenbridge",
    "county_name": "Wicklow",
    "county_id": 4,
    "address_components": [
      {
        "long_name": "Woodenbridge",
        "short_name": "Woodenbridge",
        "types": [
          "locality",
          "political"
        ]
      },
      {
        "long_name": "Ballinamona",
        "short_name": "Ballinamona",
        "types": [
          "neighborhood",
          "political"
        ]
      },
      {
        "long_name": "County Wicklow",
        "short_name": "WW",
        "types": [
          "administrative_area_level_1",
          "political"
        ]
      },
      {
        "long_name": "Ireland",
        "short_name": "IE",
        "types": [
          "country",
          "political"
        ]
      }
    ],
    "formatted_address": "Ballinamona, Woodenbridge, Co. Wicklow, Ireland",
    "geometry": {
      "location": {
        "lat": 52.83465,
        "lng": -6.24559
      },
      "location_type": "APPROXIMATE",
      "viewport": {
        "northeast": {
          "lat": 52.8359989802915,
          "lng": -6.244241019708498
        },
        "southwest": {
          "lat": 52.8333010197085,
          "lng": -6.246938980291502
        }
      }
    },
    "place_id": "ChIJtzj3O8zBZ0gR8sy6GajHACY",
    "types": [
      "locality",
      "political"
    ]
  },
  {
    "area_id": 1820,
    "area_name": "Ballinaclash",
    "county_name": "Wicklow",
    "county_id": 4,
    "address_components": [
      {
        "long_name": "Ballinaclash",
        "short_name": "Ballinaclash",
        "types": [
          "locality",
          "political"
        ]
      },
      {
        "long_name": "Ballinacarrig Lower",
        "short_name": "Ballinacarrig Lower",
        "types": [
          "neighborhood",
          "political"
        ]
      },
      {
        "long_name": "County Wicklow",
        "short_name": "WW",
        "types": [
          "administrative_area_level_1",
          "political"
        ]
      },
      {
        "long_name": "Ireland",
        "short_name": "IE",
        "types": [
          "country",
          "political"
        ]
      }
    ],
    "formatted_address": "Ballinacarrig Lower, Ballinaclash, Co. Wicklow, Ireland",
    "geometry": {
      "location": {
        "lat": 52.9052365,
        "lng": -6.2579487
      },
      "location_type": "APPROXIMATE",
      "viewport": {
        "northeast": {
          "lat": 52.9065854802915,
          "lng": -6.256599719708498
        },
        "southwest": {
          "lat": 52.9038875197085,
          "lng": -6.259297680291502
        }
      }
    },
    "place_id": "ChIJS3OuCsO_Z0gRkHoxl6nHAAo",
    "types": [
      "locality",
      "political"
    ]
  },
  {
    "area_id": 2454,
    "area_name": "Ballyknockan",
    "county_name": "Wicklow",
    "county_id": 4,
    "address_components": [
      {
        "long_name": "Ballyknockan",
        "short_name": "Ballyknockan",
        "types": [
          "neighborhood",
          "political"
        ]
      },
      {
        "long_name": "County Wicklow",
        "short_name": "WW",
        "types": [
          "administrative_area_level_1",
          "political"
        ]
      },
      {
        "long_name": "Ireland",
        "short_name": "IE",
        "types": [
          "country",
          "political"
        ]
      }
    ],
    "formatted_address": "Ballyknockan, Co. Wicklow, Ireland",
    "geometry": {
      "bounds": {
        "northeast": {
          "lat": 53.1135038,
          "lng": -6.4757028
        },
        "southwest": {
          "lat": 53.0873095,
          "lng": -6.511694599999999
        }
      },
      "location": {
        "lat": 53.1008086,
        "lng": -6.498234099999999
      },
      "location_type": "APPROXIMATE",
      "viewport": {
        "northeast": {
          "lat": 53.1135038,
          "lng": -6.4757028
        },
        "southwest": {
          "lat": 53.0873095,
          "lng": -6.511694599999999
        }
      }
    },
    "place_id": "ChIJFV7KPgubZ0gRoN4xl6nHAAo",
    "types": [
      "neighborhood",
      "political"
    ]
  },
  {
    "area_id": 2447,
    "area_name": "Blessington",
    "county_name": "Wicklow",
    "county_id": 4,
    "address_components": [
      {
        "long_name": "Blessington",
        "short_name": "Blessington",
        "types": [
          "locality",
          "political"
        ]
      },
      {
        "long_name": "Blessington",
        "short_name": "Blessington",
        "types": [
          "neighborhood",
          "political"
        ]
      },
      {
        "long_name": "County Wicklow",
        "short_name": "WW",
        "types": [
          "administrative_area_level_1",
          "political"
        ]
      },
      {
        "long_name": "Ireland",
        "short_name": "IE",
        "types": [
          "country",
          "political"
        ]
      }
    ],
    "formatted_address": "Blessington, Co. Wicklow, Ireland",
    "geometry": {
      "location": {
        "lat": 53.1696579,
        "lng": -6.534068700000001
      },
      "location_type": "APPROXIMATE",
      "viewport": {
        "northeast": {
          "lat": 53.1710068802915,
          "lng": -6.532719719708499
        },
        "southwest": {
          "lat": 53.1683089197085,
          "lng": -6.535417680291503
        }
      }
    },
    "place_id": "ChIJyeeQbiCdZ0gRQNUxl6nHAAo",
    "types": [
      "locality",
      "political"
    ]
  },
  {
    "area_id": 2467,
    "area_name": "Tomdarragh",
    "county_name": "Wicklow",
    "county_id": 4,
    "address_components": [
      {
        "long_name": "Tomdarragh",
        "short_name": "Tomdarragh",
        "types": [
          "neighborhood",
          "political"
        ]
      },
      {
        "long_name": "Oldtown",
        "short_name": "Oldtown",
        "types": [
          "political",
          "sublocality",
          "sublocality_level_1"
        ]
      },
      {
        "long_name": "County Wicklow",
        "short_name": "WW",
        "types": [
          "administrative_area_level_1",
          "political"
        ]
      },
      {
        "long_name": "Ireland",
        "short_name": "IE",
        "types": [
          "country",
          "political"
        ]
      }
    ],
    "formatted_address": "Tomdarragh, Oldtown, Co. Wicklow, Ireland",
    "geometry": {
      "bounds": {
        "northeast": {
          "lat": 53.04830889999999,
          "lng": -6.1982292
        },
        "southwest": {
          "lat": 53.0305528,
          "lng": -6.2294488
        }
      },
      "location": {
        "lat": 53.040789,
        "lng": -6.2141372
      },
      "location_type": "APPROXIMATE",
      "viewport": {
        "northeast": {
          "lat": 53.04830889999999,
          "lng": -6.1982292
        },
        "southwest": {
          "lat": 53.0305528,
          "lng": -6.2294488
        }
      }
    },
    "place_id": "ChIJJb8XU7u8Z0gRewx8W_dTdLw",
    "types": [
      "neighborhood",
      "political"
    ]
  },
  {
    "area_id": 1848,
    "area_name": "Clogga",
    "county_name": "Wicklow",
    "county_id": 4,
    "address_components": [
      {
        "long_name": "Clogga",
        "short_name": "Clogga",
        "types": [
          "neighborhood",
          "political"
        ]
      },
      {
        "long_name": "Oakdale",
        "short_name": "Oakdale",
        "types": [
          "political",
          "sublocality",
          "sublocality_level_1"
        ]
      },
      {
        "long_name": "County Wicklow",
        "short_name": "WW",
        "types": [
          "administrative_area_level_1",
          "political"
        ]
      },
      {
        "long_name": "Ireland",
        "short_name": "IE",
        "types": [
          "country",
          "political"
        ]
      }
    ],
    "formatted_address": "Clogga, Oakdale, Co. Wicklow, Ireland",
    "geometry": {
      "bounds": {
        "northeast": {
          "lat": 52.7621817,
          "lng": -6.137763899999999
        },
        "southwest": {
          "lat": 52.7515821,
          "lng": -6.1557521
        }
      },
      "location": {
        "lat": 52.7567198,
        "lng": -6.145984899999999
      },
      "location_type": "APPROXIMATE",
      "viewport": {
        "northeast": {
          "lat": 52.7621817,
          "lng": -6.137763899999999
        },
        "southwest": {
          "lat": 52.7515821,
          "lng": -6.1557521
        }
      }
    },
    "place_id": "ChIJn_Wa4ILDZ0gRog-7GajHACY",
    "types": [
      "neighborhood",
      "political"
    ]
  },
  {
    "area_id": 1666,
    "area_name": "Grange Con",
    "county_name": "Wicklow",
    "county_id": 4,
    "address_components": [
      {
        "long_name": "Grangecon",
        "short_name": "Grangecon",
        "types": [
          "locality",
          "political"
        ]
      },
      {
        "long_name": "Grangecon Parks",
        "short_name": "Grangecon Parks",
        "types": [
          "neighborhood",
          "political"
        ]
      },
      {
        "long_name": "County Wicklow",
        "short_name": "WW",
        "types": [
          "administrative_area_level_1",
          "political"
        ]
      },
      {
        "long_name": "Ireland",
        "short_name": "IE",
        "types": [
          "country",
          "political"
        ]
      }
    ],
    "formatted_address": "Grangecon Parks, Grangecon, Co. Wicklow, Ireland",
    "geometry": {
      "location": {
        "lat": 52.997873,
        "lng": -6.74315
      },
      "location_type": "APPROXIMATE",
      "viewport": {
        "northeast": {
          "lat": 52.99922198029149,
          "lng": -6.741801019708498
        },
        "southwest": {
          "lat": 52.9965240197085,
          "lng": -6.744498980291502
        }
      }
    },
    "place_id": "ChIJyY_H-yaIZ0gREVxdYmGg4wU",
    "types": [
      "locality",
      "political"
    ]
  },
  {
    "area_id": 192,
    "area_name": "Bray",
    "county_name": "Wicklow",
    "county_id": 4,
    "address_components": [
      {
        "long_name": "Bray",
        "short_name": "Bray",
        "types": [
          "locality",
          "political"
        ]
      },
      {
        "long_name": "County Wicklow",
        "short_name": "WW",
        "types": [
          "administrative_area_level_1",
          "political"
        ]
      },
      {
        "long_name": "Ireland",
        "short_name": "IE",
        "types": [
          "country",
          "political"
        ]
      }
    ],
    "formatted_address": "Bray, Co. Wicklow, Ireland",
    "geometry": {
      "bounds": {
        "northeast": {
          "lat": 53.21507,
          "lng": -6.0882999
        },
        "southwest": {
          "lat": 53.17897,
          "lng": -6.13833
        }
      },
      "location": {
        "lat": 53.200903,
        "lng": -6.1110741
      },
      "location_type": "APPROXIMATE",
      "viewport": {
        "northeast": {
          "lat": 53.21507,
          "lng": -6.0882999
        },
        "southwest": {
          "lat": 53.17897,
          "lng": -6.13833
        }
      }
    },
    "place_id": "ChIJr33MW2aoZ0gRZ3fTTM48j6c",
    "types": [
      "locality",
      "political"
    ]
  },
  {
    "area_id": 2464,
    "area_name": "Ballycullen",
    "county_name": "Wicklow",
    "county_id": 4,
    "address_components": [
      {
        "long_name": "Ballycullen",
        "short_name": "Ballycullen",
        "types": [
          "neighborhood",
          "political"
        ]
      },
      {
        "long_name": "County Wicklow",
        "short_name": "WW",
        "types": [
          "administrative_area_level_1",
          "political"
        ]
      },